add_time,lat,lon,store_address,store_name,topic
2019-11-26,28.591391234073622,115.89077439485573,江西省南昌市南昌县芳草路,爱玛电动车,爱玛
2019-11-26,28.671745776336955,115.94737737959737,江西省南昌市青山湖区上海路401号附近,爱玛电动车,爱玛
2019-11-26,28.551604186108275,115.95046017276752,南昌市南昌县,爱玛电动车,爱玛
2019-11-26,28.660733002886822,115.9116729578094,江西省南昌市西湖区洪城路王府井购物中心对面,南昌市洪城路爱玛电动车,爱玛
2019-11-26,28.64264408013334,115.92597948005155,江西省南昌市青云谱区新溪桥路116附近,爱玛电动车,爱玛
2019-11-26,28.439771655682655,115.93518960791678,南昌市南昌县丁杨段西50米,爱玛电动车,爱玛
2019-11-26,28.766356980074217,116.02682824036734,江西省南昌市南昌县蒋巷公交站(富民路西),爱玛电动车,爱玛
2019-11-26,28.29282884020145,116.1323436680459,南昌市进贤县燕归北路72号,爱玛电动车,爱玛
2019-11-26,28.61546650463679,115.95739411664078,江西省南昌市青山湖区谢佛路2295号附近,爱玛电动车,爱玛
2019-11-26,28.661577356062736,115.90754030331212,江西省南昌市西湖区洪城路105号爱玛公司,爱玛电动车,爱玛
2019-11-26,28.5860647579138,115.93851752440628,江西省南昌市南昌县振兴大道33号附近,爱玛电动车,爱玛
2019-11-26,28.741527496597403,115.9195842904162,江西省南昌市东湖区X020(扬新路),爱玛电动车,爱玛
2019-11-26,28.30968481640999,116.3865590214331,江西省南昌市进贤县下埠街1号正西方向146米,爱玛电动车,爱玛
2019-11-26,28.84196896117186,115.56369177116609,江西省南昌市安义县潦河大市场爱玛电动车,爱玛电动车,爱玛
2019-11-26,28.71757836546204,115.8199839025723,江西省南昌市青山湖区嘉业海棠湾,爱玛电动车(嘉业海棠湾专卖店),爱玛
2019-11-26,28.55367697871474,115.95229801600978,南昌县莲塘中大道468号(中共南昌县交通运输协会支部委员会东南),爱玛电动车(五一路店),爱玛
2019-11-26,28.686549621646066,115.82755814513828,江西省南昌市新建区馨居雅苑1栋,爱玛电动车(新建县老肖电动车专卖店),爱玛
2019-11-26,28.36718227838381,116.08220898254775,泉岭乡泉岭大道,爱玛电动车,爱玛
2019-11-26,28.698748625155122,115.82145092530017,南昌市新建区,爱玛电动车,爱玛
2019-11-26,28.369465458725234,116.1866030708457,G320(群力大道),爱玛电动车,爱玛
2019-11-26,28.85693574745326,115.93725840550559,坎七段和七农段的交叉口附近,爱玛电动车,爱玛
2019-11-26,28.432989620478395,115.97165865567663,辉煌大道156号附近,爱玛电动车,爱玛
2019-11-26,28.591345089168488,115.79411827338764,万达城D区S7一106,爱玛电动车,爱玛
2019-11-26,28.847236488940645,115.89829816792326,乐化镇江家乙桥江西省农村信用社附近,爱玛电动车,爱玛
2019-11-26,28.232844112240436,116.1828136301379,李渡镇李渡大道百利金超市对面,爱玛电动车,爱玛
2019-11-26,28.38346651536386,116.24682346719683,民和路156号附近,爱玛电动车,爱玛
2019-11-26,28.58863582026966,116.41945125111111,农贸路与梅阳大道交叉口,爱玛电动车,爱玛
2019-11-26,28.246153100088762,116.23773729111905,学文大道与长李段交叉口西北200米,爱玛电动车,爱玛
2019-11-26,28.370668167744636,116.26932602021435,进贤大道317号,爱玛电动车(苗圃路店),爱玛
2019-11-26,28.68759600617345,115.96855240505471,南昌市青山湖区,爱玛精修电动车摩托车,爱玛
2019-11-26,28.644056015895877,115.9282403164939,江西省南昌市青云谱区新溪桥西二路88号附近,爱玛电动车行业领跑者,爱玛
2019-11-26,28.551604186108275,115.95046017276752,江西省南昌市南昌县紫阳东大街1090号,爱玛电动车(刘城路店),爱玛
2019-11-26,28.68033832282821,115.97270896166499,江西省南昌市青山湖区北京东路1751号,爱玛,爱玛
2019-11-26,28.68945529506072,115.86458944231661,外矾路283号,爱玛电动车(莱卡小镇专卖店),爱玛
2019-11-26,28.68945529506072,115.86458944231661,461乡道附近,爱玛电动车(461乡道店),爱玛
2019-11-26,28.447979437363692,115.63001546355687,江西省南昌市新建区046县道南350米(石岗中学东北),爱玛电动车(石岗镇个体私营经济和劳动管理站西南),爱玛
2019-11-26,27.82223577871178,114.69419337409488,新余市分宜县钤山东路331号,爱玛电动车,爱玛
2019-11-26,27.81314942870756,114.91622136658087,江西省新余市渝水区城北街道站前西路延伸段盛景苑6栋爱玛电动车,爱玛电动车,爱玛
2019-11-26,27.832524886596293,114.94896693800307,江西省新余市渝水区商业街B区立马电动车旁边,爱玛电动车(新余旗舰店),爱玛
2019-11-26,27.812796523926743,114.91562478931561,江西省新余市渝水区五一南路437西北100米,爱玛电动车,爱玛
2019-11-26,27.842158443191657,114.93257329363806,劳动北路1130号,爱玛电动车,爱玛
2019-11-26,27.829046342952427,114.98172668558453,新兴南路与渝东大道交叉口东100米,爱玛电动车,爱玛
2019-11-26,27.79910179048029,114.94269841842764,冶金路21号,爱玛电动车,爱玛
2019-11-26,27.80683965044363,114.95142389340262,江西省新余市渝水区抱石中大道辅路,爱玛电动车(小保车行),爱玛
2019-11-26,27.831778736838533,114.94126924310751,丰源北路与学思路交叉口东150米,爱玛电动车(暨阳专卖店),爱玛
2019-11-26,41.744440470983044,125.97235677833933,吉林省通化市东昌区建设大街3342号附近,爱玛电动车,爱玛
2019-11-26,41.14018840610791,126.21215932463467,吉林省通化市集安市鸭江路1643,爱玛电动车,爱玛
2019-11-26,42.53178929174182,125.68898366419859,梅河大街2210,爱玛电动车,爱玛
2019-11-26,41.733815801613424,125.94660627598029,001乡道与303国道交叉口西南50米,爱玛电动车,爱玛
2019-11-26,41.739096168802504,125.57278802614404,吉林省通化市通化县沈长线英额布镇政府西北50米,爱玛电动车(英戈市专卖店),爱玛
2019-11-26,42.68798391339139,126.05368150802258,前进街76-1号,爱玛电动车(东前进街店),爱玛
2019-11-26,41.53893886227117,121.24556854894828,辽宁省锦州市义县,爱玛电动车,爱玛
2019-11-26,41.375572234641034,121.78101522614226,辽宁省锦州市北镇市利达通讯南50米(龙德购物广场南),爱玛电动车,爱玛
2019-11-26,41.16648762858835,121.36253879584407,辽宁省锦州市凌海市八一街16号24附近,爱玛电动车,爱玛
2019-11-26,41.69815314667935,122.12081302936573,辽宁省锦州市黑山县诚信家园西南50米(中大路北),爱玛电动车,爱玛
2019-11-26,41.050117653745176,121.18925727991923,辽宁省锦州市凌海市102国道南50米,爱玛电动车,爱玛
2019-11-26,41.67159298377575,122.130557039063,锦州市黑山县705县道南50米,爱玛电动车,爱玛
2019-11-26,41.397916705926484,121.4485397806223,辽宁省锦州市义县张家堡乡政府南200米,爱玛电动车,爱玛
2019-11-26,42.020855116829765,122.17802962865382,交通街附近,爱玛电动车,爱玛
2019-11-26,40.85530407483448,121.07816890124842,九华山路与天王路交叉口东南150米,爱玛电动车,爱玛
2019-11-26,41.55405394946477,122.07322493565243,军民路北50米,爱玛电动车,爱玛
2019-11-26,41.59638680967238,121.79904820748726,辽宁省锦州市北镇市钟秀街9号,爱玛电动车(北镇专卖店),爱玛
2019-11-26,41.49635793449798,122.12116125570006,柳芦线附近,爱玛电动车,爱玛
2019-11-26,41.10093149946208,121.13259630055518,304省道南50米,爱玛电动车,爱玛
2019-11-26,41.05045768764357,121.18925727991923,102国道与723县道交叉口西150米附近,爱玛电动车,爱玛
2019-11-26,41.06522093160038,120.98130602215902,女儿河乡汤河子造纸厂大门西侧,爱玛电动车,爱玛
2019-11-26,41.54877886329272,121.253650513791,东街与鱼市胡同交叉口西北50米,爱玛电动车(鱼市胡同店),爱玛
2019-11-26,41.12188150762001,121.14679890322745,解放路二段70,爱玛电动车,爱玛
2019-11-26,40.951564085466444,121.08974407349051,辽宁省锦州市太和区杏山集贸市场(701县道东),爱玛电动车(杏山集贸市场店),爱玛
2019-11-26,41.09619142214966,121.08855642377576,解放西路110-17号附近,爱玛电动车(新民专卖店),爱玛
2019-11-26,41.13490337935058,121.30171821281606,双羊镇大锦线振兴小区,爱玛电动车(双何线店),爱玛
2019-11-26,41.549119256767625,121.25314970846918,锦州市义县东街奉国寺西50米路北(爱玛电动车旁),科翔电脑,爱玛
2019-11-26,38.852920979844384,121.2585585433855,大连市旅顺口区营顺路819号,爱玛电动车,爱玛
2019-11-26,39.70356952397078,122.98385697214493,辽宁省大连市庄河市延安路822号附近,爱玛电动车,爱玛
2019-11-26,39.583279586232266,121.4070095331834,辽宁省大连市瓦房店市长兴路辅路,爱玛电动车,爱玛
2019-11-26,38.924212342841955,121.54993163312677,红绫路35号楼2门洞1楼1,爱玛电动车,爱玛
2019-11-26,39.27449077827597,122.58878607260267,辽宁省大连市长海县长海西路110正西方向88米,爱玛电动车,爱玛
2019-11-26,38.99347458647981,121.39890265114244,辽宁省大连市甘井子区营城街37号西南100米,爱玛电动车,爱玛
2019-11-26,39.468326695715504,121.8404289729111,大连市金州区炮台街道邓屯村邓陈线北150米,爱玛电动车,爱玛
2019-11-26,39.93718973211658,123.36208763050901,辽宁省大连市庄河市花院地区医院中西医门诊部(栗石线),爱玛电动车,爱玛
2019-11-26,39.11246276344014,121.72659667334817,民政街155号,爱玛电动车(民政街店),爱玛
2019-11-26,39.048325607279715,121.81691052618493,辽宁省大连市金州区黄海西路东居里36号楼门市,爱玛电动车开发区店,爱玛
2019-11-26,39.62626765820724,122.01083056448961,辽宁省大连市瓦房店市大宽街三段73,爱玛电动车(大宽街三段店),爱玛
2019-11-26,39.213793837849764,122.10043080253092,辽宁省大连市金州区登王线,爱玛电动车专卖店,爱玛
2019-11-26,39.34307915456183,121.8585704323462,辽宁省大连市金州区石河桥南商店(202国道北),爱玛电动车(宏业路店),爱玛
2019-11-26,39.70593983519849,122.98745857011947,辽宁省大连市庄河市红岩路841号,爱玛电动车(红岩路店),爱玛
2019-11-26,38.88226825094033,121.55712269898844,银杏路东50米,爱玛电动车(银杏路店),爱玛
2019-11-26,39.4070321770563,122.35229209868707,皮口镇西山街243号,爱玛电动车(宋大线店),爱玛
2019-11-26,39.574219054088324,121.37775725898027,临港工业区新港假日小区37号楼一层,爱玛电动车(新港假日小区店),爱玛
2019-11-26,39.74157814337312,121.72136387756603,复州城(秀秀书店偏边),爱玛电动车(凤荷新居东南),爱玛
2019-11-26,39.7198469628753,123.19909983155864,英楼线附近,爱玛电动车(黑岛供销社分店),爱玛
2019-11-26,38.92716471209611,121.59691289691438,辽宁省大连市沙河口区西安路13号附近,爱玛,爱玛
2019-11-26,38.95800216293212,121.53151895549547,大连市甘井子区,爱玛,爱玛
2019-11-26,41.565550879004455,113.55933899355742,内蒙古自治区乌兰察布市商都县华林商厦东北(商都温州商业步行街),爱玛电动车,爱玛
2019-11-26,41.907427703437214,114.0085372028052,内蒙古自治区乌兰察布市四子王旗文化路,爱玛电动车,爱玛
2019-11-26,40.87814330837908,113.84051436733579,内蒙古自治区乌兰察布市兴和县政府,爱玛电动车(兴和专卖店),爱玛
2019-11-26,40.90425695175303,112.58082198798252,内蒙古自治区乌兰察布市卓资县日照轩商务宾馆(乌兰察布市卓资中学北),爱玛电动车,爱玛
2019-11-26,41.4555483911984,113.19623802162494,内蒙古自治区乌兰察布市察哈尔右翼后旗白音察干镇白音路正西方向178米,爱玛电动车(农林路店),爱玛
2019-11-26,41.282426977667676,112.63786968786863,内蒙古自治区乌兰察布市察哈尔右翼中旗察右中旗汇豪宾馆西(巴音路西),爱玛电动车(中旗专卖店),爱玛
2019-11-26,41.038959887243585,113.11355901643621,桥东街道桥东四马路7号楼,爱玛电动车(鸿雁街店),爱玛
2019-11-26,41.899120067817776,114.01980592261407,内蒙古自治区乌兰察布市化德县二完小北路与金三角路交叉口南50米,爱玛电动车,爱玛
2019-11-26,40.983090828493175,113.12724053543808,怀远南路与581县道交叉口西北150米,爱玛电动车(平地泉专卖店),爱玛
2019-11-26,40.84616041740264,107.61655819905867,巴彦淖尔市临河区110国道南50米,爱玛电动车,爱玛
2019-11-26,40.75668072584017,107.3695337956837,巴彦淖尔市临河区,爱玛电动车,爱玛
2019-11-26,41.57060305104223,108.5178318110518,内蒙古自治区巴彦淖尔市乌拉特中旗乌兰大街,爱玛电动车,爱玛
2019-11-26,41.09463138328084,107.0865353108728,巴彦淖尔市乌拉特后旗东升嘉园北门,爱玛电动车,爱玛
2019-11-26,40.73547177575332,108.6593324512206,内蒙古自治区巴彦淖尔市乌拉特前旗红卫中路,爱玛电动车(红卫中路店),爱玛
2019-11-26,41.10473192010527,108.28145402397087,内蒙古自治区巴彦淖尔市五原县民政局(五原县人民医院东北),爱玛电动车(隆兴昌东街店),爱玛
2019-11-26,40.888417147498245,107.15366640027787,陕坝镇陕坝二运东侧,爱玛电动车,爱玛
2019-11-26,40.76704912159485,107.42470303185007,利民街临河区第五中学校西门对面,爱玛电动车专卖,爱玛
2019-11-26,40.88920749685922,107.15105637361864,内蒙古自治区巴彦淖尔市杭锦后旗中国石油加油站(312省道南),爱玛电动车(杭锦后旗自然资源和规划局三道桥中心所东),爱玛
2019-11-26,41.5711098813556,108.5264313687497,隆兴昌东街爱玛电动车对面,天姿发廊(隆兴昌东街店),爱玛
2019-11-26,34.504000470428366,109.49859627640245,渭南市临渭区,爱玛电动车,爱玛
2019-11-26,34.51435133926222,109.48410939327358,陕西省渭南市临渭区阳光小区东北(胜利大街北),爱玛电动车,爱玛
2019-11-26,35.243872196865574,110.15539621273652,渭南市合阳县,爱玛电动车,爱玛
2019-11-26,34.571788863684034,110.10058457492585,东岳路(西段)(滨河小区南),爱玛电动车,爱玛
2019-11-26,34.83955915981867,109.40543723399854,车站大街西段69号附近,爱玛电动车,爱玛
2019-11-26,34.55032684853216,110.25250761972325,陕西省渭南市潼关县连天线辅路,爱玛电动车,爱玛
2019-11-26,34.96027676468935,109.6030133523729,陕西省渭南市蒲城县迎宾路,爱玛电动车,爱玛
2019-11-26,34.51873074009985,109.77847737160204,渭南市华州区,爱玛电动车,爱玛
2019-11-26,34.75726044025601,109.18643744727943,陕西省渭南市富平县S106,爱玛电动车,爱玛
2019-11-26,34.79987124706163,109.94511560477196,陕西省渭南市大荔县G108(西环路),爱玛电动车,爱玛
2019-11-26,34.74835935861623,109.24289082824015,陕西省渭南市富平县张觅路与314县道交叉口西北100米,爱玛电动车,爱玛
2019-11-26,35.48589689133215,110.4619070357961,烟泉路北段董村摩托城,爱玛电动车,爱玛
2019-11-26,35.172897278615025,109.94207445973915,渭南市澄城县青正街政府城关街道办,爱玛电动车(新村店),爱玛
2019-11-26,35.18902374140007,109.59954793944432,朝阳东巷与杜康中路交叉口东北50米(道南小区南),爱玛电动车,爱玛
2019-11-26,34.50571551675255,109.51658960525897,672乡道东50米,爱玛电动车(合阳店),爱玛
2019-11-26,34.51987420173994,109.76707688654436,陕西省渭南市华州区华州街道彤城路华县中医医院附近,爱玛电动车(华县惠佳专卖店),爱玛
2019-11-26,34.50619036283901,109.51453922293244,东风大街东段-91号,爱玛电动车,爱玛
2019-11-26,35.236941338873606,110.1457245840057,西环路11号,爱玛电动车(西环路店),爱玛
2019-11-26,34.75726044025601,109.18643744727943,渭南市富平县,爱玛运动电动车(富平庄里专卖店),爱玛
2019-11-26,34.96064847402189,109.58790303623705,陕西省渭南市蒲城县红旗街,爱玛,爱玛
2019-11-26,35.48700805774417,110.4620414223004,陕西省韩城市烟泉北路爱玛电动车北5米,CFMOTO春风动力(韩城县军店),爱玛
2019-11-26,34.38187604903935,107.16275401813901,陕西省宝鸡市金台区东风路中国银行旁,爱玛电动车,爱玛
2019-11-26,34.366996195529644,107.28779333739686,陕西省宝鸡市陈仓区陈仓大道,爱玛电动车,爱玛
2019-11-26,34.382277270380875,107.90161218384253,陕西省宝鸡市岐山县西一路,爱玛电动车,爱玛
2019-11-26,34.36891564286998,107.2445753670404,五丈原镇摩托车市场,爱玛电动车,爱玛
2019-11-26,34.06248222493849,107.55959855107864,陕西省宝鸡市太白县眉太线,爱玛电动车,爱玛
2019-11-26,34.65355720220935,107.12485531714803,宝鸡市千阳县宝平路77号,爱玛电动车(西大街店),爱玛
2019-11-26,34.36891564286998,107.2445753670404,310国道,爱玛电动车,爱玛
2019-11-26,34.52163003663138,107.40231997052575,凤翔县妇幼保健院附近,爱玛电动车(南环路店),爱玛
2019-11-26,34.41078094531092,107.16047333543229,南大街与宝平路交汇处东100米,爱玛电动车(南大街),爱玛
2019-11-26,34.44542531339531,107.62844754197486,陕西省宝鸡市岐山县中国邮政储蓄银行(旋力购物广场东南),爱玛电动车(岐山店),爱玛
2019-11-26,34.33535629310692,107.63103748342122,周五路与310国道交叉口北200米,爱玛电动车(车岐山五丈原店),爱玛
2019-11-26,34.36070388778223,107.37144916269206,陈仓陈仓大道虢镇火车站南段鑫麟公司门面爱玛电动车旁边,华夏保险(虢镇支公司),爱玛
2019-11-26,35.10851897525222,117.16204739477337,山东省枣庄市滕州市新华前街,爱玛电动车,爱玛
2019-11-26,35.07496546129422,117.18603423236533,山东省枣庄市滕州市永昌路,爱玛电动车,爱玛
2019-11-26,35.09575188118995,117.16902930906144,山东省滕州市平行中路金孔府北区门南50米路中,爱玛电动车,爱玛
2019-11-26,34.80801333920543,117.34304267448526,山东省枣庄市薛城区四季菁华(枣庄市实验学校西),爱玛电动车,爱玛
2019-11-26,34.79045473939335,117.27598342526674,山东省枣庄市薛城区万通涂料厂(长江中路北),爱玛电动车,爱玛
2019-11-26,34.56939330804822,117.73532047373769,山东省枣庄市台儿庄区金光路138号,爱玛电动车,爱玛
2019-11-26,35.08893215244459,117.17279323519912,善国中路与府前路交叉口西南100米,爱玛电动车,爱玛
2019-11-26,34.806144987947,117.2697714872584,山东省枣庄市薛城区协和医院(薛国大酒店西北),爱玛电动车,爱玛
2019-11-26,35.06009427556067,117.1605922790693,枣庄市滕州市平行南路949号附近,爱玛电动车,爱玛
2019-11-26,34.84626027442913,117.53056570857534,山东省枣庄市市中区衡山路,爱玛电动车,爱玛
2019-11-26,34.8238944140534,117.62985985601904,汇泉小区西(枣庄市西王庄镇政府东),爱玛电动车,爱玛
2019-11-26,35.10569198076537,117.4674431655763,山东省枣庄市山亭区S240,爱玛电动车,爱玛
2019-11-26,35.09757226111537,117.2358289542757,山东省枣庄市滕州市沙河路,爱玛电动车专卖店,爱玛
2019-11-26,34.76073732911193,117.50537303776849,山东省枣庄市峄城区东方龙幼儿园(352省道北),爱玛电动车,爱玛
2019-11-26,34.81338479465029,117.3884947737637,山东省枣庄市薛城区S245(店韩路),爱玛电动车,爱玛
2019-11-26,34.863671697399745,117.56265375810389,山东省枣庄市市中区中天步行街与君山路交汇南侧,爱玛电动车,爱玛
2019-11-26,34.57093044067451,117.74223447702754,山东省枣庄市台儿庄区兴中路61号,爱玛电动车(兴中路店),爱玛
2019-11-26,34.801124568638926,117.2694576193132,山东省枣庄市薛城区S348,爱玛电动车,爱玛
2019-11-26,35.120034809573916,117.17256521920983,山东省枣庄市滕州市益康大道南路1158号西北60米,爱玛电动车,爱玛
2019-11-26,35.005957565356304,117.19470869436988,山东省枣庄市滕州市益康大道西50米,爱玛电动车,爱玛
2019-11-26,34.797619749532224,117.28094290710595,临山路357-4,爱玛电动车(薛城旗舰店),爱玛
2019-11-26,34.73830251049098,117.74983619247342,枣庄市峄城区峄底阁镇甘露沟花园小区东头晁家车行,爱玛电动车,爱玛
2019-11-26,34.865988620214964,117.53727348337775,西昌北路702号附近,爱玛电动车,爱玛
2019-11-26,35.0886549809624,117.19678191953335,荆河东路157号附近,爱玛电动车,爱玛
2019-11-26,34.612136003308876,117.54103190200432,台韩线附近,爱玛电动车,爱玛
2019-11-26,34.825115641332815,117.36533077952734,复元三路东50米,爱玛电动车,爱玛
2019-11-26,35.04675482950935,117.21576320586192,文昌路西50米,爱玛电动车,爱玛
2019-11-26,34.848132596044266,117.67381502258887,206国道东50米,爱玛电动车,爱玛
2019-11-26,34.815994048435115,117.33054194483897,343省道附近,爱玛电动车,爱玛
2019-11-26,35.08437045851781,117.15676869647797,荆河中路1109号附近,爱玛电动车,爱玛
2019-11-26,34.815994048435115,117.33054194483897,迎宾大道南路,爱玛电动车,爱玛
2019-11-26,34.85842178803425,117.57648752192358,山东省枣庄市市中区文化中路32号,爱玛电动车,爱玛
2019-11-26,34.99858688833366,117.28785985683787,国泰大道与344省道交叉口东150米,爱玛电动车,爱玛
2019-11-26,34.815994048435115,117.33054194483897,352省道南50米,爱玛电动车,爱玛
2019-11-26,35.04675482950935,117.2166615113719,文昌路东50米,爱玛电动车,爱玛
2019-11-26,34.988635992899056,117.15474454467234,鲍沟镇中国邮政对过,爱玛电动车,爱玛
2019-11-26,35.1483051573203,117.31686611929743,文化路与长安中路交叉口东100米,爱玛电动车,爱玛
2019-11-26,34.74188061197993,117.25314573871027,104国道中国移动北50米,爱玛电动车,爱玛
2019-11-26,35.07827821584188,117.17979064974878,山东省枣庄市滕州市荆善安居小区南门东侧,爱玛电动车销售服务店,爱玛
2019-11-26,34.815994048435115,117.33054194483897,104省道西150米,爱玛电动车,爱玛
2019-11-26,34.815994048435115,117.33054194483897,244省道西50米,爱玛电动车,爱玛
2019-11-26,34.86300892096382,117.60324019367229,仙台东路159号人民公园南,爱玛电动车,爱玛
2019-11-26,34.677181503537376,117.68236108080383,山东省枣庄市台儿庄区枣台路与薛前路交叉口北150米,爱玛电动车(薛前路店),爱玛
2019-11-26,35.09166765164218,117.47065263150233,山东省枣庄市山亭区银山小区东南90米(邾国路东),爱玛电动车三轮车,爱玛
2019-11-26,35.06452345516931,117.58660842198573,山东省枣庄市山亭区徐庄镇政府西(343省道),爱玛电动车(兄弟专卖店),爱玛
2019-11-26,35.0830303535397,117.14005851080513,荆河西路北50米,爱玛电动车五里屯专卖,爱玛
2019-11-26,35.10660693507681,117.18171300018419,学院中路2888号,爱玛电动车(学院中路),爱玛
2019-11-26,34.8477622974446,117.67336586983387,206国道南50米,爱玛电动车(税郭镇人民调解委员会东),爱玛
2019-11-26,34.76959762667633,117.59208179745802,承水中路198号,爱玛电动车(承水中路店),爱玛
2019-11-26,34.85836298504072,117.57694804453142,中兴路爱玛电动车旁,轻骑电动车(中兴路店),爱玛
2019-11-26,35.120034809573916,117.17256521920983,枣庄市滕州市,爱玛,爱玛
2019-11-26,35.10569198076537,117.4674431655763,山东省枣庄市山亭区S343,超威电池爱玛电动三轮车,爱玛
2019-11-26,34.801124568638926,117.2694576193132,枣庄市薛城区,爱玛,爱玛
2019-11-26,35.05458346880877,117.15919301823574,山东省枣庄市滕州市腾飞西路,爱玛,爱玛
2019-11-26,35.45403043295539,119.54894081150805,山东省日照市东港区学海路,爱玛电动车,爱玛
2019-11-26,35.43104900394244,119.46862431118342,山东省日照市东港区兖州南路,爱玛电动车,爱玛
2019-11-26,35.43104900394244,119.46862431118342,山东省日照市东港区丽江路,爱玛电动车,爱玛
2019-11-26,35.43104900394244,119.46862431118342,日照市东港区,爱玛电动车,爱玛
2019-11-26,35.75569710410426,119.21558036258607,山东省日照市五莲县S334,爱玛电动车,爱玛
2019-11-26,35.29497887998357,119.26794941788457,巨峰镇巨峰路日照巨峰客运站西北50米,爱玛电动车,爱玛
2019-11-26,35.431092675046116,119.47001323702735,山东省日照市东港区海曲中路23号,爱玛电动车日照服务中心(东关南路店),爱玛
2019-11-26,35.18269249852454,119.27619336068531,山东省日照市岚山区疏港大道,爱玛电动车,爱玛
2019-11-26,35.14545806836215,119.26315678461587,山东省日照市岚山区程安宾馆(岚山西路北),爱玛电动车,爱玛
2019-11-26,35.59286980610695,118.83848248916345,山东省日照市莒县青年中路98号,爱玛电动车(青年中路店),爱玛
2019-11-26,35.7679570337551,119.20792935981176,解放路与龙溪路交叉口东南50米,爱玛电动车,爱玛
2019-11-26,35.488818579058574,119.35844793538499,盛南路西50米,爱玛电动车,爱玛
2019-11-26,35.43166017098057,119.44113399586521,山东省日照市东港区海曲西路89号附近,爱玛电动车(城西分店),爱玛
2019-11-26,35.60351851106184,119.33199383972679,街潮路北50米,爱玛电动车,爱玛
2019-11-26,35.776445263236205,119.20193320376995,解放路西50米,爱玛电动车,爱玛
2019-11-26,35.405688095083775,118.98380586304013,中兴路南50米,爱玛电动车,爱玛
2019-11-26,35.42283899843767,119.53341540456555,334省道附近,爱玛电动车,爱玛
2019-11-26,35.40245831560299,119.54707647543908,海滨三路凯旋广场,爱玛电动车(海滨三路店),爱玛
2019-11-26,35.431092675046116,119.47001323702735,山东省日照市东港区海曲中路23号,爱玛电动车新世纪工贸有限公司,爱玛
2019-11-26,35.75569710410426,119.21558036258607,日照市五莲县,宗申机车爱玛电动车,爱玛
2019-11-26,35.40315500343863,119.44351101285481,204国道与341省道交叉口北150米,爱玛电动车,爱玛
2019-11-26,35.426383400845175,119.38832379351042,将帅沟与海安路交叉口西二十米,爱玛电动车(将帅专卖店),爱玛
2019-11-26,35.75569710410426,119.21558036258607,日照市五莲县,爱玛,爱玛
2019-11-26,35.436139584661746,119.46522956974593,山东省日照市东港区西海路97号,爱玛自行车,爱玛
2019-11-26,35.585872122989336,118.84353824240415,日照市莒县,爱玛,爱玛
2019-11-26,35.42283899843767,119.53341540456555,S342(碑廓中路),爱玛,爱玛
2019-11-26,37.46488429186941,118.51280344347086,山东省东营市东营区西三路光彩大厦爱玛电动车专卖店,爱玛(电动车),爱玛
2019-11-26,37.643038014528074,118.37774895920093,山东省东营市利津县S310,爱玛电动车,爱玛
2019-11-26,37.40539270729665,118.39145202136555,山东省东营市东营区史口立交桥南50米,爱玛电动车,爱玛
2019-11-26,37.059638498906146,118.41349864392043,东营市广饶县,爱玛电动车,爱玛
2019-11-26,37.37724997018778,118.59150836843938,东营市东营区巫山路与繁荣路交叉口南200米,爱玛电动车,爱玛
2019-11-26,37.09296513231905,118.46143851407142,山东省东营市广饶县踊跃路北50米,爱玛电动车,爱玛
2019-11-26,37.69616436969146,118.84509589045548,东营市垦利区黄河口镇绿洲二路124号,爱玛电动车,爱玛
2019-11-26,37.45682072741581,118.65211598568861,东二路258号附近,爱玛电动车金城,爱玛
2019-11-26,37.437216921729174,118.67643688872687,山东省东营市东营区东城街道胶州路府前小区19号楼爱玛电动车,爱玛电动车,爱玛
2019-11-26,36.991630345506806,118.5236830011633,山东省东营市广饶县潍高路168号附近,爱玛电动车(常春路店),爱玛
2019-11-26,37.89210529606373,118.54357507837625,山东省东营市河口区黄河路49号梦之园购物广场,爱玛电动车(梦之园商业广场店),爱玛
2019-11-26,37.059401760781554,118.41093325136706,山东省东营市广饶县府前街86号,爱玛电动车(府前路店),爱玛
2019-11-26,37.593951496751316,118.5645052643857,山东省东营市垦利区中兴路69号-13,爱玛电动车(垦利旗舰店),爱玛
2019-11-26,37.05473965408524,118.41440865165629,东营市广饶县兵圣路162号-1号,爱玛电动车,爱玛
2019-11-26,37.248397461976715,118.60891811222305,渤海路与聚财路交叉口西北100米,爱玛电动车,爱玛
2019-11-26,37.93865941291576,118.85976092126994,山东省东营市河口区东方购物城(鄱阳湖路东),爱玛电动车(东方购物城店),爱玛
2019-11-26,37.65401025926212,118.38377658917288,盐窝镇中心幼儿园对面,爱玛电动车,爱玛
2019-11-26,37.05112196425104,118.55555595862394,稻庄镇西水商业街,爱玛电动车,爱玛
2019-11-26,37.505881124585265,118.2519620233858,山东省东营市利津县津三路107号附近,爱玛电动车(小刀电动车),爱玛
2019-11-26,37.503272716397284,118.50214949520725,东营市东营区西四路267号附近,爱玛电动车配件批发,爱玛
2019-11-26,37.18768183981003,118.43859200525654,东营市广饶县孙武路与府前街交叉口西南50米,爱玛电动车(王涛车行专卖店),爱玛
2019-11-26,37.50552300060322,118.25190408268041,津三路119号,爱玛电动车,爱玛
2019-11-26,37.593951496751316,118.5645052643857,中兴路69-18号附近,金彭电动车(垦利旗舰店),爱玛
2019-11-26,37.492260019905245,118.4343137192652,云红大街东100米,爱玛·宏迪电动车(信义车业),爱玛
2019-11-26,37.44272198350483,122.15438700017394,山东省威海市环翠区青岛中路97-3附近,爱玛电动车,爱玛
2019-11-26,37.51981499987548,122.11860875203416,山东省威海市环翠区少年路与花园中路交叉口东50米,爱玛电动车,爱玛
2019-11-26,37.32614251696395,122.31267794049418,米山镇兴业路16号,爱玛电动车,爱玛
2019-11-26,37.03672812279016,121.6182772118186,山东省威海市乳山市下初信通水暖(下初专卖店),爱玛电动车,爱玛
2019-11-26,37.053295399499824,121.88790203590892,山东省威海市文登区泽头镇驻地西南方向50米,爱玛电动车,爱玛
2019-11-26,37.12315403224222,122.01003093963652,山东省威海市文登区X16(一六县道),爱玛电动车,爱玛
2019-11-26,37.42063594988867,122.1651323689893,新都花园二区19-2,爱玛电动车(深圳路店),爱玛
2019-11-26,37.43610322414383,121.96547130328902,山东省威海市环翠区初村顺兴手机卖场(威海市初村镇政府东北),爱玛电动车,爱玛
2019-11-26,37.437554475889876,122.01214736628243,山东省威海市环翠区和兴路,爱玛电动车,爱玛
2019-11-26,37.16966955429975,122.42262893682998,山东省威海市荣成市南山北路71附近,爱玛电动车(荣成旗舰店),爱玛
2019-11-26,37.51031781066933,122.09857691375504,世昌大道148-8-2号万家疃市场西50米,爱玛电动车(万家疃店),爱玛
2019-11-26,37.02012075139882,122.17864198555385,埠口港长江超市南,爱玛电动车,爱玛
2019-11-26,37.408960343393154,121.99321755572839,巾帼路与908省道交叉口东南100米,爱玛电动车,爱玛
2019-11-26,37.384365392910524,122.36365609008341,001县道泊于新村西,爱玛电动车,爱玛
2019-11-26,37.20011332831649,122.06442836877653,文登区07县道与15县道交叉口西南200米,爱玛电动车,爱玛
2019-11-26,37.02468997500104,122.10117211837336,龙山路1号附近,爱玛电动车,爱玛
2019-11-26,37.200463604233335,122.0575611716953,文山路79号-甲,爱玛电动车,爱玛
2019-11-26,37.16760970863274,122.42730750326504,山东省威海市荣成市文化东路109号附近,爱玛电动车(三友旗舰店),爱玛
2019-11-26,37.45804757391865,122.13882712819601,望海街40号附近,爱玛电动车(望岛店),爱玛
2019-11-26,37.31430263382775,122.12929878253517,山东省威海市环翠区玉光大酒店(威海市草庙子镇政府东),爱玛电动车(新苑路店),爱玛
2019-11-26,37.01762853380032,121.52440967585896,山东省威海市乳山市309国道附近,爱玛电动车(冯家专卖店),爱玛
2019-11-26,37.51189397070994,122.05859603042245,沈阳路颐顺园小区10-6号,爱玛电动车,爱玛
2019-11-26,37.1999595435076,122.05720105179601,山东省威海市文登区龙山路街道龙山路街道文山路58号爱玛电动车商业银行,爱玛电动车商业银行,爱玛
2019-11-26,37.520408017864455,122.1042129723552,文化中路附62-103(电视台斜对面),爱玛电动车(文化中路店),爱玛
2019-11-26,37.483827477848145,122.03946314353499,沈阳中路与里口山路交叉口东北150米,爱玛电动车(沈阳中路),爱玛
2019-11-26,36.919966207587606,121.52914105098002,山东省威海市乳山市青山路65号,爱玛电动车(海峰摩托旗舰店),爱玛
2019-11-26,37.87011016764293,112.5574638465695,山西省太原市迎泽区新建路25号附近,爱玛电动车,爱玛
2019-11-26,37.83944298207542,112.5751804757696,山西省太原市小店区体育路135号附近,爱玛电动车,爱玛
2019-11-26,37.78179573592761,112.55885716243245,山西省太原市小店区平阳南路,爱玛电动车,爱玛
2019-11-26,37.84106790985542,112.57432966457024,山西省太原市小店区永辉俱乐部东南(山西会馆南),爱玛电动车,爱玛
2019-11-26,37.870848014956586,112.59663306326364,山西省太原市迎泽区五龙口街173附近,爱玛电动车,爱玛
2019-11-26,37.73591779443774,112.57937895001128,山西省太原市小店区通达街27号南90米,爱玛电动车,爱玛
2019-11-26,37.86013244080095,112.55229207447726,山西省太原市迎泽区桃园南路30附近,爱玛电动车,爱玛
2019-11-26,37.813104624014656,112.59044918203128,山西省太原市小店区S103(坞城南路),爱玛电动车,爱玛
2019-11-26,37.90018624684476,112.57638301130496,太原市杏花岭区,爱玛电动车,爱玛
2019-11-26,37.74714005059044,112.60401399048637,山西省太原市小店区小店街道真武路富世·康园,爱玛电动车(真武路店),爱玛
2019-11-26,37.816604297659154,112.498864471237,山西省太原市晋源区西峪街,爱玛电动车,爱玛
2019-11-26,37.92718787231225,112.56662678914425,山西省太原市尖草坪区恒山路8附近,爱玛电动车,爱玛
2019-11-26,37.73929319497073,112.57540594326618,山西省太原市小店区人民南路8号附近,爱玛电动车,爱玛
2019-11-26,37.8793531851886,112.5165460943697,山西省太原市万柏林区和平北路193号,爱玛电动车,爱玛
2019-11-26,37.89307280276217,112.47070793662037,山西省太原市万柏林区上庄街,爱玛电动车,爱玛
2019-11-26,37.82338448588911,112.58845093735655,长风街68号,爱玛电动车(长风街店),爱玛
2019-11-26,37.867353204922594,112.48705783081756,山西省太原市万柏林区西矿街,爱玛电动车,爱玛
2019-11-26,37.806012969976166,112.59958543415273,山西省太原市小店区太榆路73号南90米,爱玛电动车,爱玛
2019-11-26,37.83745020464299,112.59170074258984,山西省太原市小店区狄村街22-27号临,爱玛电动车,爱玛
2019-11-26,37.89163291494316,112.59990339459816,敦化南路76号附近,爱玛电动车,爱玛
2019-11-26,37.80699533969781,112.61513881522713,山西省太原市小店区许坦东街17号东南50米,爱玛电动车,爱玛
2019-11-26,37.81411634303604,112.5736321366299,山西省太原市小店区学府街101-17附近,爱玛电动车专卖店,爱玛
2019-11-26,37.80460026180487,112.55726760903593,山西省太原市小店区大马村后街32附近,爱玛电动车,爱玛
2019-11-26,37.78280785774088,112.62852530464865,山西省太原市小店区农科南路,爱玛电动车,爱玛
2019-11-26,37.80337250810079,112.59630626960046,山西省太原市小店区令德路,爱玛电动车,爱玛
2019-11-26,37.78251517168689,112.55838359642861,山西省太原市小店区平阳南路99号附近,爱玛电动车,爱玛
2019-11-26,37.9391504244329,112.53912638226195,山西省太原市尖草坪区大同路280号附近,爱玛电动车,爱玛
2019-11-26,38.005290520517065,112.52249240613367,山西省太原市尖草坪区中国邮政(新兰路南),爱玛电动车,爱玛
2019-11-26,37.98051399406485,112.5253684363256,山西省太原市尖草坪区七平街,爱玛电动车,爱玛
2019-11-26,37.8105808487229,112.5586291706974,山西省太原市小店区平阳路421号北60米,爱玛电动车,爱玛
2019-11-26,37.742322528644706,112.57239624162112,山西省太原市小店区东渠路,爱玛电动车,爱玛
2019-11-26,37.820672384647274,112.66268685439603,山西省太原市小店区二许线,爱玛电动车,爱玛
2019-11-26,37.80220608489295,112.51234537975408,晋祠路台翔电动车旁,爱玛电动车,爱玛
2019-11-26,37.8649744104023,112.52257675702106,太原市万柏林区,爱玛电动车专卖店,爱玛
2019-11-26,37.85226944147745,112.52030179831704,山西省太原市万柏林区和平南路纺织苑(A区)西南,爱玛电动车,爱玛
2019-11-26,37.814172022747975,112.56351600028187,山西省太原市小店区学府街115-7附近,爱玛电动车,爱玛
2019-11-26,37.86710204067288,112.62629600950861,山西省太原市杏花岭区东峰路,爱玛电动车,爱玛
2019-11-26,37.84974781467736,112.58578925813048,山西省太原市迎泽区东岗路146号附近,爱玛电动车,爱玛
2019-11-26,37.63542261211132,112.54016923860306,山西省太原市小店区小牛线,爱玛电动车,爱玛
2019-11-26,37.94594335454805,112.49360496703545,山西省太原市尖草坪区G108(京昆线),爱玛电动车,爱玛
2019-11-26,37.786415329202036,112.6141942838139,山西省太原市小店区黄陵路21号附近,爱玛电动车,爱玛
2019-11-26,37.86526317865108,112.45372572697131,西铭路107号附近,爱玛电动车,爱玛
2019-11-26,37.86404163704681,112.51105193570112,太原市万柏林区小王村前进路龙城电器城23号,爱玛电动车,爱玛
2019-11-26,37.658614870604204,112.40306456065078,山西省太原市晋源区X240(晋白线),爱玛电动车,爱玛
2019-11-26,37.785015646104966,112.61455678583974,山西省太原市小店区黄陵路33号,爱玛电动车(黄陵路店),爱玛
2019-11-26,37.80702113912676,112.57919381104229,山西省太原市小店区许坦西街62附近,爱玛电动车,爱玛
2019-11-26,37.95798835071709,112.54732750822888,山西省太原市尖草坪区迎新东二条19,爱玛电动车(迎新南二巷店),爱玛
2019-11-26,37.82847599963844,112.59998796485175,经济技术开发区西太堡街三监宿舍,爱玛电动车,爱玛
2019-11-26,37.85945631293847,112.59969709352761,太原市迎泽区郝庄正街精品商厦后门往西100米,爱玛电动车(服装城店),爱玛
2019-11-26,38.0684739043371,112.68608309114909,山西省太原市阳曲县东北街,爱玛电动车(阳曲县店),爱玛
2019-11-26,37.853340235529195,112.59213609108404,山西省太原市迎泽区建设南路187号,爱玛电动车(建设南路店),爱玛
2019-11-26,37.853572960213484,112.53857342222054,914县道中国农业银行东南90米,爱玛电动车,爱玛
2019-11-26,37.79788567648509,112.5875193945427,山西省太原市小店区南中环街坞城中路2号北张购物广场,爱玛电动车(北张店),爱玛
2019-11-26,37.88808274703705,112.56746050199655,解放路162号(山西省工会小区东),爱玛电动车(太原市杏花岭区胜德专卖店),爱玛
2019-11-26,37.72575328557681,112.47379056540163,乾阳街与古城路交叉口东南100米,爱玛电动车(晋源新区店),爱玛
2019-11-26,37.853360230035875,112.57317581809184,山西省太原市迎泽区南沙河北沿岸,爱玛电动车(春天广场店),爱玛
2019-11-26,37.739489654059085,112.56716354824582,山西省太原市小店区汾东南路14,爱玛电动车汾东南路店,爱玛
2019-11-26,38.057331424727174,112.67713039967386,庆云街与坞城南路交叉口东南角,爱玛电动车(海棠家园店),爱玛
2019-11-26,37.7610295754999,112.61911549424515,山西省太原市小店区马练营路辅路,爱玛电动车,爱玛
2019-11-26,37.906224930272984,112.51644815750977,和平北路266正东方向55米,爱玛电动车,爱玛
2019-11-26,37.89194320730755,112.61430241194982,杨家峪街道凯旋街东峰碳素厂院内,爱玛电动车,爱玛
2019-11-26,37.60559332578149,112.27240424108804,镇大西街10附近,爱玛电动车,爱玛
2019-11-26,37.913851362399015,112.57727598716835,山西省太原市杏花岭区涧河路69号附近,爱玛电动车(动物园店),爱玛
2019-11-26,37.88336804974141,112.62519792085321,山西省太原市杏花岭区马道坡街180号,爱玛电动车(杨家峪店),爱玛
2019-11-26,37.73633351921094,112.57547879135149,人民南路20号,爱玛电动车(人民南路店),爱玛
2019-11-26,37.90118965603095,112.52396113564248,千峰北路与和平北路北巷交叉口北100米,爱玛电动车(千峰北路店),爱玛
2019-11-26,37.91981756688654,112.17477429263552,滨河南路20号,爱玛电动车(金牛大街店),爱玛
2019-11-26,37.8673054590367,112.61887992889635,经园路23号,爱玛电动车,爱玛
2019-11-26,37.68622896182498,112.45414608903471,山西省太原市晋源区王郭村村委员会,爱玛电动车(晋祠王郭店),爱玛
2019-11-26,37.95798835071709,112.54732750822888,山西省太原市尖草坪区迎新东二条19,捷安特爱玛电动车,爱玛
2019-11-26,37.742322528644706,112.57239624162112,太原市小店区,爱玛,爱玛
2019-11-26,37.89132815638084,112.59732664494788,敦化南路爱玛电动车旁,绿源电动车,爱玛
2019-11-26,37.904652681683416,112.5864561942767,山西省太原市杏花岭区晋安西街10号,爱玛,爱玛
2019-11-26,37.85679512644854,112.5146920582717,小井峪街16号,爱玛,爱玛
2019-11-26,37.8639377423933,112.57667451144293,迎泽大街泽峪园小区市场底商,爱玛,爱玛
2019-11-26,37.88849002410187,112.53027501066518,漪兴路385号附近,爱玛,爱玛
2019-11-26,37.91434897810487,112.56966683375282,山西省太原市杏花岭区解放北路78附近,爱玛,爱玛
2019-11-26,37.614960920249224,112.35426511868596,山西省太原市清徐县文源路中段175,金箭电动车爱玛售后服务中心,爱玛
2019-11-26,37.90604364087594,112.55847934681293,北中环街入口与大同路交叉口东50米,爱玛(北中环大同路店),爱玛
2019-11-26,23.02078587416869,104.40086485730001,文山壮族苗族自治州砚山县平远镇商贸街20号,爱玛电动车,爱玛
2019-11-26,23.37710198691667,104.2455495276826,文山壮族苗族自治州文山市开化中路23号,爱玛电动车(开化中路店),爱玛
2019-11-26,23.61940064811237,104.3584679911937,云南省文山壮族苗族自治州砚山县三元路与砚华东路交叉口西100米,爱玛电动车(砚山店),爱玛
2019-11-26,23.633164674093596,105.64030191123183,云南省文山壮族苗族自治州富宁县富州大道11号,爱玛电动车(一店),爱玛
2019-11-26,23.01350818426599,104.40775182608326,石兴路17号,爱玛电动车(马关总店),爱玛
2019-11-26,28.016711765621693,120.68611724513148,浙江省温州市鹿城区黎明西路77~81号,爱玛电动车,爱玛
2019-11-26,27.783950736231652,120.66158218606775,温州市瑞安市,爱玛电动车,爱玛
2019-11-26,27.983049170194395,120.7393141700868,浙江省温州市龙湾区温州大道837号附近,爱玛电动车,爱玛
2019-11-26,28.11519138164991,120.971746911602,浙江省温州市乐清市丹霞路251号附近,爱玛电动车,爱玛
2019-11-26,28.04816491338433,120.66804586521009,温州市永嘉县罗浮大街22-26号,爱玛电动车,爱玛
2019-11-26,28.003852933535338,120.66788151572557,温州市鹿城区锦绣路1173号,爱玛电动车(温州总代理店),爱玛
2019-11-26,28.151504839583726,121.01892138771406,浙江省温州市乐清市慎海南路,爱玛电动车,爱玛
2019-11-26,27.784467994940908,120.64483148322873,温州市瑞安市解放东路148-2号附近,爱玛电动车(解放东路店),爱玛
2019-11-26,28.04317813847904,120.86101317581479,浙江省温州市乐清市交通东路81号,爱玛电动车,爱玛
2019-11-26,27.986520692776104,120.62833432172998,浙江省温州市瓯海区前旺路1号,爱玛电动车,爱玛
2019-11-26,27.60586249994395,120.56487757496657,浙江省温州市平阳县兴鳌东路131号附近,爱玛电动车(鳌江专卖店),爱玛
2019-11-26,27.795855765316535,120.09543789452943,浙江省温州市文成县建设路200-1号,爱玛电动车,爱玛
2019-11-26,27.515943268058063,120.410894672567,浙江省温州市苍南县望鹤路466号附近,爱玛电动车,爱玛
2019-11-26,27.789155888150702,120.46181395258611,浙江省温州市瑞安市镇前街,爱玛电动车,爱玛
2019-11-26,27.83572171287305,120.74616537523163,浙江省温州市瑞安市新邮路6-8号,爱玛电动车,爱玛
2019-11-26,27.667724401092695,120.57251537444397,浙江省温州市平阳县泾川东路,爱玛电动车,爱玛
2019-11-26,27.975109994293124,120.6801029999136,浙江省温州市瓯海区梧田龙霞路120号爱玛电动车,爱玛电动车,爱玛
2019-11-26,27.560813578187066,119.72703463042902,浙江省温州市泰顺县泰分路97号附近,爱玛电动车,爱玛
2019-11-26,27.837289390947447,120.77458425412408,浙江省温州市龙湾区繁荣北街265号,爱玛电动车(海城店),爱玛
2019-11-26,28.004409656340705,120.53684649231687,郭溪镇温瞿西路1794号,爱玛电动车,爱玛
2019-11-26,27.958147568850077,120.58007677124117,浙江省温州市瓯海区高桐路1503附近,潘桥爱玛电动车专卖,爱玛
2019-11-26,27.974101993468132,120.7696914764113,浙江省温州市龙湾区机场大道1703-1705号附近,爱玛电动车,爱玛
2019-11-26,27.990070948007013,120.69693481974016,前网新村11幢,爱玛电动车,爱玛
2019-11-26,27.909291863267196,120.83046056764908,永兴街道永强大道4040号,爱玛电动车(骏达车行店),爱玛
2019-11-26,28.045246038849857,120.91764518968198,柳市镇虎啸路318号,爱玛电动车,爱玛
2019-11-26,28.010390457297266,120.62846273989243,浙江省温州市鹿城区双乐住宅区双景佳园1幢16号店爱玛电动车,爱玛电动车,爱玛
2019-11-26,28.000774751612255,120.68428622901111,浙江省温州市瓯海区一零四国道慈湖段150号,爱玛电动车(梧慈路店),爱玛
2019-11-26,28.025680002046943,120.64309793325614,广化街道月湖小区16幢106室,爱玛电动车店,爱玛
2019-11-26,27.844179500313558,121.15919766976543,浙江省温州市洞头区望海路144号附近,爱玛奇石电动车,爱玛
2019-11-26,28.22127352187427,121.04338225033592,幸福东路38-42号附近,爱玛电动车,爱玛
2019-11-26,28.054988166239266,120.6230864496882,堡一村工业街134号附近,爱玛电动车,爱玛
2019-11-26,28.056005899607637,120.62391925884486,浙江省温州市永嘉县工业街91号,爱玛电动车专卖店,爱玛
2019-11-26,28.059698541259227,120.91116613124989,柳市镇育英北路118号,爱玛电动车(育英北路店),爱玛
2019-11-26,28.169757850706475,120.56286692020188,桥下街与西溪中路交叉口西50米,爱玛电动车,爱玛
2019-11-26,27.99194249459076,120.71791056649755,玉苍西路232号,爱玛电动车,爱玛
2019-11-26,27.522446642617375,120.40642147045098,浙江省温州市苍南县德嘉华庭16号,爱玛电动车(德嘉华庭店),爱玛
2019-11-26,28.149523550795962,120.70372523325739,温州市永嘉县上塘镇环城西路59号,爱玛电动车,爱玛
2019-11-26,28.002102036739153,120.59198461924694,浙江省温州市瓯海区郭溪街道梅屿村温翟东路1342号,爱玛电动车(温瞿东路店),爱玛
2019-11-26,27.993794830580164,120.68651038853778,浙江省温州市鹿城区南汇街道下吕浦双龙路217号爱玛电动车专卖店,爱玛电动车专卖店,爱玛
2019-11-26,28.055128324695737,120.59625893652311,双屿街道岩门西湾东路11号,爱玛电动车(规划路店),爱玛
2019-11-26,28.045010072758267,120.59503114872197,双屿街道屿头中路47号,爱玛电动车(安心公寓南),爱玛
2019-11-26,28.107674393956643,120.96956730802857,欧洲城二期111号,艾玛电动车,爱玛
2019-11-26,28.149562043013475,120.70363159748429,浙江省温州市永嘉县爱玛,永嘉县爱玛,爱玛
2019-11-26,30.18018102573707,120.1986884656902,浙江省杭州市滨江区长江中路43-5号附近,爱玛电动车,爱玛
2019-11-26,30.1655150907504,120.08661198778894,浙江省杭州市西湖区直街7,爱玛电动车,爱玛
2019-11-26,30.328542124842123,120.11648107718236,浙江省杭州市拱墅区石祥路789西南50米,爱玛电动车,爱玛
2019-11-26,30.243114603497716,120.01411826601486,浙江省杭州市余杭区良睦路,爱玛电动车,爱玛
2019-11-26,30.331256378688337,120.09759587558163,浙江省杭州市西湖区古墩路1204号,爱玛电动车,爱玛
2019-11-26,30.21641922817806,120.28743148783506,浙江省杭州市萧山区文明路33号附近,爱玛电动车,爱玛
2019-11-26,30.22398703833093,119.70008790988727,浙江省杭州市临安区钱王街1335号附近,爱玛电动车,爱玛
2019-11-26,30.426303427409373,120.30355944555347,杭州市余杭区邱山大街186号,爱玛电动车,爱玛
2019-11-26,30.14271178291144,120.27299033093038,浙江省杭州市萧山区柳元街,爱玛电动车,爱玛
2019-11-26,30.301400297957866,120.1057901474775,浙江省杭州市西湖区余杭塘路433号附近,爱玛电动车,爱玛
2019-11-26,30.346756325549,120.09300422200127,浙江省杭州市余杭区金昌路铭雅苑东区46-6,爱玛电动车(金昌路店),爱玛
2019-11-26,30.28720085992585,120.14205410581332,浙江省杭州市西湖区教工路89号附近,爱玛电动车,爱玛
2019-11-26,30.205887534898448,120.25413014983303,浙江省杭州市萧山区北干街道建设二路439号,爱玛电动车(建设二路店),爱玛
2019-11-26,30.342152132849073,120.20940077057467,杭州市下城区华中路86号,爱玛电动车(华中路店),爱玛
2019-11-26,30.42288144947115,120.30844361615364,浙江省杭州市余杭区藕花洲大街西段200号附近,爱玛电动车,爱玛
2019-11-26,30.26284165562135,120.4970553929286,浙江省杭州市萧山区义盛路569,爱玛电动车,爱玛
2019-11-26,30.168806978855024,120.37045724142438,浙江省杭州市萧山区萧明线,爱玛电动车,爱玛
2019-11-26,30.302006243969366,120.1288462525272,浙江省杭州市拱墅区余杭塘路与俞家圩路交叉口西北50米,爱玛电动车(余杭塘路店),爱玛
2019-11-26,30.329154805232548,120.1354890924175,浙江省杭州市拱墅区湖州街423号,爱玛电动车,爱玛
2019-11-26,30.375349319506537,120.07040873118657,浙江省杭州市余杭区良渚路75号附近,爱玛电动车,爱玛
2019-11-26,30.295326801700302,120.23351267834448,浙江省杭州市江干区明月桥路69附近,爱玛电动车(彭埠店),爱玛
2019-11-26,30.228778334784298,119.99051389726496,浙江省杭州市余杭区闲林中路36西南50米,爱玛电动车,爱玛
2019-11-26,30.20281797674762,120.23001853940232,浙江省杭州市滨江区阡陌路145号,爱玛电动车(滨江总店),爱玛
2019-11-26,30.327581271207137,120.10612800826456,杭州市拱墅区丰庆路与祥符南路交叉口南100米,爱玛电动车,爱玛
2019-11-26,30.3822120081792,120.17594000871834,浙江省杭州市余杭区星海南路,爱玛电动车,爱玛
2019-11-26,30.20882221446156,120.22055272773504,浙江省杭州市滨江区春晓路426号,爱玛电动车(胜杰车行分店),爱玛
2019-11-26,30.246811841893948,120.062279324198,12号大街70号,爱玛电动车,爱玛
2019-11-26,30.17794003740366,120.26789482242528,杭州市萧山区工人路159号,爱玛电动车,爱玛
2019-11-26,30.29479754983057,120.14754268510637,浙江省杭州市拱墅区文一路40号,爱玛电动车(文一路店),爱玛
2019-11-26,30.33004270105969,120.20737944663477,浙江省杭州市下城区兴业街129东50米,爱玛电动车,爱玛
2019-11-26,30.239805598053564,119.73151737122271,杭州市临安区,爱玛电动车,爱玛
2019-11-26,30.323732065240222,120.11799238637234,浙江省杭州市拱墅区花园岗街404号,爱玛电动车(拱墅区花园岗店),爱玛
2019-11-26,30.29060389270086,120.08855832837129,浙江省杭州市西湖区蒋村花园如意苑底商18号,爱玛电动车(旗舰店),爱玛
2019-11-26,30.243863064439687,120.16711771527093,浙江省杭州市上城区清波街61号,爱玛电动车（清波电动车店）,爱玛
2019-11-26,30.40080719127404,120.1107049727532,浙江省杭州市余杭区行宫塘路10号西北70米,爱玛电动车,爱玛
2019-11-26,30.23002031288928,120.25350298526496,飞虹路1105号,爱玛电动车(佳丰北苑店),爱玛
2019-11-26,30.246064478814322,120.06110772893629,杭州市江干区经济技术开发区24号大街335号,爱玛电动车,爱玛
2019-11-26,30.32464256662975,120.14844700926328,浙江省杭州市拱墅区西杨直街,爱玛电动车,爱玛
2019-11-26,30.400337309126943,119.98283262069666,杭州市余杭区大桥路41号(原大阳公司),爱玛电动车,爱玛
2019-11-26,30.29488877905757,120.17005341540639,朝晖街道上塘路235号,爱玛电动车(潮王路店),爱玛
2019-11-26,30.044981844598013,119.74517098616052,浙江省杭州市富阳区逸城宾馆(206省道西),爱玛电动车,爱玛
2019-11-26,30.00299058858725,119.75641871077299,浙江省杭州市富阳区金城北路辅路,爱玛电动车,爱玛
2019-11-26,30.29634182722714,120.11330044147334,浙江省杭州市西湖区丰潭路157号附近,爱玛电动车专卖,爱玛
2019-11-26,30.172796506534493,120.1717578827781,浦沿街道东冠路8幢号,爱玛电动车(东冠路店),爱玛
2019-11-26,30.47880941200505,120.19324909467468,塘栖镇广济路广济路255号,爱玛电动车,爱玛
2019-11-26,29.549958027651048,119.50486975414944,浙江省杭州市建德市梅花中路78号附近,爱玛电动车,爱玛
2019-11-26,30.418253667398407,120.10134732425576,浙江省杭州市余杭区良塘线,爱玛电动车,爱玛
2019-11-26,30.171398123677747,120.27125701990649,杭州市萧山区工人路18号,爱玛电动车,爱玛
2019-11-26,29.95063570462921,120.1826629103667,浙江省杭州市萧山区杭州市公安局萧山分局河上派出所东,爱玛电动车,爱玛
2019-11-26,30.351332123516414,120.18230155681447,杭州市拱墅区桃源街422,爱玛电动车(桃源街店),爱玛
2019-11-26,30.241102865268246,120.20350043678161,杭州市上城区钱江路534号附近,爱玛电动车,爱玛
2019-11-26,30.19915400847524,120.59575772771926,益农镇学工路37号,爱玛电动车,爱玛
2019-11-26,29.81901408656969,119.72290943186745,浙江省杭州市桐庐县春江东路1181号东北80米,爱玛电动车,爱玛
2019-11-26,29.505007782833104,119.44902664424183,浙江省杭州市建德市白章线,爱玛电动车专卖,爱玛
2019-11-26,29.72197462106578,119.65138005179968,富春江镇七里泷大街327号,爱玛电动车,爱玛
2019-11-26,30.348931009764964,120.19602617920961,杭州市下城区永祥街6-8号,爱玛电动车,爱玛
2019-11-26,30.289142037908977,120.13355696662153,文二路306号电动车市场,爱玛电动车(影业路),爱玛
2019-11-26,30.315060001120074,120.15823837762703,大关路232号附近,爱玛电动车(大关路店),爱玛
2019-11-26,29.617288005156112,119.0571160203096,浙江省杭州市淳安县千岛湖镇龙门路122号爱玛电动车,爱玛电动车,爱玛
2019-11-26,29.83313171654616,121.58801472236777,浙江省宁波市鄞州区东裕路33号,爱玛电动车,爱玛
2019-11-26,30.121506143583357,121.46888485791182,浙江省宁波市慈溪市慈掌路171号附近,爱玛电动车,爱玛
2019-11-26,29.830222750416738,121.54490096195701,浙江省宁波市鄞州区钟公庙路169号附近,爱玛电动车,爱玛
2019-11-26,29.988563943322024,121.45387900031437,宁波市江北区慈城镇民生路43号,爱玛电动车,爱玛
2019-11-26,29.881546225658997,121.48142839358366,宁波市海曙区望童路1112号,爱玛电动车,爱玛
2019-11-26,29.771600357668607,121.54101299983742,浙江省宁波市鄞州区明山路26号北90米,爱玛电动车,爱玛
2019-11-26,29.881302082811782,121.5988543068089,浙江省宁波市江东区桑田路248号,爱玛电动车(桑田路店),爱玛
2019-11-26,29.862385439850463,121.40852411118166,浙江省宁波市海曙区横街东路32号,爱玛电动车,爱玛
2019-11-26,30.33127183137908,121.23916470862873,浙江省宁波市慈溪市金合路揽月苑北门对面往北50米,爱玛电动车,爱玛
2019-11-26,29.827151326404966,121.50591586850622,浙江省宁波市海曙区雅戈尔大道396附近,爱玛电动车,爱玛
2019-11-26,29.94384390048711,121.51261621342152,宁波市江北区洪塘中路305号,爱玛电动车(洪塘专卖店),爱玛
2019-11-26,29.871084334562017,121.52753907475184,浙江省宁波市海曙区安泰街5-1号附近,爱玛电动车,爱玛
2019-11-26,29.846073877492845,121.4813732789474,浙江省宁波市海曙区晨顺商务宾馆(布政店)西北50米,爱玛电动车,爱玛
2019-11-26,29.884816771037055,121.54572879833937,浙江省宁波市海曙区柳庄巷26号附近,爱玛电动车,爱玛
2019-11-26,29.87970485702675,121.7750575056518,宁波市北仑区沿山河南路180号,爱玛电动车,爱玛
2019-11-26,29.89799160427402,121.62063903826652,老庙丹桂路101号锦城名都南门,爱玛电动车,爱玛
2019-11-26,29.930459714283096,121.79875173997877,宁波市北仑区高塘街126号,爱玛电动车,爱玛
2019-11-26,30.175256610720446,121.27259613631863,浙江省宁波市慈溪市G329(杭沈线),爱玛电动车,爱玛
2019-11-26,30.05335350923241,121.13769120374661,浙江省宁波市余姚市阳明西路540号附近,爱玛电动车,爱玛
2019-11-26,29.842736820193092,121.57949693517749,浙江省宁波市鄞州区长寿南路130号附近,爱玛电动车,爱玛
2019-11-26,29.981428455118387,121.66054051587038,浙江省宁波市镇海区彩炼路18号东北90米,爱玛电动车,爱玛
2019-11-26,29.88105386634867,121.52847780631278,环城西路南段68号,爱玛电动车(周江岸路店),爱玛
2019-11-26,29.659900104583876,121.41865488810954,宁波市奉化区南山路23号,爱玛电动车,爱玛
2019-11-26,30.03641452247651,121.28909271212764,宁波市余姚市丈亭镇朝阳路307号,爱玛电动车,爱玛
2019-11-26,29.933560052261317,121.62609123079478,宁波市镇海区庄市街道兴庄路658-660号,爱玛电动车,爱玛
2019-11-26,30.130316472689042,121.25004320272747,浙江省宁波市慈溪市杨梅大道,爱玛电动车,爱玛
2019-11-26,29.943149757930414,121.67993133358847,东生路149号附近,爱玛电动车专卖,爱玛
2019-11-26,29.692937110416548,121.28751274536205,浙江省宁波市奉化区中兴中路191-15附近,爱玛电动车,爱玛
2019-11-26,30.03345452559346,121.35476827352166,浙江省宁波市余姚市S319(甬余线),爱玛电动车,爱玛
2019-11-26,29.871217986498525,121.57156984090223,百丈街道百丈路142号,爱玛电动车(百丈路店),爱玛
2019-11-26,29.86061177376376,121.53408023184606,宁波市海曙区新典路178号,爱玛电动车(新典店),爱玛
2019-11-26,30.03535429394826,121.61510368440108,浙江省宁波市镇海区汇源路52附近,爱玛电动车,爱玛
2019-11-26,30.18628476114713,121.32717852656316,浙江省宁波市慈溪市周塘西街154号附近,爱玛电动车,爱玛
2019-11-26,29.935180955295166,121.73513429444444,浙江省宁波市北仑区渡口南路99号附近,爱玛电动车,爱玛
2019-11-26,29.98947457979212,121.59657564529032,镇骆西路1137号,爱玛电动车,爱玛
2019-11-26,30.085296399046513,121.02297598934203,浙江省宁波市余姚市S319(六一省道),爱玛电动车,爱玛
2019-11-26,30.161973534229343,121.3103383524898,匡堰大道157号,爱玛电动车,爱玛
2019-11-26,37.521421191436175,105.1885681227005,鼓楼西街174,爱玛电动车(中卫供电局城区东小区北),爱玛
2019-11-26,36.570781489719,105.65055514637504,中卫市海原县贾塘乡,贾塘爱玛电动车,爱玛
2019-11-26,37.477385728969914,105.44495308418448,宣和街171号,爱玛电动车,爱玛
2019-11-26,37.47816273229588,105.35254477455968,宁夏回族自治区中卫市沙坡头区永康街105号,爱玛电动车(永康专卖店),爱玛
2019-11-26,37.4944585181057,105.67873103947541,宁夏回族自治区中卫市中宁县新市南街13号,爱玛电动车(宁安西街店),爱玛
2019-11-26,37.26326891507511,105.70710365609264,中心路与109国道交叉口南50米,爱玛电动车(中心路店),爱玛
2019-11-26,36.56852296212565,105.65514306210613,海原县幼儿园附近,爱玛电动车(海原专卖店),爱玛
2019-11-26,37.521782472852635,105.21372112433603,鼓楼东街375号,爱玛电动车(康民花园西),爱玛
2019-11-26,35.43343430976036,103.3560855161708,甘肃省临夏回族自治州和政县天合商贸城8号楼爱玛电动车,爱玛电动车,爱玛
2019-11-26,35.59101760302563,103.22295574128655,甘肃省临夏回族自治州临夏市东关街道滨河中路名门大厦,爱玛电动车临夏金翔车行专卖(名门大厦店),爱玛
2019-11-26,35.93513072544207,103.32207280756167,G213(兰磨线),临夏县双城新区爱玛电动车,爱玛
2019-11-26,35.498415916221035,102.99910163196448,韩集镇中街12号,爱玛电动车(韩集镇前街店),爱玛
2019-11-26,42.68331077855281,125.5373779009073,辽源市东丰县,爱玛电动车,爱玛
2019-11-26,42.90179169735576,125.15548381365785,辽源市龙山区辽河大路5585号,爱玛电动车(辽河大路店),爱玛
2019-11-26,42.931879101775785,124.99758944369195,吉林省辽源市东辽县凌云小街201号东南方向122米,爱玛电动车(凌云店),爱玛
2019-11-26,42.930960964591414,125.00547057841419,东交大街184号,爱玛电动车(东交大街辅路店),爱玛
2019-11-26,41.73996877507051,125.04635620406488,抚顺市新宾满族自治县,爱玛电动车,爱玛
2019-11-26,42.10779384700492,124.94318380224296,抚顺市清原满族自治县白云街3号,爱玛电动车,爱玛
2019-11-26,41.60043628659126,123.83721642901466,辽宁省抚顺市抚顺县苏边线,爱玛电动车,爱玛
2019-11-26,41.86515151982334,123.88806102932031,六道街21号楼,爱玛电动车,爱玛
2019-11-26,41.73359556093176,125.05142031154683,新宾镇肇兴路91号,爱玛电动车(新宾店),爱玛
2019-11-26,41.891459884931336,123.91491000031799,宁远街32附近,爱玛电动车(宁远街店),爱玛
2019-11-26,41.85903036274879,123.79060415200058,抚顺市望花区,爱玛,爱玛
2019-11-26,41.86434496598858,123.8833265613334,千金路八道街,爱玛电动车(宇恒电动车行),爱玛
2019-11-26,31.002208697061754,102.369426359284,阿坝藏族羌族自治州小金县,爱玛电动车,爱玛
2019-11-26,28.8515036480266,104.97651330197829,宜宾市南溪区,爱玛电动车,爱玛
2019-11-26,28.8515036480266,104.97651330197829,四川省宜宾市南溪区X088(赵南路),爱玛电动车,爱玛
2019-11-26,28.75800702855183,104.6494037048691,026县道附近,爱玛电动车,爱玛
2019-11-26,28.907821397569073,104.37759810680235,中心街与人民街交叉口东北100米,爱玛电动车,爱玛
2019-11-26,28.730040170405253,105.08512250293118,宜宾市江安县洗脚田街与龙门街交叉口西南50米,爱玛电动车,爱玛
2019-11-26,28.439359062065236,104.52278439921025,四川省宜宾市高县硕勋路31号附近,爱玛电动车,爱玛
2019-11-26,28.7928088525251,104.60647116930602,岷江西路126号,爱玛电动车,爱玛
2019-11-26,28.557905382756367,104.75540047350147,四川省宜宾市高县天元路269西南60米,爱玛电动车,爱玛
2019-11-26,28.309904884116502,105.24240230063606,四川省宜宾市兴文县Y016,爱玛电动车,爱玛
2019-11-26,28.85780454420328,105.12907288960287,四川省宜宾市江安县X096(创业路),爱玛电动车,爱玛
2019-11-26,28.846047691384218,104.98266624556683,四川省宜宾市南溪区北大街211号,爱玛电动车(南溪区旗舰店),爱玛
2019-11-26,28.83162264278986,104.35923134982275,宜宾市屏山县学苑街2号,爱玛(百佳电动车店),爱玛
2019-11-26,28.42620831948177,105.2285320557359,玉莲路西50米,爱玛电动车,爱玛
2019-11-26,28.559977792794292,104.75610030200201,四川省宜宾市高县天元路355,爱玛电动车(沙河店),爱玛
2019-11-26,28.591477028661252,104.93738464109593,四川省宜宾市长宁县竹都大道2段附近,爱玛电动车(长宁旗舰店),爱玛
2019-11-26,28.829498675877318,105.12447205624005,创业大道北段与泸盐路交叉口西50米,爱玛电动车,爱玛
2019-11-26,28.79721516228276,104.40837827559993,高场镇中学街祥林小区2号门面,爱玛电动车,爱玛
2019-11-26,28.768426751697675,104.63139137955193,外南街20号,爱玛电动车,爱玛
2019-11-26,28.499314574036777,104.77849784220713,四川省宜宾市长宁县花滩人民法庭(宜宾市花滩镇政府西),爱玛电动车(花滩专卖店),爱玛
2019-11-26,28.708599826520672,104.5580547552844,翠柏大道430-5号,爱玛电动车(蓝天花园西北),爱玛
2019-11-26,28.750169191324815,104.69001305619764,宜威路与宜长路交叉口北200米,威信爱玛电动车(福溪专卖店),爱玛
2019-11-26,28.840523419647713,104.98204497747633,南溪街道内金盛综合农贸市场,爱玛电动车(金盛综合农贸市场店),爱玛
2019-11-26,28.16028787858253,104.50634288671121,四川省宜宾市筠连县煤都大道27号,爱玛,爱玛
2019-11-26,28.463911540009697,104.71593755718133,滨河西街北二段129号,爱玛,爱玛
2019-11-26,28.419959609876507,104.90265282636128,古高路(长宁县公路运输管理所龙头站东南),爱玛电动车(长宁县公路运输管理所龙头站东南),爱玛
2019-11-26,28.308843761598702,105.24768140932701,宋河北街13,爱玛,爱玛
2019-11-26,22.6181739930451,113.18206261235416,中山古镇六坊南兴路72号,爱玛电动车,爱玛
2019-11-26,22.72000048267265,113.29572797078355,中山市光明南路16,爱玛电动车,爱玛
2019-11-26,22.672387705664747,113.35851663606145,广东省中山市阜沙大道80,爱玛电动车,爱玛
2019-11-26,22.539282053793986,113.2564335949923,横栏镇长安南路17号华丰车行,爱玛电动车,爱玛
2019-11-26,22.71912507754302,113.33984713648425,黄圃镇新丰中路16号,爱玛电动车,爱玛
2019-11-26,22.620928350500986,113.18327415699505,广东省中山市南兴路27号-之1附近,爱玛电动车,爱玛
2019-11-26,22.561877058050882,113.3479146386056,广东省中山市彩虹大道75号附近,中山市沙朗爱玛电动车,爱玛
2019-11-26,22.695779022776485,113.2658503519892,广东省中山市东富路31号附近,爱玛电动车,爱玛
2019-11-26,22.535988981767822,113.40836414059052,中山市月湾路23号,爱玛电动车(康华路店),爱玛
2019-11-26,22.359163544418987,113.4331375928687,广东省中山市文昌中路12附近,爱玛电动车,爱玛
2019-11-26,22.666802782246258,113.24740773384136,紫荆中路186号附近,爱玛电动车,爱玛
2019-11-26,22.35836267617244,113.43214305099147,文昌中路10号,爱玛电动车,爱玛
2019-11-26,22.398629246379635,113.34383604413388,广东省中山市板芙中路15西北90米,爱玛电动车,爱玛
2019-11-26,22.537337388640758,113.41080059216681,三乡镇新圩村金湾路37号,爱玛电动车,爱玛
2019-11-26,22.513663224012074,113.3687090583066,广东省中山市安山大街西九巷1南50米,爱玛电动车,爱玛
2019-11-26,22.66493537574281,113.26255182086953,广东省中山市文成西路与民安南路交叉口东北50米,爱玛电动车售后服务中心,爱玛
2019-11-26,22.521107085490268,113.32264275343061,广东省中山市沙溪镇隆都路76号,爱玛电动车(隆都路店),爱玛
2019-11-26,22.51532039769377,113.40313757635543,东裕路31号,爱玛电动车,爱玛
2019-11-26,22.266398886251416,113.47708617753955,坦洲镇金斗大街87号对面,爱玛电动车,爱玛
2019-11-26,22.535927890548354,113.38801887813587,石岐区街道莲塘路52号,爱玛电动车,爱玛
2019-11-26,22.424422240594144,113.32861106155049,广东省中山市板芙镇板芙北路90号爱玛电动车专卖店,爱玛电动车专卖店,爱玛
2019-11-26,22.574865034914144,113.24606247822194,横栏镇新茂街63号,爱玛电动车(新茂路店),爱玛
2019-11-26,22.62838805993366,113.30140499929954,广东省中山市联兴街7号,爱玛电动车(联兴街店),爱玛
2019-11-26,22.66962261616637,113.19043453673814,广东省中山市古镇镇海州村兴红二路18号,爱玛电动车(兴红二路店),爱玛
2019-11-26,22.692804150583473,113.36920842633945,广东省中山市兴马路43号,爱玛电动车(骏威店),爱玛
2019-11-26,22.546893606748412,113.47060130647195,东镇北街与东镇大街一巷交叉口南100米,爱玛电动车,爱玛
2019-11-26,22.560006291988188,113.47221897503378,广东省中山市工业大道58号-之1附近,爱玛电动车(工业大道),爱玛
2019-11-26,22.474982640436995,113.29656304247237,广东省中山市旗山路457号,爱玛电动车(天宇车行),爱玛
2019-11-26,22.536701525654014,113.26072325083504,西冲中路58号附近,爱玛电动车摩托车,爱玛
2019-11-26,22.587990363585433,113.32576719355711,东升镇坦背东二马路114号,爱玛电动车(坦背西二马路辅路店),爱玛
2019-11-26,22.472437333106193,113.30121593832875,大涌镇旗山路299号,爱玛电动车(连锁025分店),爱玛
2019-11-26,22.522001517267473,113.32136226384185,岐江公路岚霞路段64号首层1-2卡,爱玛电动车(亮亮车行),爱玛
2019-11-26,22.478080578070657,113.29096441913069,大涌镇旗峰路374号,爱玛电动车(旗峰路店),爱玛
2019-11-26,22.59464861904538,113.39221479579868,港口镇兴港中路119号,爱玛电动车(兴港中路),爱玛
2019-11-26,22.676903277454898,113.24546573387187,广东省中山市东堤路60号,爱玛,爱玛
2019-11-26,22.62046440118194,113.25685735893853,小榄镇泰昌路20号,爱玛,爱玛
2019-11-26,22.5223146707905,113.39942236263188,中山市,爱玛,爱玛
2019-11-26,22.34863986143709,113.43972537830703,广东省中山市商业大街323号附近,爱玛,爱玛
2019-11-26,22.62362741337301,113.30234697233834,葵兴大道102,爱玛,爱玛
2019-11-26,22.62890415595405,113.49144972691037,民众镇六百六路165号,爱玛,爱玛
2019-11-26,22.57456155946463,113.45762977491215,广东省中山市火炬高技术产业开发区中国工商银行,爱玛电动车中山骏驰车业连锁合众店,爱玛
2019-11-26,22.500918747830063,113.53849050462023,兴华街与永兴路交叉口西南50米,爱玛(南朗精品店),爱玛
2019-11-26,33.1170665095533,116.76552080449272,安徽省亳州市利辛县文州大道中段,爱玛电动车,爱玛
2019-11-26,33.27165823967443,116.57158940082672,亳州市蒙城县,爱玛电动车,爱玛
2019-11-26,33.56265826055894,115.65410354109137,安徽省亳州市谯城区G105(京珠线),爱玛电动车,爱玛
2019-11-26,33.882663087443404,115.78547191853164,安徽省亳州市谯城区藿香路,爱玛电动车,爱玛
2019-11-26,34.01938544329095,115.70389353881308,安徽省亳州市谯城区古井镇X009县道李彬格力专卖店旁边,爱玛电动车,爱玛
2019-11-26,33.859923986632545,115.798514460248,安徽省亳州市谯城区白依路,爱玛电动车,爱玛
2019-11-26,33.85778841183119,115.80133284797196,安徽省亳州市谯城区建安路564附近,爱玛电动车,爱玛
2019-11-26,33.14614665356074,116.20556194178012,亳州市利辛县青年路550号,爱玛电动车,爱玛
2019-11-26,33.88479489908171,115.78304017766865,亳州市谯城区新兴路154,爱玛电动车,爱玛
2019-11-26,33.18477855773457,116.69975091742693,安徽省亳州市蒙城县国强路,爱玛电动车,爱玛
2019-11-26,33.30912695780116,116.26076464521657,安徽省亳州市利辛县海尔专卖店(王市店),爱玛电动车,爱玛
2019-11-26,33.135521678914074,116.21413881636558,安徽省亳州市利辛县城关镇淝河路书香苑小区35幢商铺爱玛电动车,爱玛电动车,爱玛
2019-11-26,33.16089664664192,116.22205515972313,安徽省亳州市利辛县和平路,爱玛电动车,爱玛
2019-11-26,33.26314705734719,116.59488577565116,安徽省亳州市蒙城县尉迟大道,爱玛电动车,爱玛
2019-11-26,33.15559584152897,116.1914935225951,安徽省亳州市利辛县锦绣路,爱玛电动车,爱玛
2019-11-26,33.85800607702895,115.78945599958709,安徽省亳州市谯城区三曹路206附近,爱玛电动车,爱玛
2019-11-26,33.27165823967443,116.57158940082672,安徽省亳州市蒙城县八龙桥街,爱玛电动车,爱玛
2019-11-26,33.2421201387193,116.56878590161827,亳州市蒙城县逍遥路,爱玛电动车,爱玛
2019-11-26,33.83691469043732,115.77191549396187,安徽省亳州市谯城区杜仲路,爱玛电动车,爱玛
2019-11-26,33.15559584152897,116.1914935225951,安徽省亳州市利辛县新大街,爱玛电动车,爱玛
2019-11-26,33.4772278559749,116.13205866564678,亳州市涡阳县025县道与029县道交叉口东100米,爱玛电动车,爱玛
2019-11-26,33.850642695788835,115.7844632112745,072乡道与307省道交叉口东50米,爱玛电动车,爱玛
2019-11-26,33.499443588476446,116.22760558375731,安徽省亳州市涡阳县南天购物城新兴店(022县道北),爱玛电动车,爱玛
2019-11-26,33.850642695788835,115.7844632112745,城东街道立交桥东一百米,爱玛电动车,爱玛
2019-11-26,33.850642695788835,115.7844632112745,120乡道南50米,爱玛电动车,爱玛
2019-11-26,33.850642695788835,115.7844632112745,203乡道与305省道交叉口南100米,爱玛电动车,爱玛
2019-11-26,33.876115100738716,115.79428746211146,安徽省亳州市谯城区魏武大道1252附近,爱玛电动车,爱玛
2019-11-26,33.35034089717882,116.4276084654838,复兴路南50米,爱玛电动车,爱玛
2019-11-26,33.88918393496668,115.80206999927006,汤陵北路114号,爱玛电动车,爱玛
2019-11-26,33.850642695788835,115.7844632112745,003县道与058乡道交叉口南200米,爱玛电动车,爱玛
2019-11-26,33.32740009947593,116.00771297119185,安徽省亳州市利辛县S202,爱玛电动车(河滨路店),爱玛
2019-11-26,33.850642695788835,115.7844632112745,052县道与209乡道交叉口南150米,爱玛电动车,爱玛
2019-11-26,33.14890568837089,116.20564348725938,青年路738号,爱玛电动车(青年路店),爱玛
2019-11-26,33.1355062263729,116.21408827500267,城关镇人民南路428号,爱玛电动车,爱玛
2019-11-26,33.33467503335218,116.70702925816042,008县道好孩子集团专卖店旁,爱玛电动车,爱玛
2019-11-26,33.28753891838152,116.2948603698311,023县道与049县道交叉口东100米,爱玛电动车,爱玛
2019-11-26,33.56265826055894,115.65410354109137,安徽省亳州市谯城区G105(京珠线),爱玛电动车(淝河店),爱玛
2019-11-26,33.94682263151334,115.67226800972381,魏古路与009县道交叉口南50米,爱玛电动车,爱玛
2019-11-26,32.90661697072483,117.96129165019754,安徽省滁州市明光市Y011与中心街交叉口东北100米,爱玛电动车,爱玛
2019-11-26,32.32488070509512,118.34799187053851,安徽省滁州市琅琊区扬子路275号西90米,爱玛电动车,爱玛
2019-11-26,32.10102414084479,118.27902177099173,襄水北路与襄水西路交叉口东北50米,爱玛电动车,爱玛
2019-11-26,32.458449762426696,118.44241249320064,安徽省滁州市来安县G104(旧),爱玛电动车,爱玛
2019-11-26,32.99242444410554,118.00795826211868,安徽省滁州市明光市好又多超市(桥头店)东北70米,爱玛电动车,爱玛
2019-11-26,32.52954594504522,117.71107563471851,安徽省滁州市定远县戚继光大道,爱玛电动车,爱玛
2019-11-26,32.30892006479668,118.34262368664143,安徽省滁州市南谯区创业南路934号,爱玛电动车,爱玛
2019-11-26,32.263955475328764,118.33426280332769,同乐西路南50米,爱玛电动车,爱玛
2019-11-26,32.15559989203367,118.30553567313588,安徽省滁州市全椒县纬四路,爱玛电动车,爱玛
2019-11-26,32.53704661348729,117.70447068625293,安徽省滁州市定远县幸福巷,爱玛电动车,爱玛
2019-11-26,32.553703643376444,117.25019929663755,安徽省滁州市定远县炉桥镇迎宾东路国贸鞋服批发城附近,爱玛电动车,爱玛
2019-11-26,32.53704661348729,117.70447068625293,滁州市定远县,爱玛电动车,爱玛
2019-11-26,32.68870532023479,119.0323907345134,万寿中路与石梁东路交叉口西150米,爱玛电动车(石梁东路店),爱玛
2019-11-26,32.521297978150805,117.96089747373975,安徽省滁州市定远县池河镇红太阳大酒店(红太阳农贸商场旁),爱玛电动车,爱玛
2019-11-26,32.80521060769145,117.35120054614357,安徽省滁州市凤阳县刘府镇黄庙村马庄,爱玛电动车,爱玛
2019-11-26,32.091939797603374,118.28058428269748,安徽省滁州市全椒县029县道东50米,爱玛电动车,爱玛
2019-11-26,32.2930339879366,118.33260209886839,南谯中路362号,爱玛电动车,爱玛
2019-11-26,32.67341003277047,119.01138527948528,安徽省滁州市天长市X074,爱玛电动车,爱玛
2019-11-26,32.67341003277047,119.01138527948528,安徽省滁州市天长市X079,爱玛电动车,爱玛
2019-11-26,32.67341003277047,119.01138527948528,滁州市天长市074县道与101县道交叉口东100米,爱玛电动车,爱玛
2019-11-26,32.67341003277047,119.01138527948528,滁州市天长市037乡道与205省道交叉口南260米,爱玛电动车,爱玛
2019-11-26,32.381616517723316,117.48030240895163,安徽省滁州市定远县吴圩镇农贸街吴圩小学东350米,爱玛电动车,爱玛
2019-11-26,32.691688452625066,118.88613392868638,安徽省滁州市天长市X078(益民路),爱玛电动车,爱玛
2019-11-26,32.88097672525767,117.5385853687445,安徽省滁州市凤阳县X041(红梅路),爱玛电动车,爱玛
2019-11-26,32.02302464522596,117.95429272739291,安徽省滁州市全椒县S226(龙山大道),爱玛电动车,爱玛
2019-11-26,32.26127087204081,118.33940613596579,101省道东50米,爱玛电动车,爱玛
2019-11-26,32.552842087763686,119.08103178601327,天仪路与082县道交叉口东100米,爱玛电动车,爱玛
2019-11-26,32.687960346716544,118.93993356335697,滁州市天长市天康大道与驰宇路交叉口西北50米,爱玛电动车,爱玛
2019-11-26,32.26512804549517,117.92180097218173,安徽省滁州市南谯区章广镇章广人民医院东,爱玛电动车,爱玛
2019-11-26,32.30919967621054,118.31625850975414,天长西路33号亚龙名城2栋车库2,爱玛电动车(滁州旗舰店),爱玛
2019-11-26,32.90992546948516,117.71027329069463,滁州市凤阳县经二路与307省道交叉口东南100米凤阳县公安局板桥责任区刑警队附近,爱玛电动车,爱玛
2019-11-26,32.992705085501086,118.01536371308184,古沛镇古沛街爱玛电动车专卖店,爱玛电动车,爱玛
2019-11-26,32.26127087204081,118.33940613596579,曲倪街与036乡道交叉口西北50米,爱玛电动车,爱玛
2019-11-26,32.21055493594542,118.30543039262842,滁州市南谯区育新路11号,爱玛电动车,爱玛
2019-11-26,32.60365006179431,119.18412555735728,秦关路与秦香南路交叉口西南100米,爱玛电动车,爱玛
2019-11-26,32.304905923761794,118.61392623371238,大英农贸市场,爱玛电动车,爱玛
2019-11-26,30.89680139214428,119.4460971445875,安徽省宣城市广德市双桥路97号附近,爱玛电动车,爱玛
2019-11-26,30.699437475292456,118.42288268938609,安徽省宣城市泾县幕桥路186号西南70米,爱玛电动车,爱玛
2019-11-26,30.895523777882076,119.46701213486094,安徽省宣城市广德市广阳路,爱玛电动车,爱玛
2019-11-26,30.958176406392624,118.75916592773589,宣城市宣州区大坝塘路55-57号,爱玛电动车(大坝塘路店),爱玛
2019-11-26,30.883667102643013,119.42747581034895,宣城市广德市,爱玛电动车,爱玛
2019-11-26,30.952158157984414,118.76254944304942,宣城市宣州区,爱玛电动车,爱玛
2019-11-26,30.884157400580396,119.07193875945464,宣城市郎溪县姚村乡,爱玛电动车,爱玛
2019-11-26,31.107489787737666,119.25569051208154,安徽省宣城市郎溪县涛城路与020县道交叉口南150米,爱玛电动车,爱玛
2019-11-26,30.69712497610615,118.42243210806453,安徽省宣城市泾县稼祥中路,爱玛电动车,爱玛
2019-11-26,30.684374634251284,118.41454845000212,泾川镇桃花潭西路237号,爱玛电动车,爱玛
2019-11-26,31.072625976831713,119.572938228444,宣城市广德市乌金大道与032乡道交叉口东北150米,爱玛电动车,爱玛
2019-11-26,30.684762007498506,118.98694274588098,安徽省宣城市宁国市S104(三津大道),爱玛电动车,爱玛
2019-11-26,30.067084702595135,118.59353508041572,宣城市绩溪县龙川大道31-33号,爱玛电动车(龙川大道店),爱玛
2019-11-26,31.28827426467082,118.72870793889422,宣城市宣州区水阳镇012县道雁翅全心幼儿园附近,爱玛电动车,爱玛
2019-11-26,30.904913064064917,118.89376160516152,安徽省宣城市宣州区孙埠镇中国石化加油站南100米,爱玛电动车,爱玛
2019-11-26,30.332801939018253,118.45230274703495,安徽省宣城市旌德县205国道西50米,爱玛电动车,爱玛
2019-11-26,31.13820433921619,119.21011870910239,安徽省宣城市郎溪县伍员路,爱玛电动车,爱玛
2019-11-26,30.47837785398511,118.46624587236404,安徽省宣城市宣州区X012(朝阳路),爱玛电动车,爱玛
2019-11-26,30.63006803845542,118.98580033842494,安徽省宣城市宁国市津河西路103号,爱玛电动车(宁国市宁新专卖店),爱玛
2019-11-26,30.64188027285043,119.01953371893573,安徽省宣城市宁国市东津路186号东北70米,爱玛电动车,爱玛
2019-11-26,30.798831720737244,118.97182695906459,安徽省宣城市宣州区枣乡路,爱玛电动车专卖店,爱玛
2019-11-26,30.73134208597589,118.92330399880706,049县道港口镇汽车站附近,爱玛电动车,爱玛
2019-11-26,30.83853240667412,118.6258753929959,安徽省宣城市宣州区春归东路,爱玛电动车专卖店,爱玛
2019-11-26,30.688689536848262,118.42947401029626,安徽省宣城市泾县贺村西路162,爱玛电动车(贺村西路店),爱玛
2019-11-26,30.292481093722333,118.54646735262673,安徽省宣城市旌德县G205(山深线),爱玛电动车,爱玛
2019-11-26,31.034114496532155,119.1593866817483,水鸣乡经都产业园郎溪经都产业园管理委员会附近(中国),爱玛电动车,爱玛
2019-11-26,31.257211515067432,119.1885557719629,梅渚镇中学斜对面,爱玛电动车,爱玛
2019-11-26,30.98362166215475,118.99348600321565,洪林东路南50米,爱玛电动车,爱玛
2019-11-26,30.962100605396763,119.1195186785878,安徽省宣城市宣州区古泉镇沪渝高速公路阳光超市西50米,爱玛电动车(古泉镇人民政府西北),爱玛
2019-11-26,30.984382155620366,119.12633638622188,宣城市郎溪县建设西路174,爱玛电动车(十字镇店),爱玛
2019-11-26,30.94660154529291,118.76553424276743,322省道北50米,爱玛电动车,爱玛
2019-11-26,30.902216098730594,119.42965153683652,太极大道271号,爱玛电动车(县农行住宅小区东北),爱玛
2019-11-26,31.21768865211456,118.97605438479454,007乡道与010县道交叉口北50米,爱玛电动车专卖店,爱玛
2019-11-26,30.952158157984414,118.76254944304942,安徽省宣城市宣州区036乡道与104省道交叉口西南50米,爱玛电动车(036乡道店),爱玛
2019-11-26,30.29733783894685,118.55984231319535,城东路凤凰小区大门口,爱玛电动车(二店),爱玛
2019-11-26,30.90373639101075,119.42334854568337,001乡道与318国道交叉口东南50米,爱玛电动车(001乡道店),爱玛
2019-11-26,39.53302128004614,116.70769014152411,河北省廊坊市广阳区爱民东道30号,爱玛电动车(爱民东道店),爱玛
2019-11-26,39.0745328421521,116.7078054677821,河北省廊坊市霸州市芳津道269-1北60米,爱玛电动车,爱玛
2019-11-26,38.711666111723254,116.65702598025301,河北省廊坊市大城县中国农业银行(廊泊大道东),爱玛电动车,爱玛
2019-11-26,39.74929564206247,116.93904782731343,安平镇王家摆村口,爱玛电动车,爱玛
2019-11-26,39.717526369764116,116.92697375775045,河北省廊坊市香河县安泰南路,爱玛电动车,爱玛
2019-11-26,39.12254921422219,116.88779797084982,廊坊市霸州市兴港道杨芬港二十四中学东北250米,爱玛电动车,爱玛
2019-11-26,39.95966709032307,116.83836125422755,河北省廊坊市三河市学院东大街16,爱玛电动车,爱玛
2019-11-26,39.52234915420365,116.70718727009962,廊坊市广阳区空中花园北门,爱玛电动车(建国道店),爱玛
2019-11-26,39.94976154663357,116.80453670394559,行宫西大街268,爱玛电动车(行宫西大街店),爱玛
2019-11-26,39.95666491108742,117.10129104957237,河北省廊坊市大厂回族自治县夏垫镇金铭路口公交站,爱玛电动车,爱玛
2019-11-26,38.996499495865834,116.69779467751785,河北省廊坊市文安县慧园嘉苑(廊泊大道),爱玛电动车,爱玛
2019-11-26,39.47572511162831,116.68943998712231,河北省廊坊市安次区廊霸线振起平价超市西侧,爱玛电动车,爱玛
2019-11-26,39.17661716724797,116.78388735413607,廊坊市安次区东沽港镇得胜口村,爱玛电动车,爱玛
2019-11-26,39.255343968475444,116.8405274281343,河北省廊坊市安次区葛渔城北街码杨线天才双语幼儿园,爱玛电动车,爱玛
2019-11-26,39.67772674099136,117.14682984431556,河北省廊坊市香河县盛君宾馆西80米(刘宋东桥东北),爱玛电动车,爱玛
2019-11-26,39.21049769136366,116.73238150575467,河北省廊坊市永清县金通通讯东南50米(商贸北路东),爱玛电动车,爱玛
2019-11-26,39.115081830966176,116.54266005757309,河北省廊坊市霸州市煎茶铺镇正东方向60米,爱玛电动车,爱玛
2019-11-26,39.175467074437336,116.7843226083082,河北省廊坊市安次区东沽港镇码得线西(得胜口小学南200米),爱玛电动车,爱玛
2019-11-26,39.44399435912509,116.30603978190277,新中街187号,爱玛电动车,爱玛
2019-11-26,39.161229469820604,116.464281777149,河北省廊坊市霸州市康仙庄乡辛店三村,爱玛电动车,爱玛
2019-11-26,38.71085864002598,116.66040917846469,河北省廊坊市大城县S272(廊崔线),爱玛电动车,爱玛
2019-11-26,39.11830418159746,116.40867576597924,建设东道938,爱玛电动车(霸州店),爱玛
2019-11-26,38.87230607742855,116.47587387077196,河北省廊坊市文安县东大街22号,文安县爱玛电动车,爱玛
2019-11-26,38.819573203861395,116.38204278176178,兴祖线与大河路交叉口北100米,爱玛电动车,爱玛
2019-11-26,39.53521942579526,116.73403752747079,和平路东50米,爱玛电动车,爱玛
2019-11-26,39.98460133577695,117.08603845621663,府东路10,爱玛电动车(府东路店),爱玛
2019-11-26,39.18899173314064,116.38816924869576,光明道与106国道交叉口西北150米,爱玛电动车,爱玛
2019-11-26,39.87353297978106,116.90745011066105,河北省廊坊市大厂回族自治县祁各庄镇洼子侯谭线潮白佳程附近,爱玛电动车(潮白佳程店),爱玛
2019-11-26,38.67717256855551,116.57068656336544,X760(大石线),爱玛电动车,爱玛
2019-11-26,39.77127588194678,117.14121408741994,河北省廊坊市香河县金城车行(香河县渠口镇政府东),爱玛电动车(蒋渠线店),爱玛
2019-11-26,39.97724442336126,116.78602813114946,燕郊经济技术开发区神威北路燕顺市场,爱玛电动车(神威北路店),爱玛
2019-11-26,39.11986421854234,116.75555386950347,霸杨线北50米,爱玛电动车,爱玛
2019-11-26,39.99230952011801,117.00235123244894,李中路与751县道交叉口东150米,爱玛电动车,爱玛
2019-11-26,38.940150231074384,116.41122295347314,台王线附近,爱玛电动车,爱玛
2019-11-26,39.962470965656166,116.94037642116268,京哈公路与李翟路交叉口西100米,爱玛电动车,爱玛
2019-11-26,39.04592997576627,116.50027907888402,新开路与采留线交叉口东南150米,爱玛电动车,爱玛
2019-11-26,39.090945062740076,116.79154542747304,向阳路与辛胜道交叉口西北50米,爱玛电动车,爱玛
2019-11-26,39.93986289404792,117.09481198874265,府前东大街14,爱玛电动车,爱玛
2019-11-26,39.71744207584247,116.93111803542409,香汐花园西门底商,爱玛电动车,爱玛
2019-11-26,39.54497192539281,116.71956484206052,齐心庄商业街,爱玛电动车,爱玛
2019-11-26,39.11144219672905,116.50237073924701,津同公路与112国道交叉口南50米,爱玛电动车,爱玛
2019-11-26,39.02090455044999,116.63087286994066,河北省廊坊市文安县左各庄镇中心街36号正南方向57米,爱玛电动车(左各庄店),爱玛
2019-11-26,38.56933808107476,116.51728800054572,河北省廊坊市大城县百润购物中心(中心大街西),爱玛电动车(百润购物中心店),爱玛
2019-11-26,39.89080731589817,116.98565819991983,大安西街90号,爱玛电动车(大安西街店),爱玛
2019-11-26,39.476010255255346,116.18203081881224,宫村大街91号附近,爱玛电动车(宫村大街店),爱玛
2019-11-26,39.592192384048744,116.75557602351395,北环道基督教会西邻,爱玛电动车(步行街店),爱玛
2019-11-26,39.54497192539281,116.71956484206052,陈府镇商业街大集路口,陈府爱玛电动车,爱玛
2019-11-26,38.700347788477856,116.64311248553116,平舒镇中心街东关村,爱玛电动车(市场街店),爱玛
2019-11-26,26.666977141356064,119.541805381791,福建省宁德市蕉城区东湖路7号东北70米,爱玛电动车,爱玛
2019-11-26,26.647565564598626,119.57092999419527,福建省宁德市蕉城区林聪路15号西80米,爱玛电动车,爱玛
2019-11-26,27.33052497252825,120.22345190932259,福建省宁德市福鼎市中山南路590-592号,爱玛电动车(海通路店),爱玛
2019-11-26,27.094323508059915,119.65440636047963,福建省宁德市福安市G104(京福线),爱玛电动车,爱玛
2019-11-26,26.645453568519443,119.54733952673092,福建省宁德市蕉城区蕉城南路109号东南60米,爱玛电动车,爱玛
2019-11-26,27.094323508059915,119.65440636047963,宁德市福安市,爱玛电动车,爱玛
2019-11-26,26.920903607494107,119.6426336849954,福建省宁德市福安市甘棠镇府前路A4-6,爱玛电动车,爱玛
2019-11-26,27.469443360934402,119.50758706094331,宁德市寿宁县鳌阳镇胜利街313号,爱玛电动车,爱玛
2019-11-26,26.914264918059377,118.99259621521281,福建省宁德市屏南县S303(宁屏公路),爱玛电动车,爱玛
2019-11-26,26.657555217566145,119.54747566582921,福建省宁德市蕉城区侨兴路东湖御景21栋一层102-103,爱玛电动车(东湖御景店),爱玛
2019-11-26,27.0904727987861,119.64776833191584,福建省宁德市福安市鹤祥路59号,爱玛电动车(栖云路店),爱玛
2019-11-26,27.108419418949794,119.34228267586617,中兴街与商贸路交叉口东北50米,爱玛电动车,爱玛
2019-11-26,27.266678995626283,119.90814306243972,城郊乡615西路73号,爱玛电动车,爱玛
2019-11-26,26.910055854931116,118.99675849941904,东环中路与县府路交叉口东50米,爱玛电动车,爱玛
2019-11-26,26.68156653552577,119.52472500082993,福建省宁德市蕉城区涵内路,金涵桥头爱玛电动车,爱玛
2019-11-26,26.92952718772608,120.22620395808205,福建省宁德市霞浦县三沙镇三沙街中国邮政西南,爱玛电动车(广雅摩托三沙总经销店),爱玛
2019-11-26,26.890814870522572,120.01210299069646,福建省宁德市霞浦县目海路6号,爱玛电动车(目海路),爱玛
2019-11-26,26.734801040099768,120.05229937751295,福建省宁德市霞浦县长春镇长春派出所,五羊本田爱玛电动车长春加康车行,爱玛
2019-11-26,26.666738555955426,119.53344242698753,宁德市蕉城区,爱玛,爱玛
2019-11-26,26.630101599091233,118.79859836215572,城东街道六一四路87号,爱玛,爱玛
2019-11-26,27.33052497252825,120.22345190932259,宁德市福鼎市,爱玛(五里牌店),爱玛
2019-11-26,25.516984398943233,116.6955450353928,福建省龙岩市连城县G319(厦成线),爱玛电动车,爱玛
2019-11-26,25.305907410565496,117.42963131484919,福建省龙岩市漳平市东环路49号,爱玛电动车,爱玛
2019-11-26,25.70162031501395,116.76648928604975,莲峰镇连宁南路66号,爱玛电动车,爱玛
2019-11-26,24.728465521135117,116.74464282132993,福建省龙岩市永定区凤城镇沿河北路23号爱玛电动车,爱玛电动车,爱玛
2019-11-26,25.70468557258175,116.7658256497341,福建省龙岩市连城县莲峰镇连宁南路33号方圆商住楼7号,爱玛电动车(方圆店),爱玛
2019-11-26,25.84796454760263,116.35457745884688,环城西路63号附近,爱玛电动车,爱玛
2019-11-26,25.093604782755044,117.03349385627342,福建省龙岩市新罗区西安南路33号-2楼,爱玛电动车,爱玛
2019-11-26,25.081219844871676,117.02344756677536,308省道南50米,爱玛电动车,爱玛
2019-11-26,25.081219844871676,117.02344756677536,661县道西50米,爱玛电动车,爱玛
2019-11-26,24.799109066414086,116.82855420014211,福建省龙岩市永定区过境东路,爱玛金箭电动车专卖,爱玛
2019-11-26,25.838998125839893,116.37283821324768,环城东路幸福花园139号,爱玛电动车(红珠小区西南),爱玛
2019-11-26,24.728252104038866,116.74436237034982,福建省龙岩市永定区凤城街道沿河北路永定县凤城天主教堂,爱玛电动车金泰车行,爱玛
2019-11-26,24.492328654947173,118.16139899142912,福建省厦门市湖里区吕岭路,爱玛电动车,爱玛
2019-11-26,24.487477771965047,118.17037507118366,福建省厦门市思明区洪莲路,爱玛电动车(洪何线店),爱玛
2019-11-26,24.743928030070155,118.26134583908946,厦门市翔安区新霞西路36-38号附近,爱玛电动车,爱玛
2019-11-26,24.675939576743843,118.27798100232297,厦门市翔安区曾美路与赵岗路交叉口西北50米附近,爱玛电动车,爱玛
2019-11-26,24.570819859542098,118.03973693082713,日东二路与杏林西路交叉口西150米,爱玛电动车,爱玛
2019-11-26,24.530008132403378,118.13242709757942,厦门市湖里区禾山路41号之6,爱玛电动车江头店,爱玛
2019-11-26,24.468640290754944,118.0967714911797,福建省厦门市思明区厦禾路508号-106,爱玛电动车(厦禾路店),爱玛
2019-11-26,24.650936696245793,118.14941688499839,厦门市同安区西柯镇潘涂村丁字街79号,爱玛电动车,爱玛
2019-11-26,24.60218235471217,118.11347680443792,侨英街道霞梧里121号华阳车行,爱玛电动车,爱玛
2019-11-26,24.678650890860027,118.21929854003834,福建省厦门市翔安区同美路,爱玛电动车,爱玛
2019-11-26,24.517573138111896,118.15358812171732,厦门市湖里区,爱玛电动车,爱玛
2019-11-26,24.582019062249607,118.10343491663684,厦门市集美区,爱玛电动车,爱玛
2019-11-26,24.52252247486728,118.15483245450933,福建省厦门市湖里区枋湖北二路,爱玛电动车(尚忠店) 厦门市湖里,爱玛
2019-11-26,24.624202422978097,118.08721789710113,福建省厦门市集美区港头二里18-3爱玛电动车,爱玛电动车,爱玛
2019-11-26,24.581166608525074,118.25301721887001,福建省厦门市翔安区鼓岩路,爱玛电动车,爱玛
2019-11-26,24.517726659609178,118.15539532106372,福建省厦门市湖里区金尚路,爱玛电动车,爱玛
2019-11-26,24.597836057808042,118.09930369942839,福建省厦门市集美区S30(福厦漳高速),爱玛电动车,爱玛
2019-11-26,24.466048845148435,118.08444989443582,福建省厦门市思明区厦禾路242号附近,爱玛电动车,爱玛
2019-11-26,24.497137318731156,118.04667723380508,福建省厦门市海沧区海裕路172号,爱玛电动车,爱玛
2019-11-26,24.682281719738818,118.21424788558137,福建省厦门市翔安区民安大道,爱玛电动车,爱玛
2019-11-26,24.59614800134762,118.03195150112734,福建省厦门市集美区甲园路82号附近,爱玛电动车,爱玛
2019-11-26,24.58463117521764,118.23069050017295,福建省厦门市翔安区S201(翔安南路),爱玛电动车,爱玛
2019-11-26,24.517573138111896,118.15358812171732,福建省厦门市湖里区泥金路,爱玛电动车,爱玛
2019-11-26,24.729113975346568,118.15856347661324,厦门市同安区,爱玛电动车,爱玛
2019-11-26,24.534490838167734,118.00154994205123,福建省厦门市海沧区新景路,爱玛电动车,爱玛
2019-11-26,24.516318964686473,118.18452953635388,高林社218号103,爱玛电动车,爱玛
2019-11-26,24.49032581859842,118.03956171184593,厦门市海沧区,爱玛电动车,爱玛
2019-11-26,24.651317861151085,118.03572882189721,孙坂北路7号,爱玛电动车,爱玛
2019-11-26,24.706445999084202,118.141194649753,厦门市同安区西洪塘美食一条街,爱玛电动车,爱玛
2019-11-26,24.69683374371973,118.17527878621517,福建省厦门市同安区G324(苏颂大道),爱玛电动车,爱玛
2019-11-26,24.699233198127008,118.12688901234176,福建省厦门市同安区同辉路,爱玛电动车,爱玛
2019-11-26,24.729113975346568,118.15856347661324,福建省厦门市同安区G324(福昆线),爱玛电动车,爱玛
2019-11-26,24.535290981015475,118.12022352796839,福建省厦门市湖里区殿前三路6122-8号南100米,爱玛电动车,爱玛
2019-11-26,24.616548667736133,118.25239793244147,新兴路139,爱玛电动车(工厂店),爱玛
2019-11-26,24.522834622246222,118.10561880602586,福建省厦门市湖里区昌鸿路5号附近,爱玛电动车(徐厝店),爱玛
2019-11-26,24.5332910267769,118.00163480407443,福建省厦门市海沧区新阳街道霞阳西路25号爱玛电动车,爱玛电动车,爱玛
2019-11-26,24.55999896606224,117.93522011333552,坂南路与平安大道交叉口东北200米,爱玛电动车,爱玛
2019-11-26,24.699635136181573,118.12033558619089,福建省厦门市同安区同宏路,爱玛电动车,爱玛
2019-11-26,24.55737204563991,118.32504615285791,福建省厦门市翔安区X242(环嶝南路),爱玛电动车,爱玛
2019-11-26,24.526046346871624,118.00656470471156,福建省厦门市海沧区新阳街道新垵村新华都正对面爱玛电动车,爱玛电动车,爱玛
2019-11-26,24.659033354638623,118.15762438803341,西福三路117号附近,爱玛电动车,爱玛
2019-11-26,24.673456411443333,118.16116982021903,西柯镇顶柯里203号,爱玛电动车,爱玛
2019-11-26,24.608498515504415,118.10824157335128,福建省厦门市集美区侨英路271号附近,爱玛电动车(侨英路店),爱玛
2019-11-26,24.53065667364737,118.11487294996277,殿前一路与殿前四路交叉口西100米,爱玛电动车,爱玛
2019-11-26,24.52419572393746,118.20412494457246,福建省厦门市思明区半屏山路1326号附近,爱玛电动车,爱玛
2019-11-26,24.808182494531806,118.02631917768336,莲花镇果园场街99号东首,爱玛电动车,爱玛
2019-11-26,24.50154804277788,118.04183833241439,沧虹路154,爱玛电动车,爱玛
2019-11-26,24.71553893502626,118.12248269895233,福建省厦门市同安区新民大道699号_1_104,爱玛电动车(同安仓库店),爱玛
2019-11-26,24.739820975653224,118.15189760057864,福建省厦门市同安区环城北路221号附近,爱玛电动车(城北店),爱玛
2019-11-26,24.613104056800235,117.99360601892056,福建省厦门市集美区灌口大道836号,爱玛电动车(灌口店),爱玛
2019-11-26,24.604342549499208,117.99693800383571,福建省厦门市集美区凤山庙路672号,爱玛电动车(黄庄店),爱玛
2019-11-26,24.729684641763786,118.15043875243092,厦门市同安区大同街道凤祥一里26号旁,爱玛电动车(大唐世家3期东北),爱玛
2019-11-26,24.662218990038745,118.25787574024382,马巷镇巷南路273号之3,爱玛电动车(马巷旗舰店),爱玛
2019-11-26,24.742501083957045,118.16145782594847,环城北路577号,爱玛电动车(金日路店),爱玛
2019-11-26,24.719583532454088,118.15950645755083,阳翟路3252号,爱玛电动车(阳翟店),爱玛
2019-11-26,24.59028250997579,118.10776304241304,福建省厦门市集美区同集南路2号之8,爱玛电动车(同集南路辅路),爱玛
2019-11-26,24.570515741296745,118.04132481606979,福建省厦门市集美区杏滨街道杏林西路31号爱马电动车,爱玛,爱玛
2019-11-26,24.526447525611843,117.99845159606865,翁角路245号附近,爱玛电动车(新华都新阳店西北),爱玛
2019-11-26,24.624216383592774,118.25457589660734,厦门市翔安区,上庄店爱玛电动车专业售后服务店,爱玛
2019-11-26,24.624216383592774,118.25457589660734,厦门市翔安区,爱玛,爱玛
2019-11-26,24.608517388704573,118.11501884048576,英瑶路295号附近,爱玛,爱玛
2019-11-26,24.682281719738818,118.21424788558137,巷西路与民安大道交叉口南50米,爱玛电动车(马巷巷西路店),爱玛
2019-11-26,24.624097389832393,118.08690187322283,福建省厦门市集美区港头二里18-3,小鸟电动车斌俊车行,爱玛
2019-11-26,24.729113975346568,118.15856347661324,福建省厦门市同安区324国道26号,爱玛(新民大道店),爱玛
2019-11-26,24.687761393914926,118.12258436467837,新民镇四口圳BRT站爱玛电动车三楼,豪逦家居,爱玛
2019-11-26,25.439341483295493,119.00827748534257,福建省莆田市城厢区莜塘南街1065-1071-1075附近,爱玛电动车,爱玛
2019-11-26,25.424343792481636,119.00153633130627,莆田市城厢区,爱玛电动车,爱玛
2019-11-26,25.43975447880629,119.01948169064262,莆田市荔城区S10莆永高速附近,爱玛电动车,爱玛
2019-11-26,25.400432734719782,118.96627367999845,福建省莆田市城厢区创业路,爱玛电动车,爱玛
2019-11-26,25.477636625275046,119.12989511575407,莆田市涵江区人民公园,爱玛电动车,爱玛
2019-11-26,25.387208707263664,119.09384234276742,黄石镇四脚亭,爱玛电动车,爱玛
2019-11-26,25.438329993082103,119.02744696559697,梅园东路720弄孝义小区2号楼,爱玛电动车(莆田市环境监察支队东北),爱玛
2019-11-26,25.467004739235726,119.1289172015118,福建省莆田市涵江区人民街72号,爱玛电动车(人民街店),爱玛
2019-11-26,25.36829149810406,118.69845425064784,莆田市仙游县243县道与324国道交叉口北150米,爱玛电动车,爱玛
2019-11-26,25.32365439756104,119.1115713003065,福建省莆田市秀屿区S202,忠门爱玛电动车,爱玛
2019-11-26,25.36148145964152,118.69543103759062,福建省莆田市仙游县龙仙路,爱玛电动车,爱玛
2019-11-26,25.337118275618522,119.17775734624233,福建省莆田市荔城区埭笏线,爱玛电动车,爱玛
2019-11-26,25.34818483880496,118.73061905857499,福建省莆田市仙游县温泉支路103号,爱玛电动车,爱玛
2019-11-26,25.446722354150662,119.12759032704247,三江口镇三江街1762号,爱玛电动车,爱玛
2019-11-26,25.45986545592271,119.0145209781265,东门东大路东门斜对面东门阿辉连锁店,爱玛电动车,爱玛
2019-11-26,25.35575024907945,118.70685385631612,福建省莆田市仙游县兴仙东路516号附近,爱玛电动车,爱玛
2019-11-26,25.34179853745014,119.09518746543762,福建省莆田市秀屿区笏石镇荔港大道中国石油加油站西北,爱玛电动车专卖店,爱玛
2019-11-26,25.509996778637802,119.08018549393428,梧塘镇枫林村红绿灯,爱玛电动车,爱玛
2019-11-26,25.432384572214225,119.01933200745103,莆阳东路139号,爱玛电动车,爱玛
2019-11-26,25.40116776604982,119.05015936278154,新度镇天妃路4839号下板路口斜对面,爱玛电动车,爱玛
2019-11-26,25.325194560837488,119.09897130790549,兴港北大道660号,爱玛电动车,爱玛
2019-11-26,25.35729193486139,118.7098115361898,柳安街420号,爱玛电动车(柳安街店),爱玛
2019-11-26,25.36868784431362,118.70857581814762,莆田市仙游县鲤城街道解放东路979号,爱玛电动车(阿卢车行连锁),爱玛
2019-11-26,25.42231385906015,118.75661027985295,榜头镇吓彬车行,爱玛电动车,爱玛
2019-11-26,25.480144873015742,119.11857088515995,涵江区国欢镇国欢西路116号,爱玛电动车,爱玛
2019-11-26,34.76347656506049,105.032520596188,甘肃省天水市武山县洛门镇建国购物广场洛门爱玛电动车店,爱玛电动车店,爱玛
2019-11-26,35.01882092149647,106.21623979942518,甘肃省天水市张家川回族自治县中城北路与462县道交叉口北150米,爱玛电动车,爱玛
2019-11-26,34.72984444110404,104.89788841252476,南滨河路两办家属楼21-22号,爱玛电动车,爱玛
2019-11-26,34.73767704971055,105.33664273506598,甘肃省天水市甘谷县大像山镇车场路盛世花苑附近,爱玛电动车(盛世花苑店),爱玛
2019-11-26,34.99565424967823,106.21438845734541,甘肃省天水市张家川回族自治县东城路甘肃省农村信用社张川镇信用社,爱玛电动车(张家川专卖店),爱玛
2019-11-26,34.75746857383058,106.14824219913537,柳树巷与永盛路交叉口东50米,爱玛电动车,爱玛
2019-11-26,34.75391300924756,105.33325594363227,甘肃省天水市甘谷县大像山镇康庄西路,爱玛电动车(康庄路店),爱玛
2019-11-26,34.584691578538745,105.7195380925889,解放路崔家巷1号楼20号商铺,爱玛电动车(解放路店),爱玛
2019-11-26,34.87389536377122,105.6808887091239,甘肃省天水市秦安县解放北路与三零四省道交汇处东南50米正北方向85米,爱玛电动车(秦安店),爱玛
2019-11-26,34.761029880446095,105.12709429010901,众利大药房隔壁,爱玛电动车磐安专卖店,爱玛
2019-11-26,34.8689174996351,105.67675027402929,明珠苑(B区北门)附近,爱玛电动车(秦安专卖店),爱玛
2019-11-26,34.55779702281777,105.89737401744932,桥南建材城电动车市场,爱玛士壁纸,爱玛
2019-11-26,24.47261320596599,112.63516370429255,广东省清远市阳山县商业大道270号附近,爱玛电动车,爱玛
2019-11-26,23.738978312952195,113.01879687952952,广东省清远市清新区清和大道127号附近,爱玛电动车,爱玛
2019-11-26,24.722600310880555,112.2931495793702,广东省清远市连南瑶族自治县朝阳路149号附近,爱玛电动车,爱玛
2019-11-26,24.16795312680948,113.67878438986635,广东省清远市英德市教育路,爱玛电动车,爱玛
2019-11-26,23.72312052717738,113.0343664543522,广东省清远市清城区松岗路105号附近,爱玛电动车,爱玛
2019-11-26,23.678161663248453,113.05869768789577,小市半环北路28号嘉兴苑首层08铺,爱玛电动车(半环北路店),爱玛
2019-11-26,24.271546228623492,113.6732255226605,广东省清远市英德市东华镇环城路东乡明珠幼儿园,爱玛电动车,爱玛
2019-11-26,24.06849584787021,112.82163755880744,广东省清远市清新区建设路,爱玛电动车,爱玛
2019-11-26,23.718028738976844,113.03459875615701,清远市清城区嘉裕楼首层1415号,爱玛电动车,爱玛
2019-11-26,24.7842263174952,112.38526131340046,广东省清远市连州市连州镇中山南路连州基督教堂附近,爱玛电动车(中山北路店),爱玛
2019-11-26,23.60890344963882,113.08622904498704,广东省清远市清城区永丰宾馆西50米(龙国道南),爱玛电动车,爱玛
2019-11-26,23.693632992401856,113.05321002936769,广东省清远市清城区小市七号区7-5号名豪苑首层115号,爱玛电动车(凤鸣路店),爱玛
2019-11-26,24.268778445799253,113.14033066210474,含光镇浛洸大道文化广场对面,爱玛电动车,爱玛
2019-11-26,24.27243960135207,113.48369231266453,商业街与望埠大街交叉口东北100米,爱玛电动车专卖,爱玛
2019-11-26,23.710159524589802,113.06309318658519,广东省清远市清城区东城大道1号天湖郦都1座02铺,爱玛电动车(天湖郦都),爱玛
2019-11-26,24.186596444486067,113.41678651830348,广东省清远市英德市浈阳中路28号,爱玛电动车(桥西路店),爱玛
2019-11-26,38.32036671947827,116.87243317374606,新华红棉大道毕村西牌坊右边,爱玛电动车(毕村店),爱玛
2019-11-26,24.570772070545118,112.08609359900049,吉田镇沿江西路31号公路局附近,爱玛电动车(金丰电动专卖店),爱玛
2019-11-26,23.86832585490657,113.54581653728913,广东省清远市清城区泰华街,爱玛,爱玛
2019-11-26,23.744375253143534,113.02198313324014,广东省清远市清新区明霞大道28号附近,爱玛,爱玛
2019-11-26,21.422623062565783,110.78172049214787,湛江市吴川市人民中路85号,爱玛电动车,爱玛
2019-11-26,21.277925206159622,110.37103228092629,湛江市赤坎区中山一路24号之5附近,爱玛电动车(创业路店),爱玛
2019-11-26,21.38115640059418,110.256518967011,广东省湛江市遂溪县湛川路42号附近,爱玛电动车,爱玛
2019-11-26,21.2503767385989,110.46256709710735,湛江市坡头区,爱玛电动车,爱玛
2019-11-26,21.251233403267847,110.45676116893719,湛江市坡头区莫烟楼75号,爱玛电动车,爱玛
2019-11-26,21.281888926952686,110.34708048534185,广东省湛江市赤坎区寸金路32号附近,爱玛电动车,爱玛
2019-11-26,21.19962738519788,110.40555488030773,广东省湛江市霞山区文明西路11号,爱玛电动车(文明西路店),爱玛
2019-11-26,21.613120740296736,110.29141390234825,广东省湛江市廉江市文化路,爱玛电动车,爱玛
2019-11-26,20.33759797083832,109.99988477254469,广东省湛江市徐闻县新华街,爱玛电动车,爱玛
2019-11-26,21.62248504206522,110.29653019059899,中山五路21号,爱玛电动车,爱玛
2019-11-26,21.447262768557348,110.78645034014797,湛江市吴川市,爱玛电动车,爱玛
2019-11-26,21.357705685946666,110.62939178251384,湛江市吴川市中贸大道与大同路交叉口西南50米,爱玛电动车,爱玛
2019-11-26,20.33857293991193,110.34851844249664,湛江市徐闻县龙塘镇龙兴大道,爱玛电动车,爱玛
2019-11-26,20.919880592716495,110.10258050647992,广东省湛江市雷州市S289,爱玛电动车,爱玛
2019-11-26,21.276723439012073,110.36555441392824,373省道北50米,爱玛电动车,爱玛
2019-11-26,20.928157029128307,110.08216397875425,广东省湛江市雷州市西湖大道205号附近,爱玛电动车,爱玛
2019-11-26,21.186906012204428,110.40974721373155,湛江市吴川市新港路与664县道交叉口东南100米,爱玛电动车,爱玛
2019-11-26,21.39480097330983,110.4248469792642,广东省湛江市坡头区官渡镇三角市场对面(原敬老原侧面),爱玛电动车,爱玛
2019-11-26,20.486307745380003,110.32812781022392,广东省湛江市徐闻县S289(新城大道),爱玛电动车(新城大道店),爱玛
2019-11-26,21.264044621183388,110.5082771933064,广东省湛江市坡头区宜居时尚酒店(湛江市坡头区人民医院西南),爱玛电动车(交通二横路店),爱玛
2019-11-26,21.200308440268582,110.40948613470975,湛江市霞山区椹川大道南1号江霞广场F1楼,爱玛电动车(江霞广场店),爱玛
2019-11-26,21.203786936269264,110.4201064054963,民有路4号,爱玛电动车,爱玛
2019-11-26,21.28458944534048,110.36670916679653,九二一路六巷与九二一路四巷交叉口东50米,爱玛电动车(九二一路店),爱玛
2019-11-26,21.03804584141248,110.39836205915947,广东省湛江市麻章区S288(海天路),爱玛电动车(东山店),爱玛
2019-11-26,21.037226568022245,110.3929930658909,湛江市麻章区东海岛东山镇先烈路83号,啊党爱玛电动车,爱玛
2019-11-26,21.1980989593464,110.40573472107077,建新西路15号,爱玛电动车(建新西路店),爱玛
2019-11-26,21.1612575593842,110.55859577643119,广东省湛江市坡头区南三财政所(南三镇中心小学北),爱玛电动车专卖店(兴旺车行),爱玛
2019-11-26,20.332578357283637,110.18102979613202,广东省湛江市徐闻县徐城街道红旗二路60号爱玛电动车专卖店,爱玛电动车专卖店,爱玛
2019-11-26,20.92219628287682,110.09025873007495,湛江市雷州市西湖大道88号附近,爱玛电动车(西湖大道),爱玛
2019-11-26,21.26935953891839,110.33309712042205,麻章镇麻志路32号,爱玛电动车(湛江市麻章区专卖店),爱玛
2019-11-26,21.46255480314986,110.0383601066095,安顺大道与长安十路交叉口南50米,爱玛电动车维修中心,爱玛
2019-11-26,21.3831029620292,110.25651530641605,广东省湛江市遂溪县X687,岭北先发爱玛电动车行,爱玛
2019-11-26,21.855798736043862,111.97289750189475,广东省阳江市江城区东门路23号,爱玛电动车,爱玛
2019-11-26,22.049027888893544,111.61924016617655,阳江市阳春市安芬娜南路与278省道交叉口东50米,爱玛电动车,爱玛
2019-11-26,22.18196023036384,111.78769869683046,广东省阳江市阳春市迎宾大道65号,爱玛电动车(阳春万隆专卖店),爱玛
2019-11-26,21.862193106970683,111.96995401524812,松岗路8巷15号安智手机店华港豪庭,爱玛电动车(西平南路店),爱玛
2019-11-26,21.748497499693634,111.62154613348771,织篢镇新城一区宋康路15号,爱玛电动车(阳西县积达专卖店),爱玛
2019-11-26,23.77902597645443,114.70008349145742,河源市源城区河源大道明源国际118号,爱玛电动车,爱玛
2019-11-26,23.64285349050723,115.17616801859718,广东省河源市紫金县新紫路,爱玛电动车,爱玛
2019-11-26,24.217370430278606,114.73180317700665,河源市连平县忠和路26号,爱玛电动车,爱玛
2019-11-26,23.642269787768537,115.1750520195269,碧桂园凤凰城26-29号爱玛电动车,爱玛电动车,爱玛
2019-11-26,23.41571476292336,114.93480694825398,广东省河源市紫金县S120(蓝塘大道),爱玛电动车,爱玛
2019-11-26,24.111925307558696,115.27196653587993,广东省河源市龙川县老隆大道,爱玛电动车,爱玛
2019-11-26,23.74430698006059,114.69519871090942,宝源路与长塘路交叉口东100米,爱玛电动车,爱玛
2019-11-26,23.52341461636605,114.71499877647905,广东省河源市紫金县古竹镇竹港大街南金惠市场爱玛电动车,爱玛电动车,爱玛
2019-11-26,24.36804913742357,114.50646304079918,东园大道与文明街交叉口东北50米,爱玛电动车,爱玛
2019-11-26,24.108737444296466,115.25974920365994,沿江路33号,爱玛电动车(龙川专卖店),爱玛
2019-11-26,24.363652920918362,115.08838763615819,金福家具城西50米(339省道北),爱玛电动车(彭寨华斯达专卖店),爱玛
2019-11-26,23.6771409976854,116.63621501071708,绿榕北路中馨乐楼18-19号,爱玛电动车,爱玛
2019-11-26,23.44997783688168,116.68592764545353,广东省潮州市潮安区文化路272号,爱玛电动车,爱玛
2019-11-26,23.67193865263737,116.64450887235229,广东省潮州市湘桥区西河路29号,爱玛电动车,爱玛
2019-11-26,23.661193126869186,116.60901683513936,广东省潮州市潮安区S233(潮汕路),爱玛电动车,爱玛
2019-11-26,23.662206203644182,116.64666119798059,广东省潮州市湘桥区南兴路7号附近,爱玛电动车,爱玛
2019-11-26,23.53927812845651,116.57801653028851,中明路与078县道交叉口东北200米,爱玛电动车,爱玛
2019-11-26,23.670347111195284,117.01044917588082,广东省潮州市饶平县G355,爱玛电动车,爱玛
2019-11-26,23.765313987630346,116.5894205367,潮州市潮安区府前街,爱玛电动车,爱玛
2019-11-26,23.680686981566488,116.63446160819274,广东省潮州市湘桥区S231(意东一路),爱玛电动车专卖,爱玛
2019-11-26,23.49929704988595,116.66045497642088,彩塘镇彩糖彩金路中段,爱玛电动车,爱玛
2019-11-26,23.680686981566488,116.63446160819274,广东省潮州市湘桥区磷溪大道八村路段,爱玛电动车(老尾车行店),爱玛
2019-11-26,23.654171905153348,116.61742479504888,潮汕路东50米,爱玛电动车(潮安佳华医院北),爱玛
2019-11-26,23.663753613557418,116.63509985425736,枫春路潮新苑5-7号,爱玛电动车(枫春店),爱玛
2019-11-26,23.468357129830867,116.68452606068884,广东省潮州市潮安区S233(枫留公路),爱玛电动车专卖店世顺车行,爱玛
2019-11-26,23.586779032279534,116.6041434379188,广东省潮州市潮安区浮洋镇潮汕路金太阳幼儿园东南150米,佳兴车行爱玛电动车,爱玛
2019-11-26,23.626674693340142,116.69641132978563,潮州市湘桥区磷溪镇镇政府,爱玛电动车（老尾车行）,爱玛
2019-11-26,23.64165395856806,116.67469671197136,广东省潮州市湘桥区磷溪镇安澄公路向上实验幼儿园附近,爱玛,爱玛
2019-11-26,23.611486056337657,109.66832544694076,来宾市武宣县武宣镇城北路209号,爱玛电动车,爱玛
2019-11-26,23.733211038144013,109.24149907033942,广西壮族自治区来宾市兴宾区322国道东50米,爱玛电动车,爱玛
2019-11-26,23.73745199268272,109.23905003080804,来宾市兴宾区柳来路221-223号,龙腾爱玛电动车,爱玛
2019-11-26,23.967379791722323,109.68989520700292,广西壮族自治区来宾市象州县温泉大道21号,爱玛电动车,爱玛
2019-11-26,23.83041650262864,108.89650704468637,广西壮族自治区来宾市合山市人民中路660号,爱玛电动车,爱玛
2019-11-26,23.927589998919444,109.2974350273079,广西壮族自治区来宾市兴宾区八一街道人民路八一友谊超市旁,爱玛电动车,爱玛
2019-11-26,23.649708336014516,109.19480434147123,良江镇中心路中心街120号,爱玛电动车,爱玛
2019-11-26,23.75654676260728,109.22745819590091,064县道北200米,爱玛电动车,爱玛
2019-11-26,23.75654676260728,109.22745819590091,322国道西50米,爱玛电动车(迁江镇卫生院东北),爱玛
2019-11-26,23.599136952872435,109.8622753385684,广西壮族自治区来宾市武宣县苗苗幼儿园(武宣县东乡镇政府西北),爱玛电动车(武宣新丰公司东乡分公司),爱玛
2019-11-26,23.610815992899926,107.13478750937142,百色市田东县东恒路63号,爱玛电动车,爱玛
2019-11-26,24.78904802759804,106.56536997221691,广西壮族自治区百色市乐业县中明宾馆西北(乐业县人民医院南),爱玛电动车,爱玛
2019-11-26,23.74200572247847,106.92141255250411,百色市田阳区324国道西50米,爱玛电动车,爱玛
2019-11-26,23.127802599634773,106.42980749622588,广西壮族自治区百色市靖西市城西路722号附近,爱玛电动车,爱玛
2019-11-26,23.74200572247847,106.92141255250411,广西壮族自治区百色市田阳区323国道北50米,爱玛电动车,爱玛
2019-11-26,24.28795196293805,106.24749576422221,乐里镇财富商城,爱玛电动车,爱玛
2019-11-26,23.746049815374388,106.91227543801237,广西壮族自治区百色市田阳区解放大道16号附近,爱玛电动车,爱玛
2019-11-26,23.401611101203578,105.83927327646082,百色市那坡县睦边大道392号附近,爱玛电动车,爱玛
2019-11-26,24.787793328478227,105.35190250836638,广西壮族自治区百色市平果县迎宾大道,爱玛电动车,爱玛
2019-11-26,23.75028209742554,106.93541190456703,广西壮族自治区百色市田阳区G324(解放东路),爱玛电动车,爱玛
2019-11-26,23.907233042262668,106.6212947946886,广西壮族自治区百色市右江区城北一路36号西北方向86米,爱玛电动车(城北一路店),爱玛
2019-11-26,23.328994351285857,106.62158260728236,百色市德保县,爱玛电动车(德盛路2分店),爱玛
2019-11-26,23.903970777816077,106.61708721702027,城北二路凤凰城,爱玛电动车(电大巷店),爱玛
2019-11-26,24.786569710231255,106.56667571047863,广西壮族自治区百色市乐业县三乐南路,爱玛电动车,爱玛
2019-11-26,24.497044625448222,105.09906078998219,鲤城路,爱玛电动车,爱玛
2019-11-26,24.779041246641878,105.35855913185421,百色市隆林各族自治县迎宾二路334号,爱玛电动车(迎宾二路店),爱玛
2019-11-26,23.139538047410706,106.42936202652362,广西壮族自治区百色市靖西市城东路975号,爱玛电动车4S售后服务中心,爱玛
2019-11-26,23.32690538863269,106.61411391561377,百色市德保县城关镇响水路88号德保国际商业中心,爱玛电动车(闽都花园店),爱玛
2019-11-26,23.156354726438447,106.41208653360583,新靖镇城东路中国邮政东100米,爱玛电动车(绣球大道店),爱玛
2019-11-26,24.348136589934136,106.57201548665995,前进街115号,爱玛电动车(凌云县忠旺电动专卖店),爱玛
2019-11-26,24.290705572469268,106.2480301611394,百色市田林县迎宾路10号,爱玛,爱玛
2019-11-26,21.688926485873495,108.3714974308437,广西壮族自治区防城港市港口区公车镇西湾大道22号,爱玛电动车(港口店),爱玛
2019-11-26,21.660167657594968,108.49707095887227,防城港市港口区光坡镇财源路122号,爱玛电动车,爱玛
2019-11-26,21.55389167806507,107.98654866652677,防城港市东兴市北仑大道301号,爱玛电动车(北仑大道店),爱玛
2019-11-26,21.65834899677206,107.97182274430656,广西壮族自治区防城港市东兴市马路镇政府西50米(256县道北),爱玛电动车,爱玛
2019-11-26,21.6930052899694,108.360418838298,建设路85号,爱玛电动车,爱玛
2019-11-26,21.770277959222067,108.37097213142573,团结大道1号,爱玛电动车(防城港市防城区专卖店),爱玛
2019-11-26,22.154791687611514,107.98651804059703,广西壮族自治区防城港市上思县中华路,爱玛电动车(防城港市上思县专卖店),爱玛
2019-11-26,21.617964000671854,108.35374989185517,渔万路58-1号,爱玛电动车(渔澫路店),爱玛
2019-11-26,21.548764638255637,107.97320622462202,北仑大道123-1,爱玛电动车(北仑大道),爱玛
2019-11-26,27.939412094413246,108.25666392311597,贵州省铜仁市思南县府后街8号,爱玛电动车,爱玛
2019-11-26,28.56234764533056,108.49898246316633,贵州省铜仁市沿河土家族自治县西环路,爱玛电动车,爱玛
2019-11-26,26.10834782484074,119.3075462591124,市兴民巷与汤山路交叉口西南100米,爱玛电动车,爱玛
2019-11-26,27.699056947254824,108.84963893027854,贵州省铜仁市江口县佛光路,爱玛电动车,爱玛
2019-11-26,28.261084444966404,108.12137341450781,贵州省铜仁市德江县香树路147号附近,爱玛,爱玛
2019-11-26,27.9992190018697,108.42202058777714,铜仁市印江土家族苗族自治县市印江土家族苗族自治县东郊商贸城,爱玛电动车(东郊商贸城店),爱玛
2019-11-26,27.294685969385498,105.33030302187774,贵州省毕节市七星关区汽摩城(毕节美食街南),爱玛电动车,爱玛
2019-11-26,27.028374696062777,106.0466863048243,毕节市黔西县恭勤路68号,爱玛电动车,爱玛
2019-11-26,27.121261944170435,104.72767216562212,贵州省毕节市赫章县城关镇政府东50米(夜郎大道),爱玛电动车,爱玛
2019-11-26,26.879247190553315,104.25948063397878,贵州省毕节市威宁彝族回族苗族自治县G326(秀河线),爱玛电动车,爱玛
2019-11-26,27.31624471452818,105.29436415402971,贵州省毕节市七星关区天河路平康医院楼下,爱玛电动车(天河路店),爱玛
2019-11-26,27.274035545562096,105.36828481611587,万丰国际商贸城,爱玛电动车,爱玛
2019-11-26,26.675067529177976,105.7865093892584,贵州省毕节市织金县鱼山北路,爱玛电动车织金专卖店,爱玛
2019-11-26,26.773124196793617,105.38154033887781,贵州省毕节市纳雍县工贸街100,纳雍爱玛电动车专营店,爱玛
2019-11-26,27.12905167514207,104.7335158226237,贵州省毕节市赫章县G326(秀河线),爱玛电动车宇桐车行,爱玛
2019-11-26,40.980705937721446,117.95324049453887,河北省承德市双桥区普乐路辅路,爱玛电动车,爱玛
2019-11-26,40.985253688840444,117.94986834817989,承德市双桥区都统府大街10-4号,爱玛电动车,爱玛
2019-11-26,40.60813120498482,118.48729356901104,承德市宽城满族自治县新兴街248号,爱玛电动车,爱玛
2019-11-26,41.219920411561134,116.65822764353372,河北省承德市丰宁满族自治县胜利东街10号,爱玛电动车(胜利东街店),爱玛
2019-11-26,41.031412722084255,118.2484943844562,河北省承德市承德县姐妹超市(三柳线西420米),爱玛电动车,爱玛
2019-11-26,40.55214221394212,117.65793490354626,承德市鹰手营子矿区滨河西路与鹰城大街交叉口东50米,爱玛电动车,爱玛
2019-11-26,41.21533638000358,116.65239270009364,河北省承德市丰宁满族自治县X506,爱玛电动车,爱玛
2019-11-26,41.01719031594869,118.70073847819664,平泉镇市场北路前卫林场底商,爱玛电动车,爱玛
2019-11-26,40.61715150781358,118.49159436054974,河北省承德市宽城满族自治县S358与511县道交叉口东北100米,爱玛电动车,爱玛
2019-11-26,41.32741375984467,117.74570961321493,河北省承德市隆化县安洲街,爱玛电动车(安洲街店),爱玛
2019-11-26,41.4653510599025,116.68955799302562,繁荣路与031乡道交叉口东南150米,爱玛电动车,爱玛
2019-11-26,40.95785601233803,117.96939750996681,358省道南50米,爱玛电动车,爱玛
2019-11-26,40.96793413583396,117.96182218943171,福隆小区6号楼103底商,爱玛电动车,爱玛
2019-11-26,41.76244963740009,117.63370836301031,X502(宁石线),爱玛电动车,爱玛
2019-11-26,41.31973342520408,117.74310890467876,河北省承德市滦平县G112(兴洲路),爱玛电动车专卖店,爱玛
2019-11-26,41.23574174935842,117.20821267676227,凤山戏楼西南100米,爱玛电动车,爱玛
2019-11-26,40.99201728727659,117.50068100842878,112国道南50米,爱玛电动车,爱玛
2019-11-26,40.93874674695695,117.34100263075685,承德市滦平县华兴路87号,爱玛电动车(滦平县滦平镇翔盛专卖店),爱玛
2019-11-26,41.012850977748386,118.69749164276139,河北省承德市平泉市迎宾街商业S1-31,爱玛电动车(迎宾街),爱玛
2019-11-26,41.95605380857022,117.76688461352671,伊逊路与北横街交叉口南100米,爱玛电动车(木兰中路店),爱玛
2019-11-26,40.78394273622538,118.1963146919592,河北省承德市承德县下板城镇卫生院附近,爱玛电动车(承德县远行专卖店),爱玛
2019-11-26,40.97883858041199,117.82206525547817,双塔山山水文苑底商15号楼2-101,爱玛电动车,爱玛
2019-11-26,40.99235762358908,117.50068100842878,079乡道与112国道交叉口东南100米,爱玛电动车(079乡道店),爱玛
2019-11-26,40.95785601233803,117.96939750996681,254省道西50米,爱玛电动车(隆化县唐三营中心卫生院西南),爱玛
2019-11-26,40.95785601233803,117.96939750996681,502县道附近,爱玛电动车(银窝沟乡中心卫生院西),爱玛
2019-11-26,40.95785601233803,117.96939750996681,244省道西50米,爱玛电动车(滦平县公路路政执法大队一中队南),爱玛
2019-11-26,40.60811031712462,118.48737025855016,承德市宽城满族自治县宽城镇(爱玛电动车旁边),颈复康大药房(宽城第十药店),爱玛
2019-11-26,38.24103752542849,115.73257160535455,河北省衡水市饶阳县,爱玛电动车,爱玛
2019-11-26,37.35334755247688,115.97260216135105,衡水市故城县,爱玛电动车,爱玛
2019-11-26,37.55708602583317,115.58542988146456,衡水市冀州区,爱玛电动车,爱玛
2019-11-26,38.04685680523654,115.98961391177681,河北省衡水市武强县沿黄线,爱玛电动车,爱玛
2019-11-26,37.833955752237436,115.39555890853424,河北省衡水市深州市美佳电器(衡井线南),爱玛电动车,爱玛
2019-11-26,37.697324590755585,115.43192839261492,河北省衡水市冀州区赵码线,爱玛电动车,爱玛
2019-11-26,38.325220998637334,115.43131416274788,河北省衡水市安平县农村信用合作联社马店信用社,爱玛电动车,爱玛
2019-11-26,37.538020917450424,116.05450848995368,河北省衡水市景县郑庄卫国家电商城,爱玛电动车,爱玛
2019-11-26,38.13193828196903,115.91981808890695,河北省衡水市武强县凯越手套厂,爱玛电动车,爱玛
2019-11-26,37.16120001691784,115.88584559384229,政大路与809县道交叉口东50米,爱玛电动车,爱玛
2019-11-26,37.69861154517405,116.2863433556299,河北省衡水市景县景安大街33号,爱玛电动车,爱玛
2019-11-26,37.34763562448393,115.97890808637,河北省衡水市故城县温州商城2-09号(昌明购物中心西),爱玛电动车(昌明购物中心西),爱玛
2019-11-26,37.741636751694145,115.68139532011222,衡水市桃城区,爱玛电动车专业维修,爱玛
2019-11-26,37.55708602583317,115.58542988146456,河北省衡水市冀州区S233,爱玛电动车,爱玛
2019-11-26,37.745191408077424,115.6754061376161,282省道与408乡道交叉口北100米,爱玛电动车,爱玛
2019-11-26,38.04494684253681,115.9751811991651,保大北路与新开东街交叉口东50米,爱玛电动车,爱玛
2019-11-26,37.218508473537305,115.8386575164709,西半屯镇瓦子庄邮政所旁,爱玛电动车,爱玛
2019-11-26,37.87472517842599,116.15757952518526,富强西路628号附近,爱玛电动车(富强西路店),爱玛
2019-11-26,38.23739747826708,115.5204548303852,网都西街65号,爱玛电动车(网都街店),爱玛
2019-11-26,38.23818558453939,115.52605997200462,安平镇丝网街227号,爱玛电动车,爱玛
2019-11-26,38.24140886998638,115.73614407294396,人民东路7号,爱玛电动车,爱玛
2019-11-26,37.745311108735706,115.69947246087281,和平东路233号,爱玛电动车(红旗商厦专卖店),爱玛
2019-11-26,37.893474027096225,115.7165140350415,河北省衡水市深州市282省道(护驾迟卫生院北),爱玛电动车(护驾迟卫生院北),爱玛
2019-11-26,37.511104279719355,115.73740093985305,人民东街165号附近,爱玛电动车,爱玛
2019-11-26,37.60913387636756,116.02299665130806,福馨家园东100米,爱玛电动车(福馨家园店),爱玛
2019-11-26,37.812992561505396,115.89554059091297,武邑镇腾达北大街175号,爱玛电动车(腾达北大街店),爱玛
2019-11-26,37.35711591555596,115.97722403303044,河北省衡水市故城县无限极(汤阴县任固镇后故城小学东南),爱玛,爱玛
2019-11-26,37.55708602583317,115.58542988146456,衡水市冀州区,爱玛,爱玛
2019-11-26,37.741636751694145,115.68139532011222,衡水市桃城区,爱玛,爱玛
2019-11-26,37.32018699996103,115.7378249408922,河北省衡水市枣强县皮毛街,强迪电动车,爱玛
2019-11-26,38.20165511951278,115.67600305264442,王同岳乡620乡道,士卫电动车(南京堂爱玛专卖店),爱玛
2019-11-26,38.01998385156927,115.5532105373993,深州镇永平大街43号爱玛电动车北邻,深州世纪星幼儿园,爱玛
2019-11-26,37.74519504618136,115.70019002731418,冀州区和平东路爱玛电动车旁,孟岭吴四香油,爱玛
2019-11-26,35.89130816827738,115.11047186341266,濮阳市清丰县,爱玛电动车,爱玛
2019-11-26,35.85765508771859,115.51058621044251,濮阳市范县013县道南50米,爱玛电动车,爱玛
2019-11-26,35.717888889374784,115.03558408559006,河南省濮阳市濮阳县Z008附近,爱玛电动车,爱玛
2019-11-26,36.076030832875425,115.21138615694532,濮阳市南乐县,爱玛电动车,爱玛
2019-11-26,35.78692065025069,115.41131635228149,河南省濮阳市范县人民路,爱玛电动车,爱玛
2019-11-26,35.78608585615619,115.05547268935504,河南省濮阳市华龙区京开大道310号附近,爱玛电动车,爱玛
2019-11-26,35.787513347856994,115.05620358066147,河南省濮阳市华龙区京开大道254号附近,爱玛电动车,爱玛
2019-11-26,35.75656585818914,114.98277087840334,濮阳市华龙区石化西路南50米,爱玛电动车,爱玛
2019-11-26,35.723402880122656,114.95093121124661,河南省濮阳市华龙区和谐路,爱玛电动车,爱玛
2019-11-26,35.717888889374784,115.03558408559006,濮阳市濮阳县022乡道与029乡道交叉口北100米,爱玛电动车,爱玛
2019-11-26,35.89130816827738,115.11047186341266,濮阳市清丰县015县道北50米,爱玛电动车,爱玛
2019-11-26,35.94904385350814,115.3181175176384,长安路67号,爱玛电动车,爱玛
2019-11-26,35.717888889374784,115.03558408559006,濮阳市濮阳县038乡道东50米,爱玛电动车,爱玛
2019-11-26,35.717888889374784,115.03558408559006,濮阳市濮阳县019县道南50米,爱玛电动车,爱玛
2019-11-26,35.86994740215184,115.5125668226084,河南省濮阳市范县人民大道南段109西南70米,爱玛电动车,爱玛
2019-11-26,35.7910099051857,115.03352445071677,石化路与开州路交叉口西南角111爱玛,爱玛电动车,爱玛
2019-11-26,35.78553145362605,115.61909567706202,河南省濮阳市范县016乡道与302省道交叉口西100米,爱玛电动车,爱玛
2019-11-26,35.95132272437185,115.82151912832417,河南省濮阳市台前县X007(党马线),爱玛电动车,爱玛
2019-11-26,35.789543061540385,115.09991416858445,河南省濮阳市华龙区苏北路玉兰花园南门向东300米路北,爱玛电动车(苏北路店),爱玛
2019-11-26,35.76759302890629,115.03559747034215,021乡道与026县道交叉口东150米,爱玛电动车,爱玛
2019-11-26,36.08191192429833,115.20899387954171,河南省濮阳市南乐县创业孵化园区管理服务办公室,爱玛电动车(兴华商贸步行街店),爱玛
2019-11-26,36.005065811866714,115.86427541815702,建新街与金水北路交叉口东南50米,爱玛电动车,爱玛
2019-11-26,35.89130816827738,115.11047186341266,河南省濮阳市清丰县009县道与012县道交叉口东北150米,爱玛电动车,爱玛
2019-11-26,35.73248522301731,115.24227287466792,柳濮中路南50米,爱玛电动车,爱玛
2019-11-26,36.11094902091822,115.07799524464934,河南省濮阳市南乐县301省道西元村星悦幼儿园附近(南乐县元村镇委南200米),爱玛电动车,爱玛
2019-11-26,35.77461755228437,115.08090467653504,大庆路街道大庆路299号,爱玛电动车,爱玛
2019-11-26,35.7775042752015,115.04483287203595,金堤中路264,爱玛电动车,爱玛
2019-11-26,35.76759302890629,115.03559747034215,016县道南50米,爱玛电动车,爱玛
2019-11-26,36.002243343090925,115.94152945527077,振兴路213号附近,爱玛电动车,爱玛
2019-11-26,35.72308117747405,115.32494993951674,三甲路户部寨镇政府西100米,爱玛电动车,爱玛
2019-11-26,35.76759302890629,115.03559747034215,Z020西50米,爱玛电动车,爱玛
2019-11-26,35.81459389660858,115.31845402288243,瓦屋头镇四公司,爱玛电动车,爱玛
2019-11-26,35.76759302890629,115.03559747034215,005乡道西200米,爱玛电动车,爱玛
2019-11-26,35.71795438703285,115.02916469919536,河南省濮阳市濮阳县红旗路,爱玛电动车(红旗路),爱玛
2019-11-26,35.78438969712281,115.09187666986446,Z020美颜馆旁,爱玛电动车,爱玛
2019-11-26,35.76759302890629,115.03559747034215,101省道南50米,爱玛电动车,爱玛
2019-11-26,36.09166492632086,115.16028802428235,近德固乡政府对过,爱玛电动车,爱玛
2019-11-26,35.72530572186207,115.40530435552033,307省道与Z002交叉口东100米,爱玛电动车,爱玛
2019-11-26,35.76759302890629,115.03559747034215,013县道东50米,爱玛电动车,爱玛
2019-11-26,36.13776467373167,115.17536051277317,河南省濮阳市南乐县寺庄乡东寺庄村中心小学南150米,天能电池寺庄三东车行爱玛电动车,爱玛
2019-11-26,34.41722801035352,114.1995611508576,河南省开封市尉氏县X023,爱玛电动车,爱玛
2019-11-26,34.424631710603606,114.21629370523594,河南省开封市通许县S325(尉州大道),爱玛电动车,爱玛
2019-11-26,34.80288581121172,114.31459258497121,011县道北50米,爱玛电动车,爱玛
2019-11-26,34.56491902704485,114.7611671600279,市场大街与广场路交叉口西北50米,爱玛电动车,爱玛
2019-11-26,34.86816524295539,115.23231748380277,河南省开封市兰考县南范路新世纪购物中心东北200米,爱玛电动车,爱玛
2019-11-26,34.79430465669114,114.37928764949432,公园路8号,爱玛电动车(公园路店),爱玛
2019-11-26,34.940601964276176,115.16361441545018,河南省开封市兰考县南彰镇政府东(002县道东),爱玛电动车,爱玛
2019-11-26,34.55485678068698,114.7895921047377,开封市杞县,爱玛电动车,爱玛
2019-11-26,34.41722801035352,114.1995611508576,河南省开封市尉氏县X032,爱玛电动车,爱玛
2019-11-26,34.570809976595186,114.76042699940633,河南省开封市杞县S327,爱玛电动车,爱玛
2019-11-26,34.49191172615683,114.45805451532267,河南省开封市通许县商业路,爱玛电动车,爱玛
2019-11-26,34.41722801035352,114.1995611508576,开封市尉氏县,爱玛电动车,爱玛
2019-11-26,34.51986714062665,114.17953321481762,河南省开封市尉氏县西大街,爱玛电动车,爱玛
2019-11-26,34.48677180265463,114.47343590592583,开封市通许县,爱玛电动车,爱玛
2019-11-26,34.49458557123489,114.45830106784616,河南省开封市通许县民生路,爱玛电动车,爱玛
2019-11-26,34.828492897237666,114.8274607124941,开封市兰考县002县道南50米,爱玛电动车,爱玛
2019-11-26,34.828492897237666,114.8274607124941,河南省开封市兰考县G220(京广线),爱玛电动车,爱玛
2019-11-26,34.7676983733175,114.81641928014878,106国道西50米,爱玛电动车,爱玛
2019-11-26,34.873154218742165,115.07816933625716,002县道与004乡道交叉口北100米,爱玛电动车,爱玛
2019-11-26,34.80288581121172,114.31459258497121,220国道附近,爱玛电动车,爱玛
2019-11-26,34.41606732933145,114.18477586965246,人民西路85附近,爱玛电动车,爱玛
2019-11-26,34.80288581121172,114.31459258497121,G106(京广线),爱玛电动车,爱玛
2019-11-26,34.80288581121172,114.31459258497121,014乡道与327省道交叉口西北100米,爱玛电动车,爱玛
2019-11-26,34.819069932231656,115.0775185139152,河南省兰考县三义寨003县道路北,爱玛电动车,爱玛
2019-11-26,34.828492897237666,114.8274607124941,河南省开封市兰考县,爱玛电动车(曹辛庄专卖店),爱玛
2019-11-26,34.76273957222411,114.4475325479012,河南省开封市祥符区X011(萝湖大街),爱玛电动车专卖店,爱玛
2019-11-26,34.872985932876425,114.76102401324826,三义寨乡中通快递,爱玛电动车,爱玛
2019-11-26,34.80288581121172,114.31459258497121,220省道3a号附近,爱玛电动车,爱玛
2019-11-26,34.80288581121172,114.31459258497121,218省道东50米,爱玛电动车,爱玛
2019-11-26,34.76273957222411,114.4475325479012,河南省开封市祥符区X011,爱玛电动车(罗王专卖店),爱玛
2019-11-26,34.409010389824594,114.20954096575124,开封市尉氏县城关镇建设路铁路北街交叉口向西路北,爱玛电动车(铁路北街店),爱玛
2019-11-26,34.80288581121172,114.31459258497121,023县道南50米,爱玛电动车,爱玛
2019-11-26,34.80288581121172,114.31459258497121,004乡道与313省道交叉口西南50米,爱玛电动车,爱玛
2019-11-26,34.278433847862125,114.15489003479631,034县道蔡庄中心地税所旁,爱玛电动车,爱玛
2019-11-26,34.91359781788649,112.79739491253585,焦作市孟州市,爱玛电动车,爱玛
2019-11-26,35.105838449216684,113.4083958204103,焦作市武陟县,爱玛电动车,爱玛
2019-11-26,34.94613549224693,113.08656906806671,焦作市温县,爱玛电动车,爱玛
2019-11-26,35.09763521059364,113.41247889563125,河南省焦作市武陟县劳动巷,爱玛电动车,爱玛
2019-11-26,35.248473876567836,113.16597679492725,河南省焦作市中站区雪莲路,爱玛电动车,爱玛
2019-11-26,34.94613549224693,113.08656906806671,河南省焦作市温县S237,爱玛电动车,爱玛
2019-11-26,35.22027235297734,113.26048370971498,焦作市山阳区,爱玛电动车,爱玛
2019-11-26,35.22932348259429,113.45458192871418,焦作市修武县,爱玛电动车,爱玛
2019-11-26,35.17561222892358,113.3490572519313,河南省焦作市修武县X011(位马路),爱玛电动车,爱玛
2019-11-26,35.041521693685354,113.50379047573692,河南省焦作市武陟县唐氏香油东90米(中心大街南),爱玛电动车,爱玛
2019-11-26,35.26189444172316,113.32854400633956,焦作市马村区,爱玛电动车,爱玛
2019-11-26,35.172589389748126,112.88438995680157,河南省焦作市沁阳市向城大街,爱玛电动车,爱玛
2019-11-26,34.972971541900655,112.96008118536045,河南省焦作市温县X041(南仓线),爱玛电动车,爱玛
2019-11-26,34.98038907173859,112.92425239675605,河南省焦作市温县X036(沁龙线),爱玛电动车,爱玛
2019-11-26,35.12607445395102,113.4075448556007,河南省焦作市武陟县S86(原焦高速),爱玛电动车,爱玛
2019-11-26,34.91226728807831,112.78847689966972,会昌南路290号附近,爱玛电动车,爱玛
2019-11-26,35.230566125644806,113.4509173866066,七贤大道233,爱玛电动车,爱玛
2019-11-26,34.95953568510031,113.08608083902203,河南省焦作市温县S237大明广场,爱玛电动车(大明广场店),爱玛
2019-11-26,35.25655807482662,113.28989694409599,河南省焦作市山阳区解放东路419号,爱玛电动车,爱玛
2019-11-26,35.24511894275101,113.34759005942321,待王路北50米,爱玛电动车,爱玛
2019-11-26,35.18044425146633,112.88552595933932,人民路与032县道交叉口北100米,爱玛电动车,爱玛
2019-11-26,35.009812342354,113.58573413791652,詹店镇002县道,爱玛电动车(詹店专卖店),爱玛
2019-11-26,35.1012529355973,113.42056700039214,河南省焦作市武陟县黄河大道100号,爱玛电动车(黄河大道),爱玛
2019-11-26,34.96849116380427,112.96496877491138,南仓线番田镇前杨垒村村民委员会,爱玛电动车,爱玛
2019-11-26,35.15131412301157,113.21756083451515,幸福路一街与018县道交叉口南50米,爱玛电动车,爱玛
2019-11-26,35.08342465424857,113.49523681067089,中心西街金象大药房旁,爱玛电动车,爱玛
2019-11-26,35.23955748287054,113.23925064203674,民主中路9号2号楼1单元华苑新城东门,爱玛电动车(华苑新城东门店),爱玛
2019-11-26,35.239336965165684,113.44844156140071,城关镇七贤大道云台商厦1楼,爱玛电动车(修武县云台商厦专卖店),爱玛
2019-11-26,35.24757353924405,113.23529468423189,解放中路恒兴商厦3层,爱玛电动车(恒兴商厦店),爱玛
2019-11-26,35.25365152465873,113.21902924602382,河南省焦作市解放区太行路国税局焦北税务分局,爱玛电动车(普济路),爱玛
2019-11-26,35.22096325403899,113.24854783457334,城伯大街镇政府西邻门牌号636465,城伯爱玛电动车,爱玛
2019-11-26,34.91135056427002,112.66615586952969,长江大道南50米,爱玛电动车(五马公司西虢店),爱玛
2019-11-26,35.22217369190443,113.22885838723597,河南省焦作市解放区南通路,爱玛电动三轮车,爱玛
2019-11-26,35.13936203621319,113.01067294590237,X076(高九线),爱玛新蕾电动车,爱玛
2019-11-26,35.097743935898,112.94077099991448,建设北路007,爱玛电动车(沁阳市马五车业店),爱玛
2019-11-26,34.94951735114652,113.09067860287647,河南省焦作市温县畜牧局(古温大街东),爱玛,爱玛
2019-11-26,35.18044425146633,112.88552595933932,人民路附近,爱玛电动车(比德文电动车),爱玛
2019-11-26,35.08861946285994,113.41885097366456,焦作市武陟县文化路116号附近,爱玛,爱玛
2019-11-26,35.105838449216684,113.4083958204103,焦作市武陟县,爱玛,爱玛
2019-11-26,35.24630980763301,113.23757179886913,焦作市解放区,爱玛,爱玛
2019-11-26,35.22027235297734,113.26048370971498,焦作市山阳区,爱玛,爱玛
2019-11-26,35.17760514474073,113.0752740916861,河南省焦作市博爱县中山路272号,爱玛,爱玛
2019-11-26,35.04550575952583,113.33737100780614,焦作市武陟县新兴路与032乡道交叉口西150米,爱玛,爱玛
2019-11-26,35.11886643445639,113.29274801397102,河南省焦作市武陟县S104,爱玛,爱玛
2019-11-26,34.91359781788649,112.79739491253585,焦作市孟州市,爱玛,爱玛
2019-11-26,35.09378573234604,112.95751688155336,焦作市沁阳市,爱玛,爱玛
2019-11-26,35.26189444172316,113.32854400633956,焦作市马村区,爱玛,爱玛
2019-11-26,34.941249500762595,113.15102066035593,河南省焦作市温县X032(马武线),爱玛,爱玛
2019-11-26,35.08468673335095,113.23701502911405,河南省焦作市武陟县长城门业·安利来门小董乡专卖店,爱玛,爱玛
2019-11-26,35.22096325403899,113.24854783457334,021县道南50米,爱玛,爱玛
2019-11-26,35.22027235297734,113.26048370971498,焦作市山阳区,爱玛第13号售后服务点,爱玛
2019-11-26,34.77599679244391,111.19557389665238,河南省三门峡市湖滨区召公路,爱玛电动车,爱玛
2019-11-26,34.78483231235044,111.21684711858693,河南省三门峡市湖滨区建设路海洋新城1号楼,爱玛电动车(建设路总店),爱玛
2019-11-26,34.76674591302987,111.79033523751745,城关镇醴泉路渑池三中北隔壁,爱玛电动车,爱玛
2019-11-26,34.758514245831705,111.8610343065776,河南省三门峡市义马市义马体育公园东南,爱玛电动车(千秋路店),爱玛
2019-11-26,34.72564124377881,111.78841025864013,三门峡市渑池县赵庄东村赵沟小区门口,爱玛电动车,爱玛
2019-11-26,34.69509644615766,111.77792550621932,河南省三门峡市渑池县海尔专卖店(天池店),爱玛电动车,爱玛
2019-11-26,34.055795135357826,111.0568681598066,河南省三门峡市卢氏县伏牛路城关镇西街三街坊62号楼,爱玛电动车(伏牛路店),爱玛
2019-11-26,34.778327249459984,111.2065332238741,310国道南50米,爱玛电动车,爱玛
2019-11-26,34.528145879655604,110.88138258753335,新华东路与新华西路交叉口东北50米,爱玛电动车,爱玛
2019-11-26,34.53330167980588,110.8824600133654,三门建设路西50米,爱玛电动车(东城府邸东南),爱玛
2019-11-26,34.059924845298816,111.0545640061735,卢氏县G209(呼北线),雅迪爱玛电动车,爱玛
2019-11-26,34.778327249459984,111.2065332238741,209国道东50米,爱玛电动车(川口乡财政所东南),爱玛
2019-11-26,34.528145879655604,110.88138258753335,河南省三门峡市灵宝市新华西路,爱玛,爱玛
2019-11-26,34.7269148015266,111.10945065249427,河南省三门峡市陕州区G209(呼北线),爱玛,爱玛
2019-11-26,34.77551230647698,111.18870457957013,河南省三门峡市陕州区陕州大道,爱玛(温塘店),爱玛
2019-11-26,33.740601406825256,113.31951891054192,平顶山市卫东区劳动路82附1号附近,爱玛电动车(平顶山专卖店),爱玛
2019-11-26,33.874745598630774,113.06144723583577,平顶山市宝丰县,爱玛电动车,爱玛
2019-11-26,33.79530133543738,112.81810831047657,河南省平顶山市鲁山县锡海线永生移动手机广场东南,爱玛电动车,爱玛
2019-11-26,34.16990311002696,112.85202814687224,平顶山市汝州市蒋台街16号,爱玛电动车(蒋台街店),爱玛
2019-11-26,33.74487886345235,112.91443396963372,河南省平顶山市鲁山县G207(锡海线),爱玛电动车,爱玛
2019-11-26,33.68031062784027,113.39850421911774,平顶山市叶县311国道东50米,爱玛电动车,爱玛
2019-11-26,33.97409813679211,113.24132024450795,河南省平顶山市郏县复兴路,爱玛电动车,爱玛
2019-11-26,33.2994311053011,113.53141031593,平顶山市舞钢市,爱玛电动车,爱玛
2019-11-26,33.71638279303857,113.29958811636148,河南省平顶山市湛河区中国移动手机连锁卖场曹镇核心专营店,爱玛电动车,爱玛
2019-11-26,33.90859842807753,112.90387890145081,河南省平顶山市石龙区S329(昌茂大道),爱玛电动车,爱玛
2019-11-26,33.74487886345235,112.91443396963372,平顶山市鲁山县036县道南50米,爱玛电动车,爱玛
2019-11-26,33.6557678098032,113.1919110196275,河南省平顶山市鲁山县国安家具广场西北50米,爱玛电动车,爱玛
2019-11-26,33.874745598630774,113.06144723583577,河南省平顶山市宝丰县S236(平郏快速通道),爱玛电动车,爱玛
2019-11-26,33.72985266398764,113.31415143361126,河南省平顶山市卫东区开源路,爱玛电动车,爱玛
2019-11-26,33.74487886345235,112.91443396963372,平顶山市鲁山县014乡道东50米,爱玛电动车,爱玛
2019-11-26,33.772050748691015,113.19952856052156,神垕镇南大秦三车行,爱玛电动车,爱玛
2019-11-26,33.977486289176724,113.21960622765287,河南省平顶山市郏县中州大道,爱玛电动车,爱玛
2019-11-26,33.982870081397515,112.91520498525293,平顶山市宝丰县011县道南50米帝多福购物广场,爱玛电动车,爱玛
2019-11-26,33.74487886345235,112.91443396963372,河南省平顶山市鲁山县G311(徐峡线),爱玛电动车,爱玛
2019-11-26,34.222903277387104,112.65756910190564,河南省平顶山市汝州市X003(南张线),爱玛电动车,爱玛
2019-11-26,34.17276778855066,112.85054971566392,平顶山市汝州市,爱玛电动车,爱玛
2019-11-26,33.795955131619735,113.01253402149835,河南省平顶山市鲁山县辛集乡鲁宝路39号,爱玛电动车,爱玛
2019-11-26,33.749361168508706,112.92336758020161,河南省平顶山市鲁山县东门大街2号,爱玛电动车(花园路),爱玛
2019-11-26,33.772050748691015,113.19952856052156,242省道北50米,爱玛电动车,爱玛
2019-11-26,33.67391168599407,113.1194514514289,滚子营乡磙子营卫生院磙子营一中附近,爱玛电动车,爱玛
2019-11-26,33.752815997575304,112.91744284393938,河南省平顶山市鲁山县喜临门量贩(新车站店)南80米,爱玛电动车(墨公路店),爱玛
2019-11-26,33.93968148971848,112.89463110763248,双城路与032县道交叉口东100米,爱玛电动车,爱玛
2019-11-26,33.37345342841738,113.60055274101597,七蚁路与枣徐路交叉口东南50米,爱玛电动车,爱玛
2019-11-26,33.772050748691015,113.19952856052156,311国道北50米,爱玛电动车,爱玛
2019-11-26,33.98110868971611,113.24330190556465,复兴路与龙山大道交叉口东南150米,爱玛电动车(平顶山市郏县专卖店),爱玛
2019-11-26,33.74841316575883,113.4408692052738,河南省平顶山市叶县许南路中段东南70米,爱玛电动车(叶县旗舰店),爱玛
2019-11-26,33.98745978098536,113.24227900957196,文化路与020县道交叉口东南150米,爱玛电动车,爱玛
2019-11-26,33.298126526703534,113.5301204013194,河南省平顶山市舞钢市S331与朝阳路交叉口东,爱玛电动车(朝阳路店),爱玛
2019-11-26,33.977486289176724,113.21960622765287,平顶山市郏县,爱玛电动车(长桥专卖店),爱玛
2019-11-26,33.632491674058336,113.36358241275624,平顶山市叶县311国道东150米,爱玛电动车(叶县亿联店),爱玛
2019-11-26,33.743350773228606,113.31561991339115,建设路与开源路交叉口向北100米路东,爱玛电动车,爱玛
2019-11-26,33.877626494659914,113.07432148091311,城关镇南关大街165号,爱玛电动车(南关大街店),爱玛
2019-11-26,33.685790171047444,113.25051467448745,平顶山市湛河区,爱玛,爱玛
2019-11-26,33.772050748691015,113.19952856052156,036县道西50米,爱玛电动车自行车专卖,爱玛
2019-11-26,33.977486289176724,113.21960622765287,平顶山市郏县,爱玛,爱玛
2019-11-26,33.2994311053011,113.53141031593,平顶山市舞钢市,爱玛,爱玛
2019-11-26,34.17276778855066,112.85054971566392,平顶山市汝州市,爱玛,爱玛
2019-11-26,33.67435883605963,113.45063956406831,叶邓路与004乡道交叉口北150米,龚店爱玛电动车专卖店,爱玛
2019-11-26,33.74273247906697,113.31606233334635,河南省平顶山市卫东区建设路962号,爱玛电动车骐云摩托车行,爱玛
2019-11-26,33.632491674058336,113.36358241275624,平顶山市叶县,天能电池嘉陵二轮车爱玛电动车,爱玛
2019-11-26,33.74365715164552,113.30043988964603,平顶山市新华区,爱玛,爱玛
2019-11-26,33.772050748691015,113.19952856052156,004县道与330省道交叉口西北200米,爱玛电动车(叶县仙台镇中心卫生院北),爱玛
2019-11-26,33.9073290580857,112.89136602312078,河南省平顶山市石龙区万客来宾馆(昌茂大道北),雅迪电动车(平顶山市石龙区公路管理局东),爱玛
2019-11-26,33.772050748691015,113.19952856052156,G311(徐峡线),爱玛电动车大阳摩托,爱玛
2019-11-26,33.732867590991916,112.7893410646556,231省道爱玛电动车北200米,杨平百货床上用品化妆品,爱玛
2019-11-26,33.79495541983995,112.8186364242859,河南省平顶山市鲁山县G311爱玛电动车斜对面,惠民通讯,爱玛
2019-11-26,33.95163902703348,113.3629297039727,河南省平顶山市郏县省道238爱玛电动车长桥专卖店西北侧100米,四季沐歌(长桥专卖店),爱玛
2019-11-26,32.15599597978539,114.11578122645282,河南省信阳市平桥区新十八街辅路,爱玛电动车,爱玛
2019-11-26,32.35622441574376,114.75665098836464,河南省信阳市息县息夫人大道,爱玛电动车,爱玛
2019-11-26,32.125343639866784,114.08668618895123,河南省信阳市浉河区民权路东关恒信商住楼10号楼,爱玛电动车(民权街店),爱玛
2019-11-26,32.12378477228769,114.13348997212377,信阳市平桥区中心大道跌路桥往南100米(市一建隔壁),爱玛电动车,爱玛
2019-11-26,32.12684162886111,114.06894043309327,河南省信阳市浉河区茶韵家园(信阳市浉河中学西),爱玛电动车(茶韵路店),爱玛
2019-11-26,32.01590687956846,114.92553303688484,河南省信阳市光山县司马光东路,爱玛电动车,爱玛
2019-11-26,32.102746159775776,114.1385364674279,河南省信阳市平桥区平桥大道,爱玛电动车,爱玛
2019-11-26,32.17417437962212,115.66048788818134,信阳市固始县,爱玛电动车,爱玛
2019-11-26,32.14263447925845,114.01984650985361,河南省信阳市浉河区河南省水上运动管理中心东南,爱玛电动车,爱玛
2019-11-26,32.12255415688444,114.06558130946927,信阳市浉河区,爱玛电动车,爱玛
2019-11-26,32.14516040649332,114.0298904008793,河南省信阳市浉河区南湖大街,爱玛电动车,爱玛
2019-11-26,32.03918395870806,115.67817515806246,河南省信阳市固始县东元大街,爱玛电动车,爱玛
2019-11-26,32.13719094960262,115.0573264026619,河南省信阳市潢川县跃进路332号,爱玛电动车,爱玛
2019-11-26,32.358867334937244,114.0442430502158,河南省信阳市平桥区107国道老甘岸收费站北5O米,爱玛电动车,爱玛
2019-11-26,31.99433808892623,115.8586613599571,河南省信阳市固始县交通街黎集镇中心卫生院西150米,爱玛电动车,爱玛
2019-11-26,32.28179117491034,114.03703208239556,河南省信阳市平桥区甘岸街道明寨街和盛苑小区附近,爱玛电动车,爱玛
2019-11-26,32.125858558323685,114.99002191514086,河南省信阳市潢川县华英大道,爱玛电动车,爱玛
2019-11-26,32.0826571525488,114.05879649778296,信阳市浉河区中心大道西50米,爱玛电动车,爱玛
2019-11-26,32.18419851045021,114.1330576625971,新二十四大街东50米,爱玛电动车,爱玛
2019-11-26,32.201784502423386,115.87044294124603,河南省信阳市固始县安阳山路,爱玛电动车,爱玛
2019-11-26,31.907546175375128,113.97526944637922,河南省信阳市浉河区南湾古井路谭家河中心幼儿园北200米,爱玛电动车,爱玛
2019-11-26,32.01758454980439,114.92187774462913,河南省信阳市光山县海营路,爱玛电动车(海营路店),爱玛
2019-11-26,32.19069988734313,115.68865255066622,河南省信阳市固始县蓼城办事处蓼北路富贵花园附近,爱玛电动车(固始旗舰店),爱玛
2019-11-26,32.137530716413536,115.05847075405106,河南省信阳市潢川县长兴路,爱玛电动车,爱玛
2019-11-26,32.01590687956846,114.92553303688484,河南省信阳市光山县X015,爱玛电动车,爱玛
2019-11-26,31.876578182592077,115.75149273507323,信阳市固始县苏维埃大街91号,爱玛电动车,爱玛
2019-11-26,31.85008938413228,115.81319530011272,河南省信阳市固始县仰天大道,爱玛电动车,爱玛
2019-11-26,32.143166072787956,115.05433181141385,河南省信阳市潢川县金祥宾馆(义乌国际商贸城东)人人购物广场西200米德克士斜对面,爱玛电动车,爱玛
2019-11-26,32.1232564284964,114.08761377922085,河南省信阳市浉河区民权街白果树小区商铺,爱玛电动车(售后服务部),爱玛
2019-11-26,32.4439428709664,115.41997979297574,南大街三八门市部,爱玛电动车,爱玛
2019-11-26,32.20227937627917,114.54554971633362,河南省信阳市罗山县万隆商贸广场东南(江淮中路西),爱玛电动车(江淮中路店),爱玛
2019-11-26,32.29990825265826,115.63767892314694,信阳市固始县009乡道与020乡道交叉口西150米,爱玛电动车,爱玛
2019-11-26,32.15301454753105,114.09748283304512,337省道南50米,爱玛电动车,爱玛
2019-11-26,32.20888038177242,115.80754580016725,河南省信阳市固始县S339(豫皖大道),爱玛电动车,爱玛
2019-11-26,32.15301454753105,114.09748283304512,004乡道与017乡道交叉口北200米,爱玛电动车,爱玛
2019-11-26,32.18121412577993,115.68047165992922,河南省信阳市固始县麻纺路,爱玛电动车(麻纺路店),爱玛
2019-11-26,32.11135702193595,114.10824902637881,工区路与春晓路交叉口西北150米,爱玛电动车,爱玛
2019-11-26,32.365916366323155,114.74800702742537,河南省信阳市息县北大街甜源宾馆旁边,爱玛电动车(息县专卖店),爱玛
2019-11-26,32.11743503899568,114.08517299331969,民权街339号附近,爱玛电动车,爱玛
2019-11-26,31.8157647306627,115.4186383874933,金刚台大道北50米,爱玛电动车,爱玛
2019-11-26,32.25747154858672,114.48247600342548,002县道与010乡道交叉口北50米,爱玛电动车,爱玛
2019-11-26,32.10804199810925,114.13288792777098,农林路中段255号,爱玛电动车,爱玛
2019-11-26,32.47773366173044,113.93624786350074,001乡道与008乡道交叉口北50米,爱玛电动车,爱玛
2019-11-26,32.15301454753105,114.09748283304512,040乡道西50米,爱玛电动车,爱玛
2019-11-26,32.15301454753105,114.09748283304512,013县道与014乡道交叉口西南200米,爱玛电动车,爱玛
2019-11-26,31.808801989350993,115.41129299903315,河南省信阳市商城县锦绣商城迎宾馆北(西亚丽宝广场东南),爱玛电动车(商城县专卖店),爱玛
2019-11-26,31.704916733583836,115.13434487132363,沙窝镇迎宾大道,爱玛电动车,爱玛
2019-11-26,32.13902605738104,114.3024816300857,振兴街西50米,爱玛电动车,爱玛
2019-11-26,32.13013459458275,114.10731469702128,南京路63号,爱玛电动车,爱玛
