add_time,lat,lon,store_address,store_name,topic
2019-11-26,28.685610167047617,115.82912721267712,江西省南昌市新建区长征西路262号附近,杰宝大王电动车,杰宝大王
2019-11-26,28.55241357321892,115.95233035500813,江西省南昌市南昌县莲塘华尔街国际公馆东北,杰宝大王电动车,杰宝大王
2019-11-26,28.56266488668701,115.93144357602611,江西省南昌市南昌县澄湖北大道辅路,上海杰宝大王电动车,杰宝大王
2019-11-26,42.020855116829765,122.17802962865382,锦州市黑山县交通街附近,杰宝大王电动车(新立屯专卖店),杰宝大王
2019-11-26,40.338025034578706,107.00472195689046,东风路与贺兰北路交叉口西100米,杰宝大王电动车,杰宝大王
2019-11-26,34.964687553329746,109.59463688076364,东风路与贺兰北路交叉口西100米,杰宝大王电动车,杰宝大王
2019-11-26,34.37072477304041,107.17933377973317,东风路与贺兰北路交叉口西100米,杰宝大王电动车,杰宝大王
2019-11-26,34.815994048435115,117.33054194483897,东风路与贺兰北路交叉口西100米,杰宝大王电动车,杰宝大王
2019-11-26,35.254838504974515,119.36752083451036,东风路与贺兰北路交叉口西100米,杰宝大王电动车,杰宝大王
2019-11-26,37.43964182632334,118.68138493513693,东风路与贺兰北路交叉口西100米,杰宝大王电动车,杰宝大王
2019-11-26,37.41699486124957,122.30777172907003,东风路与贺兰北路交叉口西100米,杰宝大王电动车,杰宝大王
2019-11-26,37.87698902884778,112.55639149167204,东风路与贺兰北路交叉口西100米,杰宝大王电动车,杰宝大王
2019-11-26,23.373208828006284,104.25545446820983,东风路与贺兰北路交叉口西100米,杰宝大王电动车,杰宝大王
2019-11-26,28.05596031366057,120.91054294976865,东风路与贺兰北路交叉口西100米,杰宝大王电动车,杰宝大王
2019-11-26,29.786728715191522,119.69302235211947,浙江省杭州市桐庐县乔林路570号东北60米,杰宝大王电动车,杰宝大王
2019-11-26,30.339447327715817,120.22843735911145,浙江省杭州市江干区笕丁路205号附近,杰宝大王电动车,杰宝大王
2019-11-26,30.188764195122044,119.40373789501041,浙江省杭州市临安区天目路79附近,杰宝大王电动车,杰宝大王
2019-11-26,30.162717350931977,120.15744256248762,新浦路147号附近,杰宝大王电动车(新浦路店),杰宝大王
2019-11-26,30.33930567548932,120.26167759145662,浙江省杭州市江干区九横路,杰宝大王电动车,杰宝大王
2019-11-26,30.356286742054507,120.09695371200645,杭州市余杭区良运街491号,杰宝大王电动车,杰宝大王
2019-11-26,30.356478395693618,120.26300332959266,浙江省杭州市余杭区笕览线,杰宝大王电动车(宏昌路店),杰宝大王
2019-11-26,30.35571842850971,120.18827106821654,杭州市拱墅区半山路126号,杰宝大王电动车(半山路店),杰宝大王
2019-11-26,30.3041074089872,120.28381491232562,浙江省杭州市江干区旺杨街,杰宝大王电动车,杰宝大王
2019-11-26,30.22536854140936,120.28615275960178,浙江省杭州市萧山区新宁路144附近,杰宝大王维修电动车摩托车,杰宝大王
2019-11-26,30.297022014997175,120.15594450689711,浙江省杭州市拱墅区德胜路338号附近,杰宝大王电动车(德胜路店),杰宝大王
2019-11-26,30.219009357815438,120.17642407052375,杭州市上城区复兴路137号,杰宝大王电动车(复兴路),杰宝大王
2019-11-26,30.328405434878654,120.26512916958201,浙江省杭州市江干区九堡街道天阳九筑七幢103商铺杰宝大王,杰宝大王电动车专卖店,杰宝大王
2019-11-26,30.389076352874923,120.19019899173932,浙江省杭州市余杭区崇贤街道崇杭街新飞大厦杰宝大王电动车,杰宝大王(电动车),杰宝大王
2019-11-26,30.33824491972125,120.10126805687925,浙江省杭州市拱墅区丰庆路859号,杰宝大王电动车(丰庆路店),杰宝大王
2019-11-26,30.22319256027218,120.28547312231396,利华路与新宁路交叉口西南50米,杰宝大王电动车,杰宝大王
2019-11-26,30.320742124609552,120.2255042155535,杭州市江干区明石路与笕桥路交叉口西南150米,杰宝大王电动车(笕桥街道办事处西南),杰宝大王
2019-11-26,30.3068199531609,120.2164087617734,笕桥镇东港嘉苑二区一楼,杰宝大王电动车,杰宝大王
2019-11-26,30.324493122320366,120.24278588163247,小桥头路与相埠路交叉口西100米,杰宝大王电动车,杰宝大王
2019-11-26,30.418253667398407,120.10134732425576,良塘线与214县道交叉口南150米,杰宝大王电动车专卖维修,杰宝大王
2019-11-26,30.420866187462106,120.30319420531278,星桥街道藕花洲大街西段249-1号,杰宝大王电动车(藕花洲大街西段),杰宝大王
2019-11-26,30.406838985641826,120.15032895930668,崇贤镇独山工业区37-6号,杰宝大王电动车店,杰宝大王
2019-11-26,30.31563621521408,120.15929915067156,大关路258号,杰宝大王电动车(大关路店),杰宝大王
2019-11-26,30.375335672077487,120.24306787500323,浙江省杭州市江干区天都路,杰宝大王,杰宝大王
2019-11-26,30.2633105670119,120.21153877811217,杭州市江干区,杰宝大王,杰宝大王
2019-11-26,30.35032885153206,120.22047233657835,杭州市江干区丁兰街道杭玻街256号龙湖名景台南苑商铺,杰宝大王,杰宝大王
2019-11-26,30.173661500629784,120.29659079294962,浙江省杭州市萧山区商乐街44号附近,杰宝大王,杰宝大王
2019-11-26,30.18526086970412,120.16636465138903,浙江省杭州市滨江区商业街4幢14号附近,杰宝大王(杨家墩街店),杰宝大王
2019-11-26,30.243004952521307,120.18177261656409,浙江省杭州市上城区望江路166附近,杰宝大王,杰宝大王
2019-11-26,30.35275999552237,120.30124500003414,浙江省杭州市余杭区仙塘东街1号附近,上海杰宝大王,杰宝大王
2019-11-26,30.05472296730377,119.96655568417805,杭州市富阳区,杰宝大王(富阳旗舰店),杰宝大王
2019-11-26,30.31608898882869,120.29111240313598,浙江省杭州市江干区九沙大道,杰宝大王(九沙大道店),杰宝大王
2019-11-26,30.239742227329913,119.72250514069991,浙江省杭州市临安区临天路211号附近,杰宝大王(临安旗舰店),杰宝大王
2019-11-26,30.246064478814322,120.06110772893629,浙江省杭州市江干区3号大街800号附近,杰宝大王,杰宝大王
2019-11-26,29.89401575615241,121.80545602306543,浙江省宁波市北仑区人民南路100,杰宝大王电动车,杰宝大王
2019-11-26,29.836167584501705,121.56851731703452,浙江省宁波市鄞州区堇山中路551、553号附近,上海杰宝大王电动车,杰宝大王
2019-11-26,29.93103336531607,121.62521998673857,庄市西陆路140号,杰宝大王电动车,杰宝大王
2019-11-26,29.9548849633495,121.72251899132434,宁波市镇海区,杰宝大王电动车,杰宝大王
2019-11-26,29.97787567055654,121.65730587403516,浙江省宁波市镇海区镇骆路298-6号,杰宝大王电动车,杰宝大王
2019-11-26,29.9398917728691,121.57628033401186,浙江省宁波市江北区钟家路,杰宝大王电动车,杰宝大王
2019-11-26,29.79039200373428,121.42221219679229,浙江省宁波市海曙区荷晓东路822,蒲公英杰宝大王电动车,杰宝大王
2019-11-26,30.179691364112315,121.1235885294776,环城西路北段86弄13号,杰宝大王电动车,杰宝大王
2019-11-26,29.85833996960967,121.50323596895038,宁波市海曙区薛家新村16幢17号,杰宝大王电动车,杰宝大王
2019-11-26,29.92669090371273,121.55554108643861,李家西路125号,杰宝大王电动车,杰宝大王
2019-11-26,29.85482979060917,121.56593111972641,永达西路56号,杰宝大王电动车(永达西路店),杰宝大王
2019-11-26,29.86572070836559,121.55740307253974,宁波市海曙区,杰宝大王,杰宝大王
2019-11-26,29.918988679320876,121.94513925100574,浙江省宁波市北仑区雪窦山路,杰宝大王,杰宝大王
2019-11-26,30.001148501406494,121.63810996852888,浙江省宁波市镇海区炼蟹线,杰宝大王,杰宝大王
2019-11-26,30.182065434407757,121.33525130796876,浙江省宁波市慈溪市青春路507号附近,杰宝大王,杰宝大王
2019-11-26,29.851218555892803,121.70010337361913,浙江省宁波市鄞州区五乡中路747东100米,杰宝大王,杰宝大王
2019-11-26,29.920696534774873,121.65252365482382,宁波市镇海区宁镇立交与镇宁西路交叉口西150米,福玉车行杰宝大王,杰宝大王
2019-11-26,29.769132192632675,121.46254352975204,浙江省宁波市奉化区方阳北路,杰宝大王,杰宝大王
2019-11-26,30.172981584597377,121.40818051483939,浙江省宁波市慈溪市广义路10附近,杰宝大王,杰宝大王
2019-11-26,29.70452734268384,121.42510800317908,浙江省宁波市奉化区东江路158号杰宝大王,杰宝大王,杰宝大王
2019-11-26,35.60989877268906,103.24954917760394,临夏回族自治州临夏县,临夏回族自治州林业科学研究所,杰宝大王
2019-11-26,32.91114449022889,101.7075197357868,阿坝镇中心街1号,阿坝藏族羌族自治州阿坝县市场监督管理局,杰宝大王
2019-11-26,32.83364840105931,101.44586423351977,阿坝镇德塘路3号,阿坝藏族羌族自治州阿坝质量技术监督局,杰宝大王
2019-11-26,32.64390583942716,101.14466698636532,四川省阿坝藏族羌族自治州壤塘县阿两路,四川省阿坝藏族羌族自治州南木达木材检查站,杰宝大王
2019-11-26,22.519270620697633,113.4027864269351,中山西路668号,杰宝大王电动车(中山西路店),杰宝大王
2019-11-26,22.5223146707905,113.39942236263188,中山街道中山东路174号,杰宝大王电动车(中山东路),杰宝大王
2019-11-26,31.012554383416216,121.293217698559,上海市松江区车香路315号附近,杰宝大王电动车(车香路店),杰宝大王
2019-11-26,22.490980964838702,113.36027798140312,中山南二路899号,杰宝大王,杰宝大王
2019-11-26,22.5223146707905,113.39942236263188,开明路1188号附近,杰宝大王赛克电动车专卖店,杰宝大王
2019-11-26,33.01174684975431,116.32191984704706,034县道东50米阚疃龙门商场附近,杰宝大王电动车,杰宝大王
2019-11-26,33.23793103453095,116.57977594280368,安徽省亳州市蒙城县张庄路,杰宝大王(总代理),杰宝大王
2019-11-26,32.26127087204081,118.33940613596579,034县道东50米阚疃龙门商场附近,杰宝大王电动车,杰宝大王
2019-11-26,30.53668589548447,118.99296534534207,034县道东50米阚疃龙门商场附近,杰宝大王电动车,杰宝大王
2019-11-26,39.54336666275853,116.69058173342549,034县道东50米阚疃龙门商场附近,杰宝大王电动车,杰宝大王
2019-11-26,26.672241711408567,119.55451074542829,034县道东50米阚疃龙门商场附近,杰宝大王电动车,杰宝大王
2019-11-26,25.951403459006716,116.48921773440166,034县道东50米阚疃龙门商场附近,杰宝大王电动车,杰宝大王
2019-11-26,24.514000859853287,117.9792236985578,034县道东50米阚疃龙门商场附近,杰宝大王电动车,杰宝大王
2019-11-26,25.348658146634275,118.95941460629622,034县道东50米阚疃龙门商场附近,杰宝大王电动车,杰宝大王
2019-11-26,34.58741188165064,105.73141674566955,034县道东50米阚疃龙门商场附近,杰宝大王电动车,杰宝大王
2019-11-26,24.354778322350647,112.60996560952535,034县道东50米阚疃龙门商场附近,杰宝大王电动车,杰宝大王
2019-11-26,21.521200202674237,110.81840459424669,034县道东50米阚疃龙门商场附近,杰宝大王电动车,杰宝大王
2019-11-26,21.903099206331845,111.94283165665541,034县道东50米阚疃龙门商场附近,杰宝大王电动车,杰宝大王
2019-11-26,23.749684370959752,114.70744627290641,034县道东50米阚疃龙门商场附近,杰宝大王电动车,杰宝大王
2019-11-26,23.662623192615886,116.62947017362819,034县道东50米阚疃龙门商场附近,杰宝大王电动车,杰宝大王
2019-11-26,23.75654676260728,109.22745819590091,034县道东50米阚疃龙门商场附近,杰宝大王电动车,杰宝大王
2019-11-26,31.150786437305463,121.45630827636747,上海市徐汇区百色路与龙吴路交叉口西北100米,杰宝大王电动车,杰宝大王
2019-11-26,31.274409334979296,121.40253580106564,上海市普陀区真南路227号,杰宝大王电动车,杰宝大王
2019-11-26,31.093596047502924,121.38303648098777,上海市闵行区申北路585号,杰宝大王电动车,杰宝大王
2019-11-26,31.354281474079446,121.42989243415109,上海市宝山区共富路548号,杰宝大王电动车,杰宝大王
2019-11-26,31.04794939195862,121.41317430835585,上海市闵行区马桥镇北松公路121号,杰宝大王电动车,杰宝大王
2019-11-26,21.6930052899694,108.360418838298,中山西路668号,杰宝大王电动车(中山西路店),杰宝大王
2019-11-26,31.218822169553913,121.48458440329495,上海市黄浦区建国东路162号附近,杰宝大王电动车,杰宝大王
2019-11-26,31.331359708460667,121.35847765814198,上海市宝山区陈广路402号,杰宝大王电动车,杰宝大王
2019-11-26,21.6930052899694,108.360418838298,嘉行公路2969号,杰宝大王电动车,杰宝大王
2019-11-26,21.6930052899694,108.360418838298,北翟路2942号附近,杰宝大王电动车,杰宝大王
2019-11-26,21.6930052899694,108.360418838298,颛桥镇贵都路355号,杰宝大王电动车,杰宝大王
2019-11-26,21.6930052899694,108.360418838298,金桥经济技术开发区唐陆公路600号,杰宝大王电动车,杰宝大王
2019-11-26,31.266397476684677,121.52899353394407,上海市杨浦区许昌路730号,杰宝大王电动车(许昌路专卖店),杰宝大王
2019-11-26,21.6930052899694,108.360418838298,莘庄镇莘朱路675号,杰宝大王电动车,杰宝大王
2019-11-26,31.18063959826867,121.41585587786251,上海市徐汇区虹漕路388号附近,上海杰宝大王电动车,杰宝大王
2019-11-26,31.344149543694833,121.45008624948993,上海市宝山区呼玛路707-1号临,杰宝大王电动车,杰宝大王
2019-11-26,31.242172067038652,121.41596907244153,上海市普陀区李村路18号,杰宝大王电动车(李村路店),杰宝大王
2019-11-26,31.248410251321534,121.3721936172788,上海市嘉定区清峪路642号,杰宝大王电动车(清峪路专卖店),杰宝大王
2019-11-26,21.6930052899694,108.360418838298,闸航路2503,杰宝大王电动车,杰宝大王
2019-11-26,30.992584789078606,121.4388137370352,上海市奉贤区西闸公路1630弄附近,杰宝大王电动车,杰宝大王
2019-11-26,21.6930052899694,108.360418838298,工业区宝钱公路3725号,杰宝大王电动车,杰宝大王
2019-11-26,31.166815913572187,121.38874488282556,上海市闵行区龙茗路2688,杰宝大王电动车(龙茗路店),杰宝大王
2019-11-26,31.155745810665174,121.64334963724649,上海市浦东新区情谊路78号,杰宝大王电动车,杰宝大王
2019-11-26,31.120407791721345,121.38082907216318,上海市闵行区莘北路52-～54号附近,杰宝大王电动车,杰宝大王
2019-11-26,31.363235308599013,121.3787139408738,上海市宝山区宝安公路1646号,杰宝大王电动车(刘专卖店),杰宝大王
2019-11-26,21.6930052899694,108.360418838298,青昆路79号,杰宝大王电动车,杰宝大王
2019-11-26,31.11858679219149,121.4289778082266,上海市闵行区春申路1894号,杰宝大王电动车,杰宝大王
2019-11-26,31.246829520612614,121.22879269354944,上海市青浦区徐谢村191号,杰宝大王电动车,杰宝大王
2019-11-26,31.09531845538887,121.4279857653152,上海市闵行区金都路1526号附近,杰宝大王电动车,杰宝大王
2019-11-26,21.6930052899694,108.360418838298,嘉松北路470号,杰宝大王电动车,杰宝大王
2019-11-26,31.164345777325774,121.42518490814302,上海市徐汇区钦州南路618-2号,杰宝大王电动车(钦州南路店),杰宝大王
2019-11-26,31.206313134742597,121.51349859662618,上海市浦东新区东三街路与南码头路交叉口南50米,杰宝大王电动车,杰宝大王
2019-11-26,21.6930052899694,108.360418838298,川沙新镇川南奉公路551-4号,杰宝大王电动车,杰宝大王
2019-11-26,21.6930052899694,108.360418838298,鼓浪路251-253号,杰宝大王电动车(泗泾专卖店),杰宝大王
2019-11-26,21.6930052899694,108.360418838298,外青松公路3068号附近,杰宝大王电动车,杰宝大王
2019-11-26,30.837845361524174,121.43524530822737,上海市奉贤区华苑西区东255号,杰宝大王电动车,杰宝大王
2019-11-26,21.6930052899694,108.360418838298,温宿路33号,杰宝大王电动车(嘉定北大街店),杰宝大王
2019-11-26,30.886034103715726,121.3259749768409,上海市金山区亭林上海仙亭洗浴休闲中心西,杰宝大王电动车,杰宝大王
2019-11-26,21.60395969269747,107.50847936749898,马桥西街与新街交叉口西北50米,杰宝大王电动车,杰宝大王
2019-11-26,21.6930052899694,108.360418838298,新书路与老芦公路交叉口南50米,杰宝大王电动车,杰宝大王
2019-11-26,31.30579198295604,121.42223010913413,上海市宝山区沪太支路1470号,杰宝大王电动车,杰宝大王
2019-11-26,21.6930052899694,108.360418838298,盐朝公路791-1号附近,杰宝大王电动车,杰宝大王
2019-11-26,31.27840400712856,121.47816745669803,上海市虹口区水电路57号,上海杰宝大王电动车(水电路店),杰宝大王
2019-11-26,31.259142599217327,121.4217509987887,上海市普陀区铜川路318号,杰宝大王电动车,杰宝大王
2019-11-26,31.206180875257484,121.62140897431804,上海市浦东新区紫薇路159号(紫薇公园附近),杰宝大王电动车(紫薇路店),杰宝大王
2019-11-26,31.212810369259635,121.66259965508772,上海市浦东新区唐兴路466一468号,杰宝大王电动车(唐镇店),杰宝大王
2019-11-26,31.201564308364905,121.23831443281946,上海市青浦区北青公路4639号附近,杰宝大王电动车,杰宝大王
2019-11-26,31.27429342628433,121.61609259929293,上海市浦东新区金高路1768号,杰宝大王电动车(佳乐路店),杰宝大王
2019-11-26,31.389174433905772,121.36992721762968,上海市宝山区富锦路5302号临附近,杰宝大王电动车(南东路),杰宝大王
2019-11-26,31.299758830810557,121.31637907975609,上海市嘉定区德华路512号,杰宝大王电动车,杰宝大王
2019-11-26,31.103563846552444,121.39983730568656,上海市闵行区都市路4461,杰宝大王电动车(都市路店),杰宝大王
2019-11-26,21.6930052899694,108.360418838298,顾太路99号,杰宝大王电动车(宝山专卖店),杰宝大王
2019-11-26,31.03278429420568,121.40170021614469,上海市闵行区银春路1845号,杰宝大王电动车专卖(银春路店),杰宝大王
2019-11-26,31.198491533638062,121.55773019246244,上海市浦东新区芳草路26号,杰宝大王电动车,杰宝大王
2019-11-26,31.557316870159653,121.63719220212835,上海市崇明区X537(陈彷公路),杰宝大王电动车,杰宝大王
2019-11-26,21.6930052899694,108.360418838298,沪宜公路3183号,杰宝大王电动车,杰宝大王
2019-11-26,21.6930052899694,108.360418838298,盛夏路1131号,杰宝大王电动车,杰宝大王
2019-11-26,21.6930052899694,108.360418838298,浦江镇三鲁公路2552号,杰宝大王电动车,杰宝大王
2019-11-26,31.164502632609736,121.12723359632172,上海市青浦区盈港路189号,杰宝大王电动车(青浦宝岛旗舰店),杰宝大王
2019-11-26,31.18255851933746,121.56896796205328,上海市浦东新区莲溪路796号附近,杰宝大王电动车,杰宝大王
2019-11-26,21.6930052899694,108.360418838298,密云路430-2号,杰宝大王电动车(密云路店),杰宝大王
2019-11-26,31.094389067334433,121.48872725715435,上海市闵行区浦江镇陈行公路3978号,宝杰·大王电动车小杨车行,杰宝大王
2019-11-26,21.6930052899694,108.360418838298,益文路与虹梅南路交叉口南50米,杰宝大王电动车天龙车行,杰宝大王
2019-11-26,21.6930052899694,108.360418838298,涞坊路357,杰宝大王电动车,杰宝大王
2019-11-26,22.085715952405135,107.7561136304029,宣桥镇宣春路光明村731号,杰宝大王电动车,杰宝大王
2019-11-26,21.6930052899694,108.360418838298,广富林路1238号,杰宝大王电动车,杰宝大王
2019-11-26,21.6930052899694,108.360418838298,沪宜公路2446号,杰宝大王电动车大名车行(电动车大卖场),杰宝大王
2019-11-26,21.6930052899694,108.360418838298,中华美路3号附近,杰宝大王电动车(中华美路店),杰宝大王
2019-11-26,31.295159693044603,121.35160708522864,上海市普陀区白丽路695号,杰宝·大王电动车(桃浦店),杰宝大王
2019-11-26,31.084920664059606,121.44767775228203,上海市闵行区虹梅南路3888号北二区8号,杰宝大王电动车专卖专修店,杰宝大王
2019-11-26,31.182542449443698,121.56898716782509,上海市浦东新区莲溪路798号附近,杰宝大王电动车,杰宝大王
2019-11-26,21.6930052899694,108.360418838298,解放西路605号附近,杰宝大王电动车,杰宝大王
2019-11-26,21.6930052899694,108.360418838298,安丰路与纪鹤公路交叉口西北50米,杰宝大王电动车,杰宝大王
2019-11-26,31.121727826895356,121.70029873462829,上海市浦东新区六灶镇周祝公路2236号,杰宝大王电动车(六灶店),杰宝大王
2019-11-26,21.6930052899694,108.360418838298,真华路1608号-2层,杰宝大王电动车(真华路),杰宝大王
2019-11-26,21.6930052899694,108.360418838298,淞宝路785号附近,杰宝大王电动车,杰宝大王
2019-11-26,21.6930052899694,108.360418838298,唐山路与安国路交叉口北50米,杰宝大王,杰宝大王
2019-11-26,31.3801553396772,121.27259505835202,上海市嘉定区方泰方中路87号,杰宝大王电动车(方泰店),杰宝大王
2019-11-26,31.21633432399824,121.67410529039856,上海市浦东新区顾唐路2900弄-71号附近,杰宝大王电动车,杰宝大王
2019-11-26,31.295539875370526,121.500463744405,上海市虹口区伊敏河路119号,杰宝大王电动车,杰宝大王
2019-11-26,31.250432612824916,121.58785332624731,浦东新区银山路262号,杰宝大王电动车,杰宝大王
2019-11-26,21.6930052899694,108.360418838298,浦驰路138号附近,发奋商贸公司杰宝大王电动车,杰宝大王
2019-11-26,31.090822987565375,121.76926398512194,上海市浦东新区川南奉公路5729号隔壁,杰宝大王电动车(盐仓店),杰宝大王
2019-11-26,21.6930052899694,108.360418838298,平南路714-1临附近,杰宝大王,杰宝大王
2019-11-26,31.105211041100443,121.35996497089688,上海市松江区春九路858~862附近,杰宝大王电动车(春九路店),杰宝大王
2019-11-26,31.155349500142197,121.573877136089,上海市浦东新区康桥镇康桥路1055号,杰宝大王电动车康桥专卖,杰宝大王
2019-11-26,21.6930052899694,108.360418838298,万安路455号(江湾镇),杰宝大王电动车,杰宝大王
2019-11-26,21.6930052899694,108.360418838298,大同路670-672号,杰宝大王电动车(高桥专卖店),杰宝大王
2019-11-26,31.32713960421464,121.44113939250899,上海市静安区共康路552号,杰宝大王电动车兰英车行,杰宝大王
2019-11-26,31.234408665122505,121.69409334257219,上海市浦东新区川沙路3021号附近,杰宝大王电动车胜夏车行,杰宝大王
2019-11-26,21.6930052899694,108.360418838298,罗城路486号,杰宝大王电动车,杰宝大王
2019-11-26,31.158237867038434,121.51369025998808,上海市浦东新区杨南路1009-1011号,杰宝大王电动车(杨南路),杰宝大王
2019-11-26,21.6930052899694,108.360418838298,马陆镇戬浜大治路398号,杰宝大王电动车(戬浜店),杰宝大王
2019-11-26,31.354370543088447,121.15542978933,上海市嘉定区园丁路6号附近,杰宝大王电动车(园丁路店),杰宝大王
2019-11-26,31.17428231378221,121.52590008597126,上海市浦东新区杨高南路3300临,杰宝大王电动车(320村道),杰宝大王
2019-11-26,31.030127516011135,121.78223825741613,上海市浦东新区川南奉公路6196号,杰宝大王电动车(幸福新街),杰宝大王
2019-11-26,21.6930052899694,108.360418838298,嘉松中路157号,新大洲&杰宝大王电动车,杰宝大王
2019-11-26,31.265244800077543,121.69348943423547,上海市浦东新区龚华路496号,杰宝大王专卖店(诚信车行),杰宝大王
2019-11-26,23.110146001635474,114.42238500924715,北翟路2942号附近,杰宝大王电动车,杰宝大王
2019-11-26,31.082393550474634,121.40615283269311,颛桥镇贵都路355号,杰宝大王电动车,杰宝大王
2019-11-26,31.25095289571086,121.61466395756581,金桥经济技术开发区唐陆公路600号,杰宝大王电动车,杰宝大王
2019-11-26,31.415563340291023,121.19610356714313,工业区宝钱公路3725号,杰宝大王电动车,杰宝大王
2019-11-26,31.11728891518466,121.40160666391395,莘庄镇莘朱路675号,杰宝大王电动车,杰宝大王
2019-11-26,23.110146001635474,114.42238500924715,外青松公路3068号附近,杰宝大王电动车,杰宝大王
2019-11-26,33.39701219464644,120.50143633907021,川沙新镇川南奉公路551-4号,杰宝大王电动车,杰宝大王
2019-11-26,30.80988440101722,121.3412045789654,马桥西街与新街交叉口西北50米,杰宝大王电动车,杰宝大王
2019-11-26,23.110146001635474,114.42238500924715,盐朝公路791-1号附近,杰宝大王电动车,杰宝大王
2019-11-26,31.072872253044494,121.53271491184127,浦江镇三鲁公路2552号,杰宝大王电动车,杰宝大王
2019-11-26,23.110146001635474,114.42238500924715,淞宝路785号附近,杰宝大王电动车,杰宝大王
2019-11-26,30.81192463137281,121.23273311066896,宣桥镇宣春路光明村731号,杰宝大王电动车,杰宝大王
2019-11-26,23.110146001635474,114.42238500924715,老芦公路834号附近,杰宝大王电动车(丽正路),杰宝大王
2019-11-26,31.420432374214318,121.27893510370916,徐行镇新建一路2118号,杰宝大王电动车,杰宝大王
2019-11-26,23.110146001635474,114.42238500924715,解放西路605号附近,杰宝大王电动车,杰宝大王
2019-11-26,28.37602399096346,118.50273180552071,万安路455号(江湾镇),杰宝大王电动车,杰宝大王
2019-11-26,23.110146001635474,114.42238500924715,浦驰路138号附近,发奋商贸公司杰宝大王电动车,杰宝大王
2019-11-26,31.383280791407607,121.30661631433806,马陆镇戬浜大治路398号,杰宝大王电动车(戬浜店),杰宝大王
2019-11-26,27.29021508342595,105.2985887950112,中山西路668号,杰宝大王电动车(中山西路店),杰宝大王
2019-11-26,27.29021508342595,105.2985887950112,北翟路2942号附近,杰宝大王电动车,杰宝大王
2019-11-26,27.29021508342595,105.2985887950112,颛桥镇贵都路355号,杰宝大王电动车,杰宝大王
2019-11-26,27.29021508342595,105.2985887950112,金桥经济技术开发区唐陆公路600号,杰宝大王电动车,杰宝大王
2019-11-26,27.29021508342595,105.2985887950112,嘉行公路2969号,杰宝大王电动车,杰宝大王
2019-11-26,27.29021508342595,105.2985887950112,莘庄镇莘朱路675号,杰宝大王电动车,杰宝大王
2019-11-26,27.29021508342595,105.2985887950112,工业区宝钱公路3725号,杰宝大王电动车,杰宝大王
2019-11-26,27.29021508342595,105.2985887950112,闸航路2503,杰宝大王电动车,杰宝大王
2019-11-26,27.29021508342595,105.2985887950112,青昆路79号,杰宝大王电动车,杰宝大王
2019-11-26,27.29021508342595,105.2985887950112,嘉松北路470号,杰宝大王电动车,杰宝大王
2019-11-26,27.29021508342595,105.2985887950112,外青松公路3068号附近,杰宝大王电动车,杰宝大王
2019-11-26,27.29021508342595,105.2985887950112,鼓浪路251-253号,杰宝大王电动车(泗泾专卖店),杰宝大王
2019-11-26,27.29021508342595,105.2985887950112,川沙新镇川南奉公路551-4号,杰宝大王电动车,杰宝大王
2019-11-26,27.369990460556547,106.25116105461707,马桥西街与新街交叉口西北50米,杰宝大王电动车,杰宝大王
2019-11-26,27.29021508342595,105.2985887950112,盐朝公路791-1号附近,杰宝大王电动车,杰宝大王
2019-11-26,27.29021508342595,105.2985887950112,新书路与老芦公路交叉口南50米,杰宝大王电动车,杰宝大王
2019-11-26,27.29021508342595,105.2985887950112,浦江镇三鲁公路2552号,杰宝大王电动车,杰宝大王
2019-11-26,27.29021508342595,105.2985887950112,沪宜公路3183号,杰宝大王电动车,杰宝大王
2019-11-26,27.29021508342595,105.2985887950112,温宿路33号,杰宝大王电动车(嘉定北大街店),杰宝大王
2019-11-26,27.29021508342595,105.2985887950112,顾太路99号,杰宝大王电动车(宝山专卖店),杰宝大王
2019-11-26,27.29021508342595,105.2985887950112,周家嘴路3322号,杰宝大王电动车,杰宝大王
2019-11-26,27.29021508342595,105.2985887950112,庄良路111弄2,杰宝大王电动车(步韵路),杰宝大王
2019-11-26,27.29021508342595,105.2985887950112,盛夏路1131号,杰宝大王电动车,杰宝大王
2019-11-26,27.29021508342595,105.2985887950112,益文路与虹梅南路交叉口南50米,杰宝大王电动车天龙车行,杰宝大王
2019-11-26,27.29021508342595,105.2985887950112,涞坊路357,杰宝大王电动车,杰宝大王
2019-11-26,27.29021508342595,105.2985887950112,密云路430-2号,杰宝大王电动车(密云路店),杰宝大王
2019-11-26,27.51885969080095,105.82485416090552,宣桥镇宣春路光明村731号,杰宝大王电动车,杰宝大王
2019-11-26,27.29021508342595,105.2985887950112,真华路1608号-2层,杰宝大王电动车(真华路),杰宝大王
2019-11-26,27.29021508342595,105.2985887950112,广富林路1238号,杰宝大王电动车,杰宝大王
2019-11-26,27.29021508342595,105.2985887950112,淞宝路785号附近,杰宝大王电动车,杰宝大王
2019-11-26,27.29021508342595,105.2985887950112,大同路670-672号,杰宝大王电动车(高桥专卖店),杰宝大王
2019-11-26,27.29021508342595,105.2985887950112,沪宜公路2446号,杰宝大王电动车大名车行(电动车大卖场),杰宝大王
2019-11-26,27.29021508342595,105.2985887950112,老芦公路834号附近,杰宝大王电动车(丽正路),杰宝大王
2019-11-26,27.12686716979362,104.72682067799899,解放西路605号附近,杰宝大王电动车,杰宝大王
2019-11-26,27.29021508342595,105.2985887950112,浦驰路138号附近,发奋商贸公司杰宝大王电动车,杰宝大王
2019-11-26,27.29021508342595,105.2985887950112,安丰路与纪鹤公路交叉口西北50米,杰宝大王电动车,杰宝大王
2019-11-26,27.29021508342595,105.2985887950112,徐行镇新建一路2118号,杰宝大王电动车,杰宝大王
2019-11-26,27.29021508342595,105.2985887950112,万安路455号(江湾镇),杰宝大王电动车,杰宝大王
2019-11-26,27.29021508342595,105.2985887950112,罗城路486号,杰宝大王电动车,杰宝大王
2019-11-26,27.29021508342595,105.2985887950112,西林北路335号,杰宝大王电动车(西林北路),杰宝大王
2019-11-26,27.29021508342595,105.2985887950112,平南路714-1临附近,杰宝大王,杰宝大王
2019-11-26,27.29021508342595,105.2985887950112,马陆镇戬浜大治路398号,杰宝大王电动车(戬浜店),杰宝大王
2019-11-26,27.29021508342595,105.2985887950112,唐山路与安国路交叉口北50米,杰宝大王,杰宝大王
2019-11-26,27.29021508342595,105.2985887950112,嘉松中路157号,新大洲&杰宝大王电动车,杰宝大王
2019-11-26,40.95785601233803,117.96939750996681,中山西路668号,杰宝大王电动车(中山西路店),杰宝大王
2019-11-26,40.95785601233803,117.96939750996681,颛桥镇贵都路355号,杰宝大王电动车,杰宝大王
2019-11-26,40.95785601233803,117.96939750996681,北翟路2942号附近,杰宝大王电动车,杰宝大王
2019-11-26,40.95785601233803,117.96939750996681,金桥经济技术开发区唐陆公路600号,杰宝大王电动车,杰宝大王
2019-11-26,40.95785601233803,117.96939750996681,嘉行公路2969号,杰宝大王电动车,杰宝大王
2019-11-26,40.95785601233803,117.96939750996681,莘庄镇莘朱路675号,杰宝大王电动车,杰宝大王
2019-11-26,40.95785601233803,117.96939750996681,闸航路2503,杰宝大王电动车,杰宝大王
2019-11-26,40.95785601233803,117.96939750996681,工业区宝钱公路3725号,杰宝大王电动车,杰宝大王
2019-11-26,40.95785601233803,117.96939750996681,青昆路79号,杰宝大王电动车,杰宝大王
2019-11-26,40.95785601233803,117.96939750996681,嘉松北路470号,杰宝大王电动车,杰宝大王
2019-11-26,40.95785601233803,117.96939750996681,外青松公路3068号附近,杰宝大王电动车,杰宝大王
2019-11-26,40.95785601233803,117.96939750996681,川沙新镇川南奉公路551-4号,杰宝大王电动车,杰宝大王
2019-11-26,40.95785601233803,117.96939750996681,鼓浪路251-253号,杰宝大王电动车(泗泾专卖店),杰宝大王
2019-11-26,40.95785601233803,117.96939750996681,马桥西街与新街交叉口西北50米,杰宝大王电动车,杰宝大王
2019-11-26,40.95785601233803,117.96939750996681,盐朝公路791-1号附近,杰宝大王电动车,杰宝大王
2019-11-26,40.95785601233803,117.96939750996681,新书路与老芦公路交叉口南50米,杰宝大王电动车,杰宝大王
2019-11-26,40.95785601233803,117.96939750996681,浦江镇三鲁公路2552号,杰宝大王电动车,杰宝大王
2019-11-26,40.95785601233803,117.96939750996681,温宿路33号,杰宝大王电动车(嘉定北大街店),杰宝大王
2019-11-26,40.95785601233803,117.96939750996681,顾太路99号,杰宝大王电动车(宝山专卖店),杰宝大王
2019-11-26,40.95785601233803,117.96939750996681,沪宜公路3183号,杰宝大王电动车,杰宝大王
2019-11-26,40.95785601233803,117.96939750996681,周家嘴路3322号,杰宝大王电动车,杰宝大王
2019-11-26,40.95785601233803,117.96939750996681,盛夏路1131号,杰宝大王电动车,杰宝大王
2019-11-26,40.95785601233803,117.96939750996681,庄良路111弄2,杰宝大王电动车(步韵路),杰宝大王
2019-11-26,40.95785601233803,117.96939750996681,涞坊路357,杰宝大王电动车,杰宝大王
2019-11-26,40.95785601233803,117.96939750996681,宣桥镇宣春路光明村731号,杰宝大王电动车,杰宝大王
2019-11-26,40.95785601233803,117.96939750996681,密云路430-2号,杰宝大王电动车(密云路店),杰宝大王
2019-11-26,40.95785601233803,117.96939750996681,淞宝路785号附近,杰宝大王电动车,杰宝大王
2019-11-26,40.95785601233803,117.96939750996681,广富林路1238号,杰宝大王电动车,杰宝大王
2019-11-26,40.95785601233803,117.96939750996681,益文路与虹梅南路交叉口南50米,杰宝大王电动车天龙车行,杰宝大王
2019-11-26,40.95785601233803,117.96939750996681,沪宜公路2446号,杰宝大王电动车大名车行(电动车大卖场),杰宝大王
2019-11-26,40.95785601233803,117.96939750996681,真华路1608号-2层,杰宝大王电动车(真华路),杰宝大王
2019-11-26,40.95785601233803,117.96939750996681,解放西路605号附近,杰宝大王电动车,杰宝大王
2019-11-26,40.95785601233803,117.96939750996681,安丰路与纪鹤公路交叉口西北50米,杰宝大王电动车,杰宝大王
2019-11-26,40.95785601233803,117.96939750996681,大同路670-672号,杰宝大王电动车(高桥专卖店),杰宝大王
2019-11-26,40.95785601233803,117.96939750996681,老芦公路834号附近,杰宝大王电动车(丽正路),杰宝大王
2019-11-26,40.95785601233803,117.96939750996681,徐行镇新建一路2118号,杰宝大王电动车,杰宝大王
2019-11-26,40.95785601233803,117.96939750996681,万安路455号(江湾镇),杰宝大王电动车,杰宝大王
2019-11-26,40.95785601233803,117.96939750996681,浦驰路138号附近,发奋商贸公司杰宝大王电动车,杰宝大王
2019-11-26,40.95785601233803,117.96939750996681,罗城路486号,杰宝大王电动车,杰宝大王
2019-11-26,40.95785601233803,117.96939750996681,平南路714-1临附近,杰宝大王,杰宝大王
2019-11-26,40.95785601233803,117.96939750996681,唐山路与安国路交叉口北50米,杰宝大王,杰宝大王
2019-11-26,40.95785601233803,117.96939750996681,西林北路335号,杰宝大王电动车(西林北路),杰宝大王
2019-11-26,40.95785601233803,117.96939750996681,马陆镇戬浜大治路398号,杰宝大王电动车(戬浜店),杰宝大王
2019-11-26,40.95785601233803,117.96939750996681,嘉松中路157号,新大洲&杰宝大王电动车,杰宝大王
2019-11-26,37.745191408077424,115.6754061376161,中山西路668号,杰宝大王电动车(中山西路店),杰宝大王
2019-11-26,37.745191408077424,115.6754061376161,颛桥镇贵都路355号,杰宝大王电动车,杰宝大王
2019-11-26,37.745191408077424,115.6754061376161,金桥经济技术开发区唐陆公路600号,杰宝大王电动车,杰宝大王
2019-11-26,37.745191408077424,115.6754061376161,北翟路2942号附近,杰宝大王电动车,杰宝大王
2019-11-26,37.745191408077424,115.6754061376161,嘉行公路2969号,杰宝大王电动车,杰宝大王
2019-11-26,37.745191408077424,115.6754061376161,莘庄镇莘朱路675号,杰宝大王电动车,杰宝大王
2019-11-26,37.745191408077424,115.6754061376161,闸航路2503,杰宝大王电动车,杰宝大王
2019-11-26,37.745191408077424,115.6754061376161,工业区宝钱公路3725号,杰宝大王电动车,杰宝大王
2019-11-26,37.745191408077424,115.6754061376161,青昆路79号,杰宝大王电动车,杰宝大王
2019-11-26,37.745191408077424,115.6754061376161,嘉松北路470号,杰宝大王电动车,杰宝大王
2019-11-26,37.745191408077424,115.6754061376161,外青松公路3068号附近,杰宝大王电动车,杰宝大王
2019-11-26,37.745191408077424,115.6754061376161,川沙新镇川南奉公路551-4号,杰宝大王电动车,杰宝大王
2019-11-26,37.745191408077424,115.6754061376161,马桥西街与新街交叉口西北50米,杰宝大王电动车,杰宝大王
2019-11-26,37.745191408077424,115.6754061376161,新书路与老芦公路交叉口南50米,杰宝大王电动车,杰宝大王
2019-11-26,37.745191408077424,115.6754061376161,盐朝公路791-1号附近,杰宝大王电动车,杰宝大王
2019-11-26,37.745191408077424,115.6754061376161,鼓浪路251-253号,杰宝大王电动车(泗泾专卖店),杰宝大王
2019-11-26,37.745191408077424,115.6754061376161,沪宜公路3183号,杰宝大王电动车,杰宝大王
2019-11-26,37.745191408077424,115.6754061376161,温宿路33号,杰宝大王电动车(嘉定北大街店),杰宝大王
2019-11-26,37.745191408077424,115.6754061376161,浦江镇三鲁公路2552号,杰宝大王电动车,杰宝大王
2019-11-26,37.745191408077424,115.6754061376161,盛夏路1131号,杰宝大王电动车,杰宝大王
2019-11-26,37.745191408077424,115.6754061376161,涞坊路357,杰宝大王电动车,杰宝大王
2019-11-26,37.745191408077424,115.6754061376161,密云路430-2号,杰宝大王电动车(密云路店),杰宝大王
2019-11-26,37.745191408077424,115.6754061376161,淞宝路785号附近,杰宝大王电动车,杰宝大王
2019-11-26,37.745191408077424,115.6754061376161,广富林路1238号,杰宝大王电动车,杰宝大王
2019-11-26,37.85467694405079,116.02026634154103,宣桥镇宣春路光明村731号,杰宝大王电动车,杰宝大王
2019-11-26,37.745191408077424,115.6754061376161,益文路与虹梅南路交叉口南50米,杰宝大王电动车天龙车行,杰宝大王
2019-11-26,37.745191408077424,115.6754061376161,沪宜公路2446号,杰宝大王电动车大名车行(电动车大卖场),杰宝大王
2019-11-26,37.745191408077424,115.6754061376161,解放西路605号附近,杰宝大王电动车,杰宝大王
2019-11-26,37.745191408077424,115.6754061376161,唐山路与安国路交叉口北50米,杰宝大王,杰宝大王
2019-11-26,37.745191408077424,115.6754061376161,安丰路与纪鹤公路交叉口西北50米,杰宝大王电动车,杰宝大王
2019-11-26,37.745191408077424,115.6754061376161,真华路1608号-2层,杰宝大王电动车(真华路),杰宝大王
2019-11-26,37.745191408077424,115.6754061376161,平南路714-1临附近,杰宝大王,杰宝大王
2019-11-26,37.745191408077424,115.6754061376161,万安路455号(江湾镇),杰宝大王电动车,杰宝大王
2019-11-26,37.745191408077424,115.6754061376161,浦驰路138号附近,发奋商贸公司杰宝大王电动车,杰宝大王
2019-11-26,37.745191408077424,115.6754061376161,罗城路486号,杰宝大王电动车,杰宝大王
2019-11-26,31.387912488862213,121.15774325659463,上海市嘉定区宝钱公路5000弄52号-4,杰宝大王 电动车,杰宝大王
2019-11-26,37.745191408077424,115.6754061376161,马陆镇戬浜大治路398号,杰宝大王电动车(戬浜店),杰宝大王
2019-11-26,31.636334149182694,121.41173544301371,上海市崇明区东门路458号,杰宝大王电动车(崇明旗舰店),杰宝大王
2019-11-26,37.745191408077424,115.6754061376161,嘉松中路157号,新大洲&杰宝大王电动车,杰宝大王
2019-11-26,35.76759302890629,115.03559747034215,中山西路668号,杰宝大王电动车(中山西路店),杰宝大王
2019-11-26,35.76759302890629,115.03559747034215,北翟路2942号附近,杰宝大王电动车,杰宝大王
2019-11-26,35.76759302890629,115.03559747034215,颛桥镇贵都路355号,杰宝大王电动车,杰宝大王
2019-11-26,35.76759302890629,115.03559747034215,金桥经济技术开发区唐陆公路600号,杰宝大王电动车,杰宝大王
2019-11-26,35.76759302890629,115.03559747034215,嘉行公路2969号,杰宝大王电动车,杰宝大王
2019-11-26,35.76759302890629,115.03559747034215,莘庄镇莘朱路675号,杰宝大王电动车,杰宝大王
2019-11-26,35.76759302890629,115.03559747034215,闸航路2503,杰宝大王电动车,杰宝大王
2019-11-26,35.76759302890629,115.03559747034215,工业区宝钱公路3725号,杰宝大王电动车,杰宝大王
2019-11-26,35.76759302890629,115.03559747034215,青昆路79号,杰宝大王电动车,杰宝大王
2019-11-26,35.76759302890629,115.03559747034215,嘉松北路470号,杰宝大王电动车,杰宝大王
2019-11-26,35.76759302890629,115.03559747034215,外青松公路3068号附近,杰宝大王电动车,杰宝大王
2019-11-26,35.76759302890629,115.03559747034215,川沙新镇川南奉公路551-4号,杰宝大王电动车,杰宝大王
2019-11-26,35.76759302890629,115.03559747034215,马桥西街与新街交叉口西北50米,杰宝大王电动车,杰宝大王
2019-11-26,35.76759302890629,115.03559747034215,鼓浪路251-253号,杰宝大王电动车(泗泾专卖店),杰宝大王
2019-11-26,35.76759302890629,115.03559747034215,盐朝公路791-1号附近,杰宝大王电动车,杰宝大王
2019-11-26,35.76759302890629,115.03559747034215,新书路与老芦公路交叉口南50米,杰宝大王电动车,杰宝大王
2019-11-26,35.76759302890629,115.03559747034215,浦江镇三鲁公路2552号,杰宝大王电动车,杰宝大王
2019-11-26,35.76759302890629,115.03559747034215,温宿路33号,杰宝大王电动车(嘉定北大街店),杰宝大王
2019-11-26,35.76759302890629,115.03559747034215,顾太路99号,杰宝大王电动车(宝山专卖店),杰宝大王
2019-11-26,35.76759302890629,115.03559747034215,沪宜公路3183号,杰宝大王电动车,杰宝大王
2019-11-26,35.76759302890629,115.03559747034215,周家嘴路3322号,杰宝大王电动车,杰宝大王
2019-11-26,35.76759302890629,115.03559747034215,盛夏路1131号,杰宝大王电动车,杰宝大王
2019-11-26,35.76759302890629,115.03559747034215,庄良路111弄2,杰宝大王电动车(步韵路),杰宝大王
2019-11-26,35.76759302890629,115.03559747034215,涞坊路357,杰宝大王电动车,杰宝大王
2019-11-26,35.76759302890629,115.03559747034215,宣桥镇宣春路光明村731号,杰宝大王电动车,杰宝大王
2019-11-26,35.76759302890629,115.03559747034215,密云路430-2号,杰宝大王电动车(密云路店),杰宝大王
2019-11-26,35.76759302890629,115.03559747034215,淞宝路785号附近,杰宝大王电动车,杰宝大王
2019-11-26,35.76759302890629,115.03559747034215,广富林路1238号,杰宝大王电动车,杰宝大王
2019-11-26,35.76759302890629,115.03559747034215,益文路与虹梅南路交叉口南50米,杰宝大王电动车天龙车行,杰宝大王
2019-11-26,35.76759302890629,115.03559747034215,沪宜公路2446号,杰宝大王电动车大名车行(电动车大卖场),杰宝大王
2019-11-26,35.76759302890629,115.03559747034215,真华路1608号-2层,杰宝大王电动车(真华路),杰宝大王
2019-11-26,35.76759302890629,115.03559747034215,大同路670-672号,杰宝大王电动车(高桥专卖店),杰宝大王
2019-11-26,35.76759302890629,115.03559747034215,解放西路605号附近,杰宝大王电动车,杰宝大王
2019-11-26,35.76759302890629,115.03559747034215,安丰路与纪鹤公路交叉口西北50米,杰宝大王电动车,杰宝大王
2019-11-26,35.76759302890629,115.03559747034215,老芦公路834号附近,杰宝大王电动车(丽正路),杰宝大王
2019-11-26,35.76759302890629,115.03559747034215,万安路455号(江湾镇),杰宝大王电动车,杰宝大王
2019-11-26,35.76759302890629,115.03559747034215,徐行镇新建一路2118号,杰宝大王电动车,杰宝大王
2019-11-26,35.76759302890629,115.03559747034215,浦驰路138号附近,发奋商贸公司杰宝大王电动车,杰宝大王
2019-11-26,35.76759302890629,115.03559747034215,罗城路486号,杰宝大王电动车,杰宝大王
2019-11-26,35.76759302890629,115.03559747034215,平南路714-1临附近,杰宝大王,杰宝大王
2019-11-26,35.76759302890629,115.03559747034215,唐山路与安国路交叉口北50米,杰宝大王,杰宝大王
2019-11-26,35.76759302890629,115.03559747034215,西林北路335号,杰宝大王电动车(西林北路),杰宝大王
2019-11-26,35.76759302890629,115.03559747034215,马陆镇戬浜大治路398号,杰宝大王电动车(戬浜店),杰宝大王
2019-11-26,35.76759302890629,115.03559747034215,嘉松中路157号,新大洲&杰宝大王电动车,杰宝大王
2019-11-26,34.830101545858994,114.81957862062735,中山西路668号,杰宝大王电动车(中山西路店),杰宝大王
2019-11-26,34.80288581121172,114.31459258497121,颛桥镇贵都路355号,杰宝大王电动车,杰宝大王
2019-11-26,34.80288581121172,114.31459258497121,金桥经济技术开发区唐陆公路600号,杰宝大王电动车,杰宝大王
2019-11-26,34.80288581121172,114.31459258497121,北翟路2942号附近,杰宝大王电动车,杰宝大王
2019-11-26,34.80288581121172,114.31459258497121,嘉行公路2969号,杰宝大王电动车,杰宝大王
2019-11-26,34.80288581121172,114.31459258497121,莘庄镇莘朱路675号,杰宝大王电动车,杰宝大王
2019-11-26,34.80288581121172,114.31459258497121,闸航路2503,杰宝大王电动车,杰宝大王
2019-11-26,34.80288581121172,114.31459258497121,工业区宝钱公路3725号,杰宝大王电动车,杰宝大王
2019-11-26,34.80288581121172,114.31459258497121,青昆路79号,杰宝大王电动车,杰宝大王
2019-11-26,34.80288581121172,114.31459258497121,嘉松北路470号,杰宝大王电动车,杰宝大王
2019-11-26,34.80288581121172,114.31459258497121,外青松公路3068号附近,杰宝大王电动车,杰宝大王
2019-11-26,34.80288581121172,114.31459258497121,川沙新镇川南奉公路551-4号,杰宝大王电动车,杰宝大王
2019-11-26,34.80288581121172,114.31459258497121,鼓浪路251-253号,杰宝大王电动车(泗泾专卖店),杰宝大王
2019-11-26,34.80288581121172,114.31459258497121,马桥西街与新街交叉口西北50米,杰宝大王电动车,杰宝大王
2019-11-26,34.80288581121172,114.31459258497121,盐朝公路791-1号附近,杰宝大王电动车,杰宝大王
2019-11-26,34.80288581121172,114.31459258497121,新书路与老芦公路交叉口南50米,杰宝大王电动车,杰宝大王
2019-11-26,34.80288581121172,114.31459258497121,浦江镇三鲁公路2552号,杰宝大王电动车,杰宝大王
2019-11-26,34.80288581121172,114.31459258497121,温宿路33号,杰宝大王电动车(嘉定北大街店),杰宝大王
2019-11-26,34.80288581121172,114.31459258497121,顾太路99号,杰宝大王电动车(宝山专卖店),杰宝大王
2019-11-26,34.80288581121172,114.31459258497121,沪宜公路3183号,杰宝大王电动车,杰宝大王
2019-11-26,34.80288581121172,114.31459258497121,周家嘴路3322号,杰宝大王电动车,杰宝大王
2019-11-26,34.80288581121172,114.31459258497121,庄良路111弄2,杰宝大王电动车(步韵路),杰宝大王
2019-11-26,34.80288581121172,114.31459258497121,盛夏路1131号,杰宝大王电动车,杰宝大王
2019-11-26,34.80288581121172,114.31459258497121,涞坊路357,杰宝大王电动车,杰宝大王
2019-11-26,34.80288581121172,114.31459258497121,宣桥镇宣春路光明村731号,杰宝大王电动车,杰宝大王
2019-11-26,34.80288581121172,114.31459258497121,密云路430-2号,杰宝大王电动车(密云路店),杰宝大王
2019-11-26,34.80288581121172,114.31459258497121,淞宝路785号附近,杰宝大王电动车,杰宝大王
2019-11-26,34.80288581121172,114.31459258497121,广富林路1238号,杰宝大王电动车,杰宝大王
2019-11-26,34.80288581121172,114.31459258497121,益文路与虹梅南路交叉口南50米,杰宝大王电动车天龙车行,杰宝大王
2019-11-26,34.80288581121172,114.31459258497121,沪宜公路2446号,杰宝大王电动车大名车行(电动车大卖场),杰宝大王
2019-11-26,34.80288581121172,114.31459258497121,真华路1608号-2层,杰宝大王电动车(真华路),杰宝大王
2019-11-26,34.80288581121172,114.31459258497121,大同路670-672号,杰宝大王电动车(高桥专卖店),杰宝大王
2019-11-26,34.80288581121172,114.31459258497121,安丰路与纪鹤公路交叉口西北50米,杰宝大王电动车,杰宝大王
2019-11-26,34.80288581121172,114.31459258497121,老芦公路834号附近,杰宝大王电动车(丽正路),杰宝大王
2019-11-26,34.80288581121172,114.31459258497121,解放西路605号附近,杰宝大王电动车,杰宝大王
2019-11-26,34.80288581121172,114.31459258497121,万安路455号(江湾镇),杰宝大王电动车,杰宝大王
2019-11-26,34.80288581121172,114.31459258497121,徐行镇新建一路2118号,杰宝大王电动车,杰宝大王
2019-11-26,34.80288581121172,114.31459258497121,浦驰路138号附近,发奋商贸公司杰宝大王电动车,杰宝大王
2019-11-26,34.80288581121172,114.31459258497121,罗城路486号,杰宝大王电动车,杰宝大王
2019-11-26,34.80288581121172,114.31459258497121,平南路714-1临附近,杰宝大王,杰宝大王
2019-11-26,34.80288581121172,114.31459258497121,唐山路与安国路交叉口北50米,杰宝大王,杰宝大王
2019-11-26,34.80288581121172,114.31459258497121,西林北路335号,杰宝大王电动车(西林北路),杰宝大王
2019-11-26,34.80288581121172,114.31459258497121,马陆镇戬浜大治路398号,杰宝大王电动车(戬浜店),杰宝大王
2019-11-26,34.80288581121172,114.31459258497121,嘉松中路157号,新大洲&杰宝大王电动车,杰宝大王
2019-11-26,35.22096325403899,113.24854783457334,中山西路668号,杰宝大王电动车(中山西路店),杰宝大王
2019-11-26,35.22096325403899,113.24854783457334,颛桥镇贵都路355号,杰宝大王电动车,杰宝大王
2019-11-26,35.22096325403899,113.24854783457334,金桥经济技术开发区唐陆公路600号,杰宝大王电动车,杰宝大王
2019-11-26,35.22096325403899,113.24854783457334,北翟路2942号附近,杰宝大王电动车,杰宝大王
2019-11-26,35.22096325403899,113.24854783457334,嘉行公路2969号,杰宝大王电动车,杰宝大王
2019-11-26,35.22096325403899,113.24854783457334,莘庄镇莘朱路675号,杰宝大王电动车,杰宝大王
2019-11-26,35.22096325403899,113.24854783457334,闸航路2503,杰宝大王电动车,杰宝大王
2019-11-26,35.22096325403899,113.24854783457334,工业区宝钱公路3725号,杰宝大王电动车,杰宝大王
2019-11-26,35.22096325403899,113.24854783457334,青昆路79号,杰宝大王电动车,杰宝大王
2019-11-26,35.22096325403899,113.24854783457334,嘉松北路470号,杰宝大王电动车,杰宝大王
2019-11-26,35.22096325403899,113.24854783457334,外青松公路3068号附近,杰宝大王电动车,杰宝大王
2019-11-26,35.22096325403899,113.24854783457334,川沙新镇川南奉公路551-4号,杰宝大王电动车,杰宝大王
2019-11-26,35.23986857984716,113.29250327063482,马桥西街与新街交叉口西北50米,杰宝大王电动车,杰宝大王
2019-11-26,35.22096325403899,113.24854783457334,新书路与老芦公路交叉口南50米,杰宝大王电动车,杰宝大王
2019-11-26,35.22096325403899,113.24854783457334,盐朝公路791-1号附近,杰宝大王电动车,杰宝大王
2019-11-26,35.22096325403899,113.24854783457334,鼓浪路251-253号,杰宝大王电动车(泗泾专卖店),杰宝大王
2019-11-26,35.22096325403899,113.24854783457334,沪宜公路3183号,杰宝大王电动车,杰宝大王
2019-11-26,35.22096325403899,113.24854783457334,温宿路33号,杰宝大王电动车(嘉定北大街店),杰宝大王
2019-11-26,35.22096325403899,113.24854783457334,浦江镇三鲁公路2552号,杰宝大王电动车,杰宝大王
2019-11-26,35.22096325403899,113.24854783457334,盛夏路1131号,杰宝大王电动车,杰宝大王
2019-11-26,35.22096325403899,113.24854783457334,涞坊路357,杰宝大王电动车,杰宝大王
2019-11-26,35.22096325403899,113.24854783457334,密云路430-2号,杰宝大王电动车(密云路店),杰宝大王
2019-11-26,35.22096325403899,113.24854783457334,淞宝路785号附近,杰宝大王电动车,杰宝大王
2019-11-26,35.22096325403899,113.24854783457334,广富林路1238号,杰宝大王电动车,杰宝大王
2019-11-26,35.22096325403899,113.24854783457334,宣桥镇宣春路光明村731号,杰宝大王电动车,杰宝大王
2019-11-26,35.22096325403899,113.24854783457334,益文路与虹梅南路交叉口南50米,杰宝大王电动车天龙车行,杰宝大王
2019-11-26,35.22096325403899,113.24854783457334,沪宜公路2446号,杰宝大王电动车大名车行(电动车大卖场),杰宝大王
2019-11-26,35.22096325403899,113.24854783457334,唐山路与安国路交叉口北50米,杰宝大王,杰宝大王
2019-11-26,35.22096325403899,113.24854783457334,真华路1608号-2层,杰宝大王电动车(真华路),杰宝大王
2019-11-26,35.240489812068716,113.1628132872094,解放西路605号附近,杰宝大王电动车,杰宝大王
2019-11-26,35.22096325403899,113.24854783457334,安丰路与纪鹤公路交叉口西北50米,杰宝大王电动车,杰宝大王
2019-11-26,35.22096325403899,113.24854783457334,万安路455号(江湾镇),杰宝大王电动车,杰宝大王
2019-11-26,35.22096325403899,113.24854783457334,平南路714-1临附近,杰宝大王,杰宝大王
2019-11-26,35.22096325403899,113.24854783457334,浦驰路138号附近,发奋商贸公司杰宝大王电动车,杰宝大王
2019-11-26,35.22096325403899,113.24854783457334,罗城路486号,杰宝大王电动车,杰宝大王
2019-11-26,35.22096325403899,113.24854783457334,马陆镇戬浜大治路398号,杰宝大王电动车(戬浜店),杰宝大王
2019-11-26,35.22096325403899,113.24854783457334,嘉松中路157号,新大洲&杰宝大王电动车,杰宝大王
2019-11-26,34.778327249459984,111.2065332238741,中山西路668号,杰宝大王电动车(中山西路店),杰宝大王
2019-11-26,34.778327249459984,111.2065332238741,北翟路2942号附近,杰宝大王电动车,杰宝大王
2019-11-26,34.778327249459984,111.2065332238741,颛桥镇贵都路355号,杰宝大王电动车,杰宝大王
2019-11-26,34.04635425593579,111.05683671911375,金桥经济技术开发区唐陆公路600号,杰宝大王电动车,杰宝大王
2019-11-26,34.778327249459984,111.2065332238741,嘉行公路2969号,杰宝大王电动车,杰宝大王
2019-11-26,34.778327249459984,111.2065332238741,莘庄镇莘朱路675号,杰宝大王电动车,杰宝大王
2019-11-26,34.778327249459984,111.2065332238741,闸航路2503,杰宝大王电动车,杰宝大王
2019-11-26,34.778327249459984,111.2065332238741,工业区宝钱公路3725号,杰宝大王电动车,杰宝大王
2019-11-26,34.778327249459984,111.2065332238741,青昆路79号,杰宝大王电动车,杰宝大王
2019-11-26,34.778327249459984,111.2065332238741,嘉松北路470号,杰宝大王电动车,杰宝大王
2019-11-26,34.778327249459984,111.2065332238741,外青松公路3068号附近,杰宝大王电动车,杰宝大王
2019-11-26,34.778327249459984,111.2065332238741,川沙新镇川南奉公路551-4号,杰宝大王电动车,杰宝大王
2019-11-26,34.778327249459984,111.2065332238741,马桥西街与新街交叉口西北50米,杰宝大王电动车,杰宝大王
2019-11-26,34.778327249459984,111.2065332238741,温宿路33号,杰宝大王电动车(嘉定北大街店),杰宝大王
2019-11-26,34.778327249459984,111.2065332238741,鼓浪路251-253号,杰宝大王电动车(泗泾专卖店),杰宝大王
2019-11-26,34.778327249459984,111.2065332238741,新书路与老芦公路交叉口南50米,杰宝大王电动车,杰宝大王
2019-11-26,34.778327249459984,111.2065332238741,盐朝公路791-1号附近,杰宝大王电动车,杰宝大王
2019-11-26,34.778327249459984,111.2065332238741,顾太路99号,杰宝大王电动车(宝山专卖店),杰宝大王
2019-11-26,34.778327249459984,111.2065332238741,沪宜公路3183号,杰宝大王电动车,杰宝大王
2019-11-26,34.778327249459984,111.2065332238741,密云路430-2号,杰宝大王电动车(密云路店),杰宝大王
2019-11-26,34.778327249459984,111.2065332238741,盛夏路1131号,杰宝大王电动车,杰宝大王
2019-11-26,34.778327249459984,111.2065332238741,浦江镇三鲁公路2552号,杰宝大王电动车,杰宝大王
2019-11-26,34.778327249459984,111.2065332238741,宣桥镇宣春路光明村731号,杰宝大王电动车,杰宝大王
2019-11-26,34.778327249459984,111.2065332238741,益文路与虹梅南路交叉口南50米,杰宝大王电动车天龙车行,杰宝大王
2019-11-26,34.778327249459984,111.2065332238741,广富林路1238号,杰宝大王电动车,杰宝大王
2019-11-26,34.778327249459984,111.2065332238741,涞坊路357,杰宝大王电动车,杰宝大王
2019-11-26,34.778327249459984,111.2065332238741,沪宜公路2446号,杰宝大王电动车大名车行(电动车大卖场),杰宝大王
2019-11-26,34.778327249459984,111.2065332238741,真华路1608号-2层,杰宝大王电动车(真华路),杰宝大王
2019-11-26,34.778327249459984,111.2065332238741,唐山路与安国路交叉口北50米,杰宝大王,杰宝大王
2019-11-26,34.778327249459984,111.2065332238741,安丰路与纪鹤公路交叉口西北50米,杰宝大王电动车,杰宝大王
2019-11-26,34.778327249459984,111.2065332238741,淞宝路785号附近,杰宝大王电动车,杰宝大王
2019-11-26,34.778327249459984,111.2065332238741,解放西路605号附近,杰宝大王电动车,杰宝大王
2019-11-26,34.778327249459984,111.2065332238741,浦驰路138号附近,发奋商贸公司杰宝大王电动车,杰宝大王
2019-11-26,34.778327249459984,111.2065332238741,平南路714-1临附近,杰宝大王,杰宝大王
2019-11-26,34.778327249459984,111.2065332238741,万安路455号(江湾镇),杰宝大王电动车,杰宝大王
2019-11-26,34.778327249459984,111.2065332238741,罗城路486号,杰宝大王电动车,杰宝大王
2019-11-26,34.778327249459984,111.2065332238741,马陆镇戬浜大治路398号,杰宝大王电动车(戬浜店),杰宝大王
2019-11-26,34.778327249459984,111.2065332238741,嘉松中路157号,新大洲&杰宝大王电动车,杰宝大王
2019-11-26,33.772050748691015,113.19952856052156,中山西路668号,杰宝大王电动车(中山西路店),杰宝大王
2019-11-26,33.772050748691015,113.19952856052156,北翟路2942号附近,杰宝大王电动车,杰宝大王
2019-11-26,33.772050748691015,113.19952856052156,颛桥镇贵都路355号,杰宝大王电动车,杰宝大王
2019-11-26,33.772050748691015,113.19952856052156,嘉行公路2969号,杰宝大王电动车,杰宝大王
2019-11-26,33.772050748691015,113.19952856052156,金桥经济技术开发区唐陆公路600号,杰宝大王电动车,杰宝大王
2019-11-26,33.772050748691015,113.19952856052156,莘庄镇莘朱路675号,杰宝大王电动车,杰宝大王
2019-11-26,33.772050748691015,113.19952856052156,工业区宝钱公路3725号,杰宝大王电动车,杰宝大王
2019-11-26,33.772050748691015,113.19952856052156,闸航路2503,杰宝大王电动车,杰宝大王
2019-11-26,33.772050748691015,113.19952856052156,青昆路79号,杰宝大王电动车,杰宝大王
2019-11-26,33.772050748691015,113.19952856052156,鼓浪路251-253号,杰宝大王电动车(泗泾专卖店),杰宝大王
2019-11-26,33.772050748691015,113.19952856052156,嘉松北路470号,杰宝大王电动车,杰宝大王
2019-11-26,33.772050748691015,113.19952856052156,外青松公路3068号附近,杰宝大王电动车,杰宝大王
2019-11-26,33.772050748691015,113.19952856052156,川沙新镇川南奉公路551-4号,杰宝大王电动车,杰宝大王
2019-11-26,33.772050748691015,113.19952856052156,温宿路33号,杰宝大王电动车(嘉定北大街店),杰宝大王
2019-11-26,33.772050748691015,113.19952856052156,马桥西街与新街交叉口西北50米,杰宝大王电动车,杰宝大王
2019-11-26,33.772050748691015,113.19952856052156,盐朝公路791-1号附近,杰宝大王电动车,杰宝大王
2019-11-26,33.772050748691015,113.19952856052156,新书路与老芦公路交叉口南50米,杰宝大王电动车,杰宝大王
2019-11-26,33.772050748691015,113.19952856052156,沪宜公路3183号,杰宝大王电动车,杰宝大王
2019-11-26,33.772050748691015,113.19952856052156,顾太路99号,杰宝大王电动车(宝山专卖店),杰宝大王
2019-11-26,33.772050748691015,113.19952856052156,盛夏路1131号,杰宝大王电动车,杰宝大王
2019-11-26,33.772050748691015,113.19952856052156,密云路430-2号,杰宝大王电动车(密云路店),杰宝大王
2019-11-26,33.772050748691015,113.19952856052156,浦江镇三鲁公路2552号,杰宝大王电动车,杰宝大王
2019-11-26,33.772050748691015,113.19952856052156,益文路与虹梅南路交叉口南50米,杰宝大王电动车天龙车行,杰宝大王
2019-11-26,33.772050748691015,113.19952856052156,涞坊路357,杰宝大王电动车,杰宝大王
2019-11-26,33.772050748691015,113.19952856052156,平南路714-1临附近,杰宝大王,杰宝大王
2019-11-26,33.772050748691015,113.19952856052156,宣桥镇宣春路光明村731号,杰宝大王电动车,杰宝大王
2019-11-26,33.772050748691015,113.19952856052156,广富林路1238号,杰宝大王电动车,杰宝大王
2019-11-26,33.772050748691015,113.19952856052156,淞宝路785号附近,杰宝大王电动车,杰宝大王
2019-11-26,33.772050748691015,113.19952856052156,沪宜公路2446号,杰宝大王电动车大名车行(电动车大卖场),杰宝大王
2019-11-26,33.772050748691015,113.19952856052156,真华路1608号-2层,杰宝大王电动车(真华路),杰宝大王
2019-11-26,33.772050748691015,113.19952856052156,解放西路605号附近,杰宝大王电动车,杰宝大王
2019-11-26,33.772050748691015,113.19952856052156,安丰路与纪鹤公路交叉口西北50米,杰宝大王电动车,杰宝大王
2019-11-26,33.772050748691015,113.19952856052156,浦驰路138号附近,发奋商贸公司杰宝大王电动车,杰宝大王
2019-11-26,34.17232575881713,112.86649364673674,唐山路与安国路交叉口北50米,杰宝大王,杰宝大王
2019-11-26,33.772050748691015,113.19952856052156,万安路455号(江湾镇),杰宝大王电动车,杰宝大王
2019-11-26,33.772050748691015,113.19952856052156,罗城路486号,杰宝大王电动车,杰宝大王
2019-11-26,33.772050748691015,113.19952856052156,马陆镇戬浜大治路398号,杰宝大王电动车(戬浜店),杰宝大王
2019-11-26,33.772050748691015,113.19952856052156,嘉松中路157号,新大洲&杰宝大王电动车,杰宝大王
2019-11-26,32.14324045282989,115.03702452925496,河南省信阳市潢川县黄国路,杰宝大王电动车,杰宝大王
2019-11-26,32.355703768866405,114.74197422231538,河南省信阳市息县千佛庵西路,杰宝大王电动车,杰宝大王
2019-11-26,32.199645728607216,115.69569104382856,河南省信阳市固始县G312(沪霍线),杰宝大王电动车,杰宝大王
2019-11-26,32.142817843073836,114.08904801379808,河南省信阳市平桥区新六大街60号洛阳银行对面(泰和湾酒店南50米),杰宝大王电动车,杰宝大王
2019-11-26,32.44743421950801,115.41684711150975,北大街与新市街交叉口东100米,杰宝大王电动车维修,杰宝大王
2019-11-26,35.67850940520844,114.55284047883572,北大街与新市街交叉口东100米,杰宝大王电动车维修,杰宝大王
2019-11-26,33.00064655308556,110.4290646270291,北大街与新市街交叉口东100米,杰宝大王电动车维修,杰宝大王
2019-11-26,31.041732575569622,112.20639298023002,北大街与新市街交叉口东100米,杰宝大王电动车维修,杰宝大王
2019-11-26,30.479820543091385,114.4009338478766,湖北省武汉市洪山区民族大道243号附近,杰宝大王电动车(财大店),杰宝大王
2019-11-26,30.477302222998393,114.40032496921549,湖北省武汉市洪山区民族大道308号东北80米,杰宝大王,杰宝大王
2019-11-26,29.037749999406877,111.70545217995837,常德路695号,杰宝大王电动车(常德路店),杰宝大王
2019-11-26,29.3631782939259,113.13548942422142,中山西路668号,杰宝大王电动车(中山西路店),杰宝大王
2019-11-26,29.3631782939259,113.13548942422142,颛桥镇贵都路355号,杰宝大王电动车,杰宝大王
2019-11-26,29.3631782939259,113.13548942422142,北翟路2942号附近,杰宝大王电动车,杰宝大王
2019-11-26,29.3631782939259,113.13548942422142,金桥经济技术开发区唐陆公路600号,杰宝大王电动车,杰宝大王
2019-11-26,29.3631782939259,113.13548942422142,嘉行公路2969号,杰宝大王电动车,杰宝大王
2019-11-26,29.3631782939259,113.13548942422142,莘庄镇莘朱路675号,杰宝大王电动车,杰宝大王
2019-11-26,29.3631782939259,113.13548942422142,闸航路2503,杰宝大王电动车,杰宝大王
2019-11-26,29.3631782939259,113.13548942422142,工业区宝钱公路3725号,杰宝大王电动车,杰宝大王
2019-11-26,29.3631782939259,113.13548942422142,青昆路79号,杰宝大王电动车,杰宝大王
2019-11-26,29.3631782939259,113.13548942422142,嘉松北路470号,杰宝大王电动车,杰宝大王
2019-11-26,29.3631782939259,113.13548942422142,西林北路335号,杰宝大王电动车(西林北路),杰宝大王
2019-11-26,29.3631782939259,113.13548942422142,外青松公路3068号附近,杰宝大王电动车,杰宝大王
2019-11-26,29.3631782939259,113.13548942422142,川沙新镇川南奉公路551-4号,杰宝大王电动车,杰宝大王
2019-11-26,29.3631782939259,113.13548942422142,鼓浪路251-253号,杰宝大王电动车(泗泾专卖店),杰宝大王
2019-11-26,29.3631782939259,113.13548942422142,马桥西街与新街交叉口西北50米,杰宝大王电动车,杰宝大王
2019-11-26,29.3631782939259,113.13548942422142,盐朝公路791-1号附近,杰宝大王电动车,杰宝大王
2019-11-26,29.3631782939259,113.13548942422142,新书路与老芦公路交叉口南50米,杰宝大王电动车,杰宝大王
2019-11-26,29.3631782939259,113.13548942422142,浦江镇三鲁公路2552号,杰宝大王电动车,杰宝大王
2019-11-26,29.3631782939259,113.13548942422142,温宿路33号,杰宝大王电动车(嘉定北大街店),杰宝大王
2019-11-26,29.3631782939259,113.13548942422142,顾太路99号,杰宝大王电动车(宝山专卖店),杰宝大王
2019-11-26,29.3631782939259,113.13548942422142,沪宜公路3183号,杰宝大王电动车,杰宝大王
2019-11-26,29.3631782939259,113.13548942422142,周家嘴路3322号,杰宝大王电动车,杰宝大王
2019-11-26,29.3631782939259,113.13548942422142,盛夏路1131号,杰宝大王电动车,杰宝大王
2019-11-26,29.3631782939259,113.13548942422142,庄良路111弄2,杰宝大王电动车(步韵路),杰宝大王
2019-11-26,29.3631782939259,113.13548942422142,涞坊路357,杰宝大王电动车,杰宝大王
2019-11-26,29.104703477112515,113.30429064135947,宣桥镇宣春路光明村731号,杰宝大王电动车,杰宝大王
2019-11-26,29.3631782939259,113.13548942422142,密云路430-2号,杰宝大王电动车(密云路店),杰宝大王
2019-11-26,29.3631782939259,113.13548942422142,淞宝路785号附近,杰宝大王电动车,杰宝大王
2019-11-26,29.3631782939259,113.13548942422142,广富林路1238号,杰宝大王电动车,杰宝大王
2019-11-26,29.3631782939259,113.13548942422142,益文路与虹梅南路交叉口南50米,杰宝大王电动车天龙车行,杰宝大王
2019-11-26,29.3631782939259,113.13548942422142,沪宜公路2446号,杰宝大王电动车大名车行(电动车大卖场),杰宝大王
2019-11-26,29.3631782939259,113.13548942422142,真华路1608号-2层,杰宝大王电动车(真华路),杰宝大王
2019-11-26,29.3631782939259,113.13548942422142,大同路670-672号,杰宝大王电动车(高桥专卖店),杰宝大王
2019-11-26,29.3631782939259,113.13548942422142,老芦公路834号附近,杰宝大王电动车(丽正路),杰宝大王
2019-11-26,29.3631782939259,113.13548942422142,安丰路与纪鹤公路交叉口西北50米,杰宝大王电动车,杰宝大王
2019-11-26,29.3631782939259,113.13548942422142,解放西路605号附近,杰宝大王电动车,杰宝大王
2019-11-26,29.3631782939259,113.13548942422142,徐行镇新建一路2118号,杰宝大王电动车,杰宝大王
2019-11-26,29.34734633787925,113.42326281773991,万安路455号(江湾镇),杰宝大王电动车,杰宝大王
2019-11-26,29.3631782939259,113.13548942422142,浦驰路138号附近,发奋商贸公司杰宝大王电动车,杰宝大王
2019-11-26,28.79821642979173,113.1041461975304,罗城路486号,杰宝大王电动车,杰宝大王
2019-11-26,29.3631782939259,113.13548942422142,平南路714-1临附近,杰宝大王,杰宝大王
2019-11-26,29.3631782939259,113.13548942422142,唐山路与安国路交叉口北50米,杰宝大王,杰宝大王
2019-11-26,29.3631782939259,113.13548942422142,马陆镇戬浜大治路398号,杰宝大王电动车(戬浜店),杰宝大王
2019-11-26,29.3631782939259,113.13548942422142,嘉松中路157号,新大洲&杰宝大王电动车,杰宝大王
2019-11-26,27.703208596991583,112.00150349288418,中山西路668号,杰宝大王电动车(中山西路店),杰宝大王
2019-11-26,27.703208596991583,112.00150349288418,颛桥镇贵都路355号,杰宝大王电动车,杰宝大王
2019-11-26,27.703208596991583,112.00150349288418,北翟路2942号附近,杰宝大王电动车,杰宝大王
2019-11-26,27.703208596991583,112.00150349288418,金桥经济技术开发区唐陆公路600号,杰宝大王电动车,杰宝大王
2019-11-26,27.703208596991583,112.00150349288418,嘉行公路2969号,杰宝大王电动车,杰宝大王
2019-11-26,27.703208596991583,112.00150349288418,莘庄镇莘朱路675号,杰宝大王电动车,杰宝大王
2019-11-26,27.703208596991583,112.00150349288418,闸航路2503,杰宝大王电动车,杰宝大王
2019-11-26,27.703208596991583,112.00150349288418,工业区宝钱公路3725号,杰宝大王电动车,杰宝大王
2019-11-26,27.703208596991583,112.00150349288418,青昆路79号,杰宝大王电动车,杰宝大王
2019-11-26,27.703208596991583,112.00150349288418,嘉松北路470号,杰宝大王电动车,杰宝大王
2019-11-26,27.703208596991583,112.00150349288418,外青松公路3068号附近,杰宝大王电动车,杰宝大王
2019-11-26,27.703208596991583,112.00150349288418,川沙新镇川南奉公路551-4号,杰宝大王电动车,杰宝大王
2019-11-26,27.703208596991583,112.00150349288418,鼓浪路251-253号,杰宝大王电动车(泗泾专卖店),杰宝大王
2019-11-26,27.74784906345924,111.3127546925014,马桥西街与新街交叉口西北50米,杰宝大王电动车,杰宝大王
2019-11-26,27.703208596991583,112.00150349288418,盐朝公路791-1号附近,杰宝大王电动车,杰宝大王
2019-11-26,27.703208596991583,112.00150349288418,新书路与老芦公路交叉口南50米,杰宝大王电动车,杰宝大王
2019-11-26,27.703208596991583,112.00150349288418,浦江镇三鲁公路2552号,杰宝大王电动车,杰宝大王
2019-11-26,27.703208596991583,112.00150349288418,温宿路33号,杰宝大王电动车(嘉定北大街店),杰宝大王
2019-11-26,27.703208596991583,112.00150349288418,顾太路99号,杰宝大王电动车(宝山专卖店),杰宝大王
2019-11-26,27.703208596991583,112.00150349288418,沪宜公路3183号,杰宝大王电动车,杰宝大王
2019-11-26,27.703208596991583,112.00150349288418,周家嘴路3322号,杰宝大王电动车,杰宝大王
2019-11-26,27.703208596991583,112.00150349288418,盛夏路1131号,杰宝大王电动车,杰宝大王
2019-11-26,27.703208596991583,112.00150349288418,庄良路111弄2,杰宝大王电动车(步韵路),杰宝大王
2019-11-26,27.703208596991583,112.00150349288418,涞坊路357,杰宝大王电动车,杰宝大王
2019-11-26,28.04799842031372,111.38145296567647,宣桥镇宣春路光明村731号,杰宝大王电动车,杰宝大王
2019-11-26,27.703208596991583,112.00150349288418,密云路430-2号,杰宝大王电动车(密云路店),杰宝大王
2019-11-26,27.703208596991583,112.00150349288418,广富林路1238号,杰宝大王电动车,杰宝大王
2019-11-26,27.703208596991583,112.00150349288418,淞宝路785号附近,杰宝大王电动车,杰宝大王
2019-11-26,27.703208596991583,112.00150349288418,益文路与虹梅南路交叉口南50米,杰宝大王电动车天龙车行,杰宝大王
2019-11-26,27.703208596991583,112.00150349288418,沪宜公路2446号,杰宝大王电动车大名车行(电动车大卖场),杰宝大王
2019-11-26,27.703208596991583,112.00150349288418,真华路1608号-2层,杰宝大王电动车(真华路),杰宝大王
2019-11-26,27.703208596991583,112.00150349288418,大同路670-672号,杰宝大王电动车(高桥专卖店),杰宝大王
2019-11-26,27.703208596991583,112.00150349288418,解放西路605号附近,杰宝大王电动车,杰宝大王
2019-11-26,27.703208596991583,112.00150349288418,安丰路与纪鹤公路交叉口西北50米,杰宝大王电动车,杰宝大王
2019-11-26,27.703208596991583,112.00150349288418,老芦公路834号附近,杰宝大王电动车(丽正路),杰宝大王
2019-11-26,27.703208596991583,112.00150349288418,徐行镇新建一路2118号,杰宝大王电动车,杰宝大王
2019-11-26,27.703208596991583,112.00150349288418,万安路455号(江湾镇),杰宝大王电动车,杰宝大王
2019-11-26,27.703208596991583,112.00150349288418,浦驰路138号附近,发奋商贸公司杰宝大王电动车,杰宝大王
2019-11-26,27.703208596991583,112.00150349288418,罗城路486号,杰宝大王电动车,杰宝大王
2019-11-26,27.703208596991583,112.00150349288418,平南路714-1临附近,杰宝大王,杰宝大王
2019-11-26,27.703208596991583,112.00150349288418,唐山路与安国路交叉口北50米,杰宝大王,杰宝大王
2019-11-26,27.703208596991583,112.00150349288418,西林北路335号,杰宝大王电动车(西林北路),杰宝大王
2019-11-26,27.703208596991583,112.00150349288418,马陆镇戬浜大治路398号,杰宝大王电动车(戬浜店),杰宝大王
2019-11-26,27.703208596991583,112.00150349288418,嘉松中路157号,新大洲&杰宝大王电动车,杰宝大王
2019-11-26,27.833567639016444,113.14047079776427,中山西路668号,杰宝大王电动车(中山西路店),杰宝大王
2019-11-26,27.833567639016444,113.14047079776427,颛桥镇贵都路355号,杰宝大王电动车,杰宝大王
2019-11-26,27.833567639016444,113.14047079776427,北翟路2942号附近,杰宝大王电动车,杰宝大王
2019-11-26,27.83183684294466,113.16470948338271,金桥经济技术开发区唐陆公路600号,杰宝大王电动车,杰宝大王
2019-11-26,27.833567639016444,113.14047079776427,嘉行公路2969号,杰宝大王电动车,杰宝大王
2019-11-26,27.833567639016444,113.14047079776427,莘庄镇莘朱路675号,杰宝大王电动车,杰宝大王
2019-11-26,27.833567639016444,113.14047079776427,闸航路2503,杰宝大王电动车,杰宝大王
2019-11-26,27.833567639016444,113.14047079776427,工业区宝钱公路3725号,杰宝大王电动车,杰宝大王
2019-11-26,27.833567639016444,113.14047079776427,青昆路79号,杰宝大王电动车,杰宝大王
2019-11-26,27.833567639016444,113.14047079776427,嘉松北路470号,杰宝大王电动车,杰宝大王
2019-11-26,27.833567639016444,113.14047079776427,外青松公路3068号附近,杰宝大王电动车,杰宝大王
2019-11-26,27.833567639016444,113.14047079776427,川沙新镇川南奉公路551-4号,杰宝大王电动车,杰宝大王
2019-11-26,27.833567639016444,113.14047079776427,鼓浪路251-253号,杰宝大王电动车(泗泾专卖店),杰宝大王
2019-11-26,27.840120288022426,113.71945448012193,马桥西街与新街交叉口西北50米,杰宝大王电动车,杰宝大王
2019-11-26,27.833567639016444,113.14047079776427,盐朝公路791-1号附近,杰宝大王电动车,杰宝大王
2019-11-26,27.833567639016444,113.14047079776427,新书路与老芦公路交叉口南50米,杰宝大王电动车,杰宝大王
2019-11-26,27.833567639016444,113.14047079776427,浦江镇三鲁公路2552号,杰宝大王电动车,杰宝大王
2019-11-26,27.833567639016444,113.14047079776427,温宿路33号,杰宝大王电动车(嘉定北大街店),杰宝大王
2019-11-26,27.833567639016444,113.14047079776427,顾太路99号,杰宝大王电动车(宝山专卖店),杰宝大王
2019-11-26,27.833567639016444,113.14047079776427,沪宜公路3183号,杰宝大王电动车,杰宝大王
2019-11-26,27.833567639016444,113.14047079776427,周家嘴路3322号,杰宝大王电动车,杰宝大王
2019-11-26,27.833567639016444,113.14047079776427,庄良路111弄2,杰宝大王电动车(步韵路),杰宝大王
2019-11-26,27.833567639016444,113.14047079776427,盛夏路1131号,杰宝大王电动车,杰宝大王
2019-11-26,27.833567639016444,113.14047079776427,涞坊路357,杰宝大王电动车,杰宝大王
2019-11-26,27.871617458101234,113.62709178558313,宣桥镇宣春路光明村731号,杰宝大王电动车,杰宝大王
2019-11-26,27.833567639016444,113.14047079776427,密云路430-2号,杰宝大王电动车(密云路店),杰宝大王
2019-11-26,27.833567639016444,113.14047079776427,淞宝路785号附近,杰宝大王电动车,杰宝大王
2019-11-26,27.833567639016444,113.14047079776427,广富林路1238号,杰宝大王电动车,杰宝大王
2019-11-26,27.833567639016444,113.14047079776427,益文路与虹梅南路交叉口南50米,杰宝大王电动车天龙车行,杰宝大王
2019-11-26,27.833567639016444,113.14047079776427,沪宜公路2446号,杰宝大王电动车大名车行(电动车大卖场),杰宝大王
2019-11-26,27.833567639016444,113.14047079776427,真华路1608号-2层,杰宝大王电动车(真华路),杰宝大王
2019-11-26,27.833567639016444,113.14047079776427,解放西路605号附近,杰宝大王电动车,杰宝大王
2019-11-26,27.833567639016444,113.14047079776427,老芦公路834号附近,杰宝大王电动车(丽正路),杰宝大王
2019-11-26,27.833567639016444,113.14047079776427,大同路670-672号,杰宝大王电动车(高桥专卖店),杰宝大王
2019-11-26,27.833567639016444,113.14047079776427,安丰路与纪鹤公路交叉口西北50米,杰宝大王电动车,杰宝大王
2019-11-26,27.833567639016444,113.14047079776427,万安路455号(江湾镇),杰宝大王电动车,杰宝大王
2019-11-26,27.833567639016444,113.14047079776427,徐行镇新建一路2118号,杰宝大王电动车,杰宝大王
2019-11-26,27.833567639016444,113.14047079776427,浦驰路138号附近,发奋商贸公司杰宝大王电动车,杰宝大王
2019-11-26,27.833567639016444,113.14047079776427,罗城路486号,杰宝大王电动车,杰宝大王
2019-11-26,27.833567639016444,113.14047079776427,平南路714-1临附近,杰宝大王,杰宝大王
2019-11-26,27.833567639016444,113.14047079776427,唐山路与安国路交叉口北50米,杰宝大王,杰宝大王
2019-11-26,27.833567639016444,113.14047079776427,西林北路335号,杰宝大王电动车(西林北路),杰宝大王
2019-11-26,27.833567639016444,113.14047079776427,嘉松中路157号,新大洲&杰宝大王电动车,杰宝大王
2019-11-26,27.833567639016444,113.14047079776427,马陆镇戬浜大治路398号,杰宝大王电动车(戬浜店),杰宝大王
2019-11-26,33.31062235450949,120.1648754899214,江苏省盐城市盐都区崇礼路,杰宝大王电动车,杰宝大王
2019-11-26,32.872716312488244,120.32653706475246,盐城市东台市,杰宝大王电动车,杰宝大王
2019-11-26,33.25686223703218,120.15708336424977,江苏省盐城市盐都区斗沙线,杰宝大王电动车,杰宝大王
2019-11-26,33.54867319187977,120.0249505629561,盐城市冈合路38号,杰宝大王电动车,杰宝大王
2019-11-26,32.872716312488244,120.32653706475246,江苏省盐城市东台市S226与一仓公路交叉口北,杰宝大王电动车,杰宝大王
2019-11-26,33.86579708817159,119.79097702140311,江苏省盐城市阜宁县中国移动通信宇洋手机大卖场北,杰宝大王电动车,杰宝大王
2019-11-26,33.433127725067614,120.242838759488,江苏省盐城市亭湖区步南路,杰宝大王电动车,杰宝大王
2019-11-26,32.72293396362464,120.56652764615376,江苏省盐城市东台市地方税局富东税务所东北(东升路南),杰宝大王电动车,杰宝大王
2019-11-26,32.90256514007909,120.24841484811061,江苏省盐城市东台市五烈镇镇中廉广线中国农业银行西50米,杰宝大王电动车,杰宝大王
2019-11-26,32.891180061942556,120.56035950323393,江苏省盐城市东台市头富路正北方向99米,杰宝大王电动车,杰宝大王
2019-11-26,33.052694592774216,120.5841238314494,江苏省盐城市大丰区正阳路86号,杰宝大王电动车(益民路店),杰宝大王
2019-11-26,33.21128451223394,120.46915671870521,江苏省盐城市大丰区人民北路40号,杰宝大王电动车(大新北路店),杰宝大王
2019-11-26,33.483165099916796,120.37531909631905,盐海路盐东镇卫生院,杰宝大王电动车,杰宝大王
2019-11-26,33.99246602571322,120.25026796254714,临海镇226省道八大家长途汽车站北,杰宝大王电动车,杰宝大王
2019-11-26,33.355100917626196,120.167544265761,226省道东50米,杰宝大王电动车,杰宝大王
2019-11-26,32.89885120807652,120.25228959909735,人民路9,杰宝大王电动车(五烈店),杰宝大王
2019-11-26,32.728186243332146,120.19462170908716,时堰镇时溱路3号东台市时堰中学附近,杰宝大王电动车,杰宝大王
2019-11-26,33.726875264077385,120.06106818103622,四长线,杰宝大王电动车,杰宝大王
2019-11-26,33.324558885409495,120.20704760988447,新都街道戴庄路光明花苑·西园,杰宝大王电动车,杰宝大王
2019-11-26,32.853782460358026,120.33840987884729,盐城市东台市范公南路21号(近仁济路),杰宝大王电动车自行车专卖(仁济路店),杰宝大王
2019-11-26,33.771756166836425,120.27043159751577,江苏省盐城市射阳县军苑巷与解放路交叉口,杰宝大王电动车(军苑巷),杰宝大王
2019-11-26,33.39729034513628,120.17317565047757,希望大道与建军东路交叉口北100米,杰宝大王电动车(建军东路店),杰宝大王
2019-11-26,33.196257897305344,119.82692938181177,江苏省盐城市盐都区平湖路,杰宝大王,杰宝大王
2019-11-26,33.34602248838137,120.0579234272425,南门路与惠民路交叉口南100米,杰宝大王电动车(惠民路店),杰宝大王
2019-11-26,33.78101359213001,120.26444564891948,盐城市射阳县,杰宝大王,杰宝大王
2019-11-26,33.469832978385014,119.80553127744521,江苏省盐城市建湖县S234,杰宝大王,杰宝大王
2019-11-26,34.0194009174939,119.86109515628995,江苏省盐城市滨海县阜东北路289号附近,杰宝大王,杰宝大王
2019-11-26,31.568961499535618,121.06827780480356,江苏省苏州市太仓市南院北路,杰宝大王电动车,杰宝大王
2019-11-26,31.6003354899898,120.90835085881056,苏州市常熟市新市北路99号,杰宝大王电动车,杰宝大王
2019-11-26,31.28558090846889,120.6261751320163,吴门桥街道南环西路24号,杰宝大王电动车,杰宝大王
2019-11-26,31.429522073896987,120.96166967006712,玉山镇昆北路1505号,杰宝大王电动车,杰宝大王
2019-11-26,31.516116860049724,121.2657615911455,浏河镇听海路142号,杰宝大王电动车,杰宝大王
2019-11-26,31.43313298877082,120.99827672631112,青阳北路301号附近,杰宝大王电动车,杰宝大王
2019-11-26,31.95573571528962,120.39436861057384,江苏省苏州市张家港市长江西路,杰宝大王电动车,杰宝大王
2019-11-26,31.18968402938654,121.03580882253537,淀山湖镇老街中市路500-28号,杰宝大王电动车,杰宝大王
2019-11-26,31.493524930991114,120.75906425085442,江苏省苏州市相城区凤阳路60号附近,杰宝大王电动车,杰宝大王
2019-11-26,31.451754372296662,120.88344857244626,江苏省苏州市昆山市年丰新村农贸市场旁,杰宝大王电动车(巴城专卖店),杰宝大王
2019-11-26,31.30695793503838,120.65094816209907,莫邪路607号,杰宝大王电动车(葑门专卖店),杰宝大王
2019-11-26,31.617695561617982,121.22609678888344,江苏省苏州市太仓市秋水街上上海花城26号商铺,杰宝大王电动车专卖,杰宝大王
2019-11-26,31.718948590174755,120.79840678841025,江苏省苏州市常熟市香州路附近,杰宝大王电动车(常熟市周行镇店),杰宝大王
2019-11-26,31.5380725312351,121.21496549454642,江苏省苏州市太仓市牌新长线附近,杰宝大王电动车(新塘镇专卖店),杰宝大王
2019-11-26,31.452653400879615,121.10994485968008,北门街54-58号,杰宝大王电动车(太仓专卖店),杰宝大王
2019-11-26,31.26402377666081,120.52557048439292,江苏省苏州市吴中区木渎商城13幢三单元,杰宝大王,杰宝大王
2019-11-26,31.383955454661443,120.95055702455248,江苏省苏州市昆山市震川西路315-31号附近,杰宝大王,杰宝大王
2019-11-26,31.34715817364662,121.00179169965297,陆家镇合丰丰安路57号,杰宝大王,杰宝大王
2019-11-26,31.667350901558024,120.75399862972768,李闸路与湘江东路交叉口东南50米,杰宝大王电动车(李闸专卖店),杰宝大王
2019-11-26,31.478238295000182,121.20089379474967,陆渡镇中市路9-11号,杰宝大王电动车,杰宝大王
2019-11-26,31.29853910369017,120.84064108099598,滨江路买买提生活超市,杰宝大王电动车专卖店,杰宝大王
2019-11-26,31.50917323938002,120.73920295497807,江苏省苏州市相城区湘陆路4,上海杰宝大王电动车直供(702乡道店),杰宝大王
2019-11-26,31.40613594209504,121.01787693777572,周市镇珠泾花园6栋53号,杰宝大王电动车,杰宝大王
2019-11-26,31.320130760618003,121.04629281139648,南粮路123号附近,杰宝大王电动车(南粮路店),杰宝大王
2019-11-26,31.732046323352233,120.7611971874573,谢桥镇健康路74号,上海杰宝大王电动车(谢桥专卖店),杰宝大王
2019-11-26,31.434680320834623,121.12401694395159,204国道老线西50米,杰宝大王电动车(南郊店),杰宝大王
2019-11-26,31.307865974278727,121.14356622778193,江苏省苏州市昆山市中城花园7幢1号,杰宝大王电动车(美车城专卖店),杰宝大王
2019-11-26,31.385924930118996,121.09586674418541,栈泾东路16号,杰宝大王东野电动车(蓬朗旗舰店),杰宝大王
2019-11-26,31.307865974278727,121.14356622778193,曹浦路中城花园7幢1号,杰宝大王电动车(中城花园店),杰宝大王
2019-11-26,31.45241275142194,121.11501403630004,新世界百货(人民南路)苏州市太仓市人民南路1号F4,杰宝大王,杰宝大王
2019-11-26,31.955015299914884,120.64240593464379,锦南路西50米,杰宝大王,杰宝大王
2019-11-26,31.41426174628691,120.99707157812607,江苏省苏州市昆山市金浦路276号附近,杰宝大王,杰宝大王
2019-11-26,31.316046533981687,120.6306099764885,北局路22号苏州人民商场1层,上海杰宝·大王,杰宝大王
2019-11-26,31.4338585517595,120.56209347271577,中市路12-1,杰宝大王电动车双龙车行,杰宝大王
2019-11-26,31.343019024144414,120.61288941630349,平河路与江天路交叉口西100米,杰宝大王(平河路店),杰宝大王
2019-11-26,31.318302108569977,120.60846988973682,苏州市姑苏区石路18号石路国际商城F6,杰宝·大王(石路国际商城店),杰宝大王
2019-11-26,31.379056439595914,120.9638749427212,苏州市昆山市人民南路96-2号昆山商厦家电生活广场F1,杰宝·大王(昆山商厦家电生活广场店),杰宝大王
2019-11-26,27.283261895821482,116.91719095249468,江西省抚州市黎川县团村路,杰宝大王电动车,杰宝大王
2019-11-26,31.259142599217327,121.4217509987887,上海市普陀区铜川路318号,杰宝大王电动车(铜川路店),杰宝大王
2019-11-26,34.902637080502906,108.95240424835922,真光路1850号附近,杰宝大王,杰宝大王
2019-11-26,34.34726881662395,108.94646555063274,中山西路668号,杰宝大王电动车(中山西路店),杰宝大王
2019-11-26,34.34726881662395,108.94646555063274,北翟路2942号附近,杰宝大王电动车,杰宝大王
2019-11-26,34.34726881662395,108.94646555063274,颛桥镇贵都路355号,杰宝大王电动车,杰宝大王
2019-11-26,34.2952555867296,108.83752759228497,金桥经济技术开发区唐陆公路600号,杰宝大王电动车,杰宝大王
2019-11-26,34.34726881662395,108.94646555063274,嘉行公路2969号,杰宝大王电动车,杰宝大王
2019-11-26,34.34726881662395,108.94646555063274,莘庄镇莘朱路675号,杰宝大王电动车,杰宝大王
2019-11-26,34.34726881662395,108.94646555063274,闸航路2503,杰宝大王电动车,杰宝大王
2019-11-26,34.34726881662395,108.94646555063274,工业区宝钱公路3725号,杰宝大王电动车,杰宝大王
2019-11-26,34.34726881662395,108.94646555063274,青昆路79号,杰宝大王电动车,杰宝大王
2019-11-26,34.34726881662395,108.94646555063274,嘉松北路470号,杰宝大王电动车,杰宝大王
2019-11-26,34.06981326518166,109.02084351223098,马桥西街与新街交叉口西北50米,杰宝大王电动车,杰宝大王
2019-11-26,34.34726881662395,108.94646555063274,外青松公路3068号附近,杰宝大王电动车,杰宝大王
2019-11-26,34.34726881662395,108.94646555063274,川沙新镇川南奉公路551-4号,杰宝大王电动车,杰宝大王
2019-11-26,34.34726881662395,108.94646555063274,鼓浪路251-253号,杰宝大王电动车(泗泾专卖店),杰宝大王
2019-11-26,34.34726881662395,108.94646555063274,盐朝公路791-1号附近,杰宝大王电动车,杰宝大王
2019-11-26,34.34726881662395,108.94646555063274,新书路与老芦公路交叉口南50米,杰宝大王电动车,杰宝大王
2019-11-26,34.34726881662395,108.94646555063274,浦江镇三鲁公路2552号,杰宝大王电动车,杰宝大王
2019-11-26,34.34726881662395,108.94646555063274,温宿路33号,杰宝大王电动车(嘉定北大街店),杰宝大王
2019-11-26,34.34726881662395,108.94646555063274,顾太路99号,杰宝大王电动车(宝山专卖店),杰宝大王
2019-11-26,34.34726881662395,108.94646555063274,沪宜公路3183号,杰宝大王电动车,杰宝大王
2019-11-26,34.34726881662395,108.94646555063274,周家嘴路3322号,杰宝大王电动车,杰宝大王
2019-11-26,34.34726881662395,108.94646555063274,庄良路111弄2,杰宝大王电动车(步韵路),杰宝大王
2019-11-26,34.34726881662395,108.94646555063274,盛夏路1131号,杰宝大王电动车,杰宝大王
2019-11-26,34.34726881662395,108.94646555063274,涞坊路357,杰宝大王电动车,杰宝大王
2019-11-26,34.11758459078757,109.07306626140937,宣桥镇宣春路光明村731号,杰宝大王电动车,杰宝大王
2019-11-26,34.34726881662395,108.94646555063274,密云路430-2号,杰宝大王电动车(密云路店),杰宝大王
2019-11-26,34.34726881662395,108.94646555063274,广富林路1238号,杰宝大王电动车,杰宝大王
2019-11-26,34.34726881662395,108.94646555063274,淞宝路785号附近,杰宝大王电动车,杰宝大王
2019-11-26,34.34726881662395,108.94646555063274,益文路与虹梅南路交叉口南50米,杰宝大王电动车天龙车行,杰宝大王
2019-11-26,34.34726881662395,108.94646555063274,沪宜公路2446号,杰宝大王电动车大名车行(电动车大卖场),杰宝大王
2019-11-26,34.34726881662395,108.94646555063274,真华路1608号-2层,杰宝大王电动车(真华路),杰宝大王
2019-11-26,34.34726881662395,108.94646555063274,解放西路605号附近,杰宝大王电动车,杰宝大王
2019-11-26,34.34726881662395,108.94646555063274,西林北路335号,杰宝大王电动车(西林北路),杰宝大王
2019-11-26,34.34726881662395,108.94646555063274,大同路670-672号,杰宝大王电动车(高桥专卖店),杰宝大王
2019-11-26,34.34726881662395,108.94646555063274,老芦公路834号附近,杰宝大王电动车(丽正路),杰宝大王
2019-11-26,34.34726881662395,108.94646555063274,万安路455号(江湾镇),杰宝大王电动车,杰宝大王
2019-11-26,34.34726881662395,108.94646555063274,徐行镇新建一路2118号,杰宝大王电动车,杰宝大王
2019-11-26,34.34726881662395,108.94646555063274,安丰路与纪鹤公路交叉口西北50米,杰宝大王电动车,杰宝大王
2019-11-26,34.34726881662395,108.94646555063274,浦驰路138号附近,发奋商贸公司杰宝大王电动车,杰宝大王
2019-11-26,34.34726881662395,108.94646555063274,罗城路486号,杰宝大王电动车,杰宝大王
2019-11-26,34.34726881662395,108.94646555063274,平南路714-1临附近,杰宝大王,杰宝大王
2019-11-26,34.34726881662395,108.94646555063274,唐山路与安国路交叉口北50米,杰宝大王,杰宝大王
2019-11-26,34.34726881662395,108.94646555063274,马陆镇戬浜大治路398号,杰宝大王电动车(戬浜店),杰宝大王
2019-11-26,34.34726881662395,108.94646555063274,嘉松中路157号,新大洲&杰宝大王电动车,杰宝大王
2019-11-26,35.11067124236514,118.36353300501388,中山西路668号,杰宝大王电动车(中山西路店),杰宝大王
2019-11-26,35.11067124236514,118.36353300501388,颛桥镇贵都路355号,杰宝大王电动车,杰宝大王
2019-11-26,35.11067124236514,118.36353300501388,北翟路2942号附近,杰宝大王电动车,杰宝大王
2019-11-26,35.06936691742294,118.22230797036538,金桥经济技术开发区唐陆公路600号,杰宝大王电动车,杰宝大王
2019-11-26,35.11067124236514,118.36353300501388,嘉行公路2969号,杰宝大王电动车,杰宝大王
2019-11-26,35.11067124236514,118.36353300501388,莘庄镇莘朱路675号,杰宝大王电动车,杰宝大王
2019-11-26,35.11067124236514,118.36353300501388,闸航路2503,杰宝大王电动车,杰宝大王
2019-11-26,35.11067124236514,118.36353300501388,工业区宝钱公路3725号,杰宝大王电动车,杰宝大王
2019-11-26,35.11067124236514,118.36353300501388,青昆路79号,杰宝大王电动车,杰宝大王
2019-11-26,35.11067124236514,118.36353300501388,嘉松北路470号,杰宝大王电动车,杰宝大王
2019-11-26,35.11067124236514,118.36353300501388,川沙新镇川南奉公路551-4号,杰宝大王电动车,杰宝大王
2019-11-26,35.11067124236514,118.36353300501388,外青松公路3068号附近,杰宝大王电动车,杰宝大王
2019-11-26,35.11067124236514,118.36353300501388,马桥西街与新街交叉口西北50米,杰宝大王电动车,杰宝大王
2019-11-26,35.11067124236514,118.36353300501388,新书路与老芦公路交叉口南50米,杰宝大王电动车,杰宝大王
2019-11-26,35.11067124236514,118.36353300501388,盐朝公路791-1号附近,杰宝大王电动车,杰宝大王
2019-11-26,35.11067124236514,118.36353300501388,鼓浪路251-253号,杰宝大王电动车(泗泾专卖店),杰宝大王
2019-11-26,35.11067124236514,118.36353300501388,温宿路33号,杰宝大王电动车(嘉定北大街店),杰宝大王
2019-11-26,35.11067124236514,118.36353300501388,沪宜公路3183号,杰宝大王电动车,杰宝大王
2019-11-26,35.11067124236514,118.36353300501388,浦江镇三鲁公路2552号,杰宝大王电动车,杰宝大王
2019-11-26,35.11067124236514,118.36353300501388,盛夏路1131号,杰宝大王电动车,杰宝大王
2019-11-26,35.11067124236514,118.36353300501388,密云路430-2号,杰宝大王电动车(密云路店),杰宝大王
2019-11-26,35.11067124236514,118.36353300501388,涞坊路357,杰宝大王电动车,杰宝大王
2019-11-26,35.11067124236514,118.36353300501388,淞宝路785号附近,杰宝大王电动车,杰宝大王
2019-11-26,35.11067124236514,118.36353300501388,广富林路1238号,杰宝大王电动车,杰宝大王
2019-11-26,35.11067124236514,118.36353300501388,宣桥镇宣春路光明村731号,杰宝大王电动车,杰宝大王
2019-11-26,35.11067124236514,118.36353300501388,沪宜公路2446号,杰宝大王电动车大名车行(电动车大卖场),杰宝大王
2019-11-26,35.11067124236514,118.36353300501388,益文路与虹梅南路交叉口南50米,杰宝大王电动车天龙车行,杰宝大王
2019-11-26,35.11067124236514,118.36353300501388,唐山路与安国路交叉口北50米,杰宝大王,杰宝大王
2019-11-26,35.11067124236514,118.36353300501388,真华路1608号-2层,杰宝大王电动车(真华路),杰宝大王
2019-11-26,35.11067124236514,118.36353300501388,解放西路605号附近,杰宝大王电动车,杰宝大王
2019-11-26,35.11067124236514,118.36353300501388,安丰路与纪鹤公路交叉口西北50米,杰宝大王电动车,杰宝大王
2019-11-26,35.11067124236514,118.36353300501388,万安路455号(江湾镇),杰宝大王电动车,杰宝大王
2019-11-26,35.11067124236514,118.36353300501388,平南路714-1临附近,杰宝大王,杰宝大王
2019-11-26,35.11067124236514,118.36353300501388,浦驰路138号附近,发奋商贸公司杰宝大王电动车,杰宝大王
2019-11-26,35.11067124236514,118.36353300501388,罗城路486号,杰宝大王电动车,杰宝大王
2019-11-26,35.11067124236514,118.36353300501388,马陆镇戬浜大治路398号,杰宝大王电动车(戬浜店),杰宝大王
2019-11-26,35.11067124236514,118.36353300501388,嘉松中路157号,新大洲&杰宝大王电动车,杰宝大王
2019-11-26,37.3881961960769,117.9774040171467,中山西路668号,杰宝大王电动车(中山西路店),杰宝大王
2019-11-26,37.3881961960769,117.9774040171467,颛桥镇贵都路355号,杰宝大王电动车,杰宝大王
2019-11-26,37.3881961960769,117.9774040171467,北翟路2942号附近,杰宝大王电动车,杰宝大王
2019-11-26,37.3881961960769,117.9774040171467,金桥经济技术开发区唐陆公路600号,杰宝大王电动车,杰宝大王
2019-11-26,37.3881961960769,117.9774040171467,嘉行公路2969号,杰宝大王电动车,杰宝大王
2019-11-26,37.3881961960769,117.9774040171467,莘庄镇莘朱路675号,杰宝大王电动车,杰宝大王
2019-11-26,37.3881961960769,117.9774040171467,闸航路2503,杰宝大王电动车,杰宝大王
2019-11-26,37.3881961960769,117.9774040171467,工业区宝钱公路3725号,杰宝大王电动车,杰宝大王
2019-11-26,37.3881961960769,117.9774040171467,青昆路79号,杰宝大王电动车,杰宝大王
2019-11-26,37.3881961960769,117.9774040171467,嘉松北路470号,杰宝大王电动车,杰宝大王
2019-11-26,37.3881961960769,117.9774040171467,外青松公路3068号附近,杰宝大王电动车,杰宝大王
2019-11-26,37.3881961960769,117.9774040171467,川沙新镇川南奉公路551-4号,杰宝大王电动车,杰宝大王
2019-11-26,37.3881961960769,117.9774040171467,鼓浪路251-253号,杰宝大王电动车(泗泾专卖店),杰宝大王
2019-11-26,37.3881961960769,117.9774040171467,马桥西街与新街交叉口西北50米,杰宝大王电动车,杰宝大王
2019-11-26,37.3881961960769,117.9774040171467,盐朝公路791-1号附近,杰宝大王电动车,杰宝大王
2019-11-26,37.3881961960769,117.9774040171467,新书路与老芦公路交叉口南50米,杰宝大王电动车,杰宝大王
2019-11-26,37.3881961960769,117.9774040171467,浦江镇三鲁公路2552号,杰宝大王电动车,杰宝大王
2019-11-26,37.3881961960769,117.9774040171467,温宿路33号,杰宝大王电动车(嘉定北大街店),杰宝大王
2019-11-26,37.3881961960769,117.9774040171467,顾太路99号,杰宝大王电动车(宝山专卖店),杰宝大王
2019-11-26,37.3881961960769,117.9774040171467,沪宜公路3183号,杰宝大王电动车,杰宝大王
2019-11-26,37.3881961960769,117.9774040171467,周家嘴路3322号,杰宝大王电动车,杰宝大王
2019-11-26,37.3881961960769,117.9774040171467,盛夏路1131号,杰宝大王电动车,杰宝大王
2019-11-26,37.3881961960769,117.9774040171467,庄良路111弄2,杰宝大王电动车(步韵路),杰宝大王
2019-11-26,37.3881961960769,117.9774040171467,涞坊路357,杰宝大王电动车,杰宝大王
2019-11-26,37.16719840659107,117.52957006447691,宣桥镇宣春路光明村731号,杰宝大王电动车,杰宝大王
2019-11-26,37.3881961960769,117.9774040171467,密云路430-2号,杰宝大王电动车(密云路店),杰宝大王
2019-11-26,37.3881961960769,117.9774040171467,淞宝路785号附近,杰宝大王电动车,杰宝大王
2019-11-26,37.3881961960769,117.9774040171467,广富林路1238号,杰宝大王电动车,杰宝大王
2019-11-26,37.3881961960769,117.9774040171467,益文路与虹梅南路交叉口南50米,杰宝大王电动车天龙车行,杰宝大王
2019-11-26,37.3881961960769,117.9774040171467,沪宜公路2446号,杰宝大王电动车大名车行(电动车大卖场),杰宝大王
2019-11-26,37.3881961960769,117.9774040171467,真华路1608号-2层,杰宝大王电动车(真华路),杰宝大王
2019-11-26,37.3881961960769,117.9774040171467,大同路670-672号,杰宝大王电动车(高桥专卖店),杰宝大王
2019-11-26,37.3881961960769,117.9774040171467,老芦公路834号附近,杰宝大王电动车(丽正路),杰宝大王
2019-11-26,37.3881961960769,117.9774040171467,解放西路605号附近,杰宝大王电动车,杰宝大王
2019-11-26,37.3881961960769,117.9774040171467,安丰路与纪鹤公路交叉口西北50米,杰宝大王电动车,杰宝大王
2019-11-26,37.3881961960769,117.9774040171467,万安路455号(江湾镇),杰宝大王电动车,杰宝大王
2019-11-26,36.88588510531212,117.83143847789823,徐行镇新建一路2118号,杰宝大王电动车,杰宝大王
2019-11-26,37.3881961960769,117.9774040171467,浦驰路138号附近,发奋商贸公司杰宝大王电动车,杰宝大王
2019-11-26,37.3881961960769,117.9774040171467,罗城路486号,杰宝大王电动车,杰宝大王
2019-11-26,37.3881961960769,117.9774040171467,平南路714-1临附近,杰宝大王,杰宝大王
2019-11-26,37.3881961960769,117.9774040171467,唐山路与安国路交叉口北50米,杰宝大王,杰宝大王
2019-11-26,37.3881961960769,117.9774040171467,西林北路335号,杰宝大王电动车(西林北路),杰宝大王
2019-11-26,37.3881961960769,117.9774040171467,马陆镇戬浜大治路398号,杰宝大王电动车(戬浜店),杰宝大王
2019-11-26,37.3881961960769,117.9774040171467,嘉松中路157号,新大洲&杰宝大王电动车,杰宝大王
2019-11-26,36.072227496663224,120.38945519114627,中山西路668号,杰宝大王电动车(中山西路店),杰宝大王
2019-11-26,36.072227496663224,120.38945519114627,北翟路2942号附近,杰宝大王电动车,杰宝大王
2019-11-26,36.072227496663224,120.38945519114627,颛桥镇贵都路355号,杰宝大王电动车,杰宝大王
2019-11-26,36.072227496663224,120.38945519114627,青昆路79号,杰宝大王电动车,杰宝大王
2019-11-26,36.072227496663224,120.38945519114627,金桥经济技术开发区唐陆公路600号,杰宝大王电动车,杰宝大王
2019-11-26,36.072227496663224,120.38945519114627,嘉行公路2969号,杰宝大王电动车,杰宝大王
2019-11-26,36.072227496663224,120.38945519114627,莘庄镇莘朱路675号,杰宝大王电动车,杰宝大王
2019-11-26,36.07889458202534,120.32766636952432,上海市普陀区李村路18号,杰宝大王电动车(李村路店),杰宝大王
2019-11-26,36.072227496663224,120.38945519114627,闸航路2503,杰宝大王电动车,杰宝大王
2019-11-26,36.072227496663224,120.38945519114627,工业区宝钱公路3725号,杰宝大王电动车,杰宝大王
2019-11-26,36.072227496663224,120.38945519114627,嘉松北路470号,杰宝大王电动车,杰宝大王
2019-11-26,36.072227496663224,120.38945519114627,外青松公路3068号附近,杰宝大王电动车,杰宝大王
2019-11-26,36.072227496663224,120.38945519114627,川沙新镇川南奉公路551-4号,杰宝大王电动车,杰宝大王
2019-11-26,36.089574850091005,120.35446924577136,马桥西街与新街交叉口西北50米,杰宝大王电动车,杰宝大王
2019-11-26,36.072227496663224,120.38945519114627,鼓浪路251-253号,杰宝大王电动车(泗泾专卖店),杰宝大王
2019-11-26,36.072227496663224,120.38945519114627,盐朝公路791-1号附近,杰宝大王电动车,杰宝大王
2019-11-26,36.072227496663224,120.38945519114627,新书路与老芦公路交叉口南50米,杰宝大王电动车,杰宝大王
2019-11-26,36.072227496663224,120.38945519114627,浦江镇三鲁公路2552号,杰宝大王电动车,杰宝大王
2019-11-26,36.072227496663224,120.38945519114627,温宿路33号,杰宝大王电动车(嘉定北大街店),杰宝大王
2019-11-26,36.072227496663224,120.38945519114627,顾太路99号,杰宝大王电动车(宝山专卖店),杰宝大王
2019-11-26,36.072227496663224,120.38945519114627,沪宜公路3183号,杰宝大王电动车,杰宝大王
2019-11-26,36.072227496663224,120.38945519114627,周家嘴路3322号,杰宝大王电动车,杰宝大王
2019-11-26,36.072227496663224,120.38945519114627,庄良路111弄2,杰宝大王电动车(步韵路),杰宝大王
2019-11-26,36.072227496663224,120.38945519114627,盛夏路1131号,杰宝大王电动车,杰宝大王
2019-11-26,36.072227496663224,120.38945519114627,涞坊路357,杰宝大王电动车,杰宝大王
2019-11-26,36.072227496663224,120.38945519114627,宣桥镇宣春路光明村731号,杰宝大王电动车,杰宝大王
2019-11-26,36.072227496663224,120.38945519114627,密云路430-2号,杰宝大王电动车(密云路店),杰宝大王
2019-11-26,36.072227496663224,120.38945519114627,淞宝路785号附近,杰宝大王电动车,杰宝大王
2019-11-26,36.072227496663224,120.38945519114627,广富林路1238号,杰宝大王电动车,杰宝大王
2019-11-26,36.072227496663224,120.38945519114627,益文路与虹梅南路交叉口南50米,杰宝大王电动车天龙车行,杰宝大王
2019-11-26,36.072227496663224,120.38945519114627,沪宜公路2446号,杰宝大王电动车大名车行(电动车大卖场),杰宝大王
2019-11-26,36.072227496663224,120.38945519114627,真华路1608号-2层,杰宝大王电动车(真华路),杰宝大王
2019-11-26,36.404195634823886,120.46674566671642,大同路670-672号,杰宝大王电动车(高桥专卖店),杰宝大王
2019-11-26,36.072227496663224,120.38945519114627,老芦公路834号附近,杰宝大王电动车(丽正路),杰宝大王
2019-11-26,36.072227496663224,120.38945519114627,解放西路605号附近,杰宝大王电动车,杰宝大王
2019-11-26,36.072227496663224,120.38945519114627,安丰路与纪鹤公路交叉口西北50米,杰宝大王电动车,杰宝大王
2019-11-26,36.14014529132335,120.3585828561932,万安路455号(江湾镇),杰宝大王电动车,杰宝大王
2019-11-26,36.072227496663224,120.38945519114627,徐行镇新建一路2118号,杰宝大王电动车,杰宝大王
2019-11-26,36.072227496663224,120.38945519114627,浦驰路138号附近,发奋商贸公司杰宝大王电动车,杰宝大王
2019-11-26,36.072227496663224,120.38945519114627,罗城路486号,杰宝大王电动车,杰宝大王
2019-11-26,36.072227496663224,120.38945519114627,平南路714-1临附近,杰宝大王,杰宝大王
2019-11-26,36.18584914949427,120.40539810174404,唐山路与安国路交叉口北50米,杰宝大王,杰宝大王
2019-11-26,36.072227496663224,120.38945519114627,西林北路335号,杰宝大王电动车(西林北路),杰宝大王
2019-11-26,36.072227496663224,120.38945519114627,马陆镇戬浜大治路398号,杰宝大王电动车(戬浜店),杰宝大王
2019-11-26,36.072227496663224,120.38945519114627,嘉松中路157号,新大洲&杰宝大王电动车,杰宝大王
2019-11-26,39.337108370541735,112.4393709396677,中山西路668号,杰宝大王电动车(中山西路店),杰宝大王
2019-11-26,39.337108370541735,112.4393709396677,颛桥镇贵都路355号,杰宝大王电动车,杰宝大王
2019-11-26,39.337108370541735,112.4393709396677,北翟路2942号附近,杰宝大王电动车,杰宝大王
2019-11-26,39.337108370541735,112.4393709396677,金桥经济技术开发区唐陆公路600号,杰宝大王电动车,杰宝大王
2019-11-26,39.337108370541735,112.4393709396677,嘉行公路2969号,杰宝大王电动车,杰宝大王
2019-11-26,39.337108370541735,112.4393709396677,莘庄镇莘朱路675号,杰宝大王电动车,杰宝大王
2019-11-26,39.337108370541735,112.4393709396677,闸航路2503,杰宝大王电动车,杰宝大王
2019-11-26,39.337108370541735,112.4393709396677,工业区宝钱公路3725号,杰宝大王电动车,杰宝大王
2019-11-26,39.337108370541735,112.4393709396677,青昆路79号,杰宝大王电动车,杰宝大王
2019-11-26,39.337108370541735,112.4393709396677,嘉松北路470号,杰宝大王电动车,杰宝大王
2019-11-26,39.337108370541735,112.4393709396677,外青松公路3068号附近,杰宝大王电动车,杰宝大王
2019-11-26,39.337108370541735,112.4393709396677,川沙新镇川南奉公路551-4号,杰宝大王电动车,杰宝大王
2019-11-26,39.337108370541735,112.4393709396677,鼓浪路251-253号,杰宝大王电动车(泗泾专卖店),杰宝大王
2019-11-26,39.337108370541735,112.4393709396677,马桥西街与新街交叉口西北50米,杰宝大王电动车,杰宝大王
2019-11-26,39.337108370541735,112.4393709396677,盐朝公路791-1号附近,杰宝大王电动车,杰宝大王
2019-11-26,39.337108370541735,112.4393709396677,新书路与老芦公路交叉口南50米,杰宝大王电动车,杰宝大王
2019-11-26,39.337108370541735,112.4393709396677,浦江镇三鲁公路2552号,杰宝大王电动车,杰宝大王
2019-11-26,39.337108370541735,112.4393709396677,温宿路33号,杰宝大王电动车(嘉定北大街店),杰宝大王
2019-11-26,39.337108370541735,112.4393709396677,顾太路99号,杰宝大王电动车(宝山专卖店),杰宝大王
2019-11-26,39.337108370541735,112.4393709396677,沪宜公路3183号,杰宝大王电动车,杰宝大王
2019-11-26,39.337108370541735,112.4393709396677,周家嘴路3322号,杰宝大王电动车,杰宝大王
2019-11-26,39.337108370541735,112.4393709396677,盛夏路1131号,杰宝大王电动车,杰宝大王
2019-11-26,39.337108370541735,112.4393709396677,庄良路111弄2,杰宝大王电动车(步韵路),杰宝大王
2019-11-26,39.337108370541735,112.4393709396677,涞坊路357,杰宝大王电动车,杰宝大王
2019-11-26,39.46527020780198,112.42285029286423,宣桥镇宣春路光明村731号,杰宝大王电动车,杰宝大王
2019-11-26,39.337108370541735,112.4393709396677,密云路430-2号,杰宝大王电动车(密云路店),杰宝大王
2019-11-26,39.337108370541735,112.4393709396677,广富林路1238号,杰宝大王电动车,杰宝大王
2019-11-26,39.337108370541735,112.4393709396677,淞宝路785号附近,杰宝大王电动车,杰宝大王
2019-11-26,39.337108370541735,112.4393709396677,益文路与虹梅南路交叉口南50米,杰宝大王电动车天龙车行,杰宝大王
2019-11-26,39.337108370541735,112.4393709396677,沪宜公路2446号,杰宝大王电动车大名车行(电动车大卖场),杰宝大王
2019-11-26,39.337108370541735,112.4393709396677,真华路1608号-2层,杰宝大王电动车(真华路),杰宝大王
2019-11-26,39.840729285523395,113.10647497918451,大同路670-672号,杰宝大王电动车(高桥专卖店),杰宝大王
2019-11-26,39.337108370541735,112.4393709396677,解放西路605号附近,杰宝大王电动车,杰宝大王
2019-11-26,39.337108370541735,112.4393709396677,老芦公路834号附近,杰宝大王电动车(丽正路),杰宝大王
2019-11-26,39.337108370541735,112.4393709396677,徐行镇新建一路2118号,杰宝大王电动车,杰宝大王
2019-11-26,39.337108370541735,112.4393709396677,安丰路与纪鹤公路交叉口西北50米,杰宝大王电动车,杰宝大王
2019-11-26,39.337108370541735,112.4393709396677,万安路455号(江湾镇),杰宝大王电动车,杰宝大王
2019-11-26,39.337108370541735,112.4393709396677,浦驰路138号附近,发奋商贸公司杰宝大王电动车,杰宝大王
2019-11-26,39.337108370541735,112.4393709396677,罗城路486号,杰宝大王电动车,杰宝大王
2019-11-26,39.337108370541735,112.4393709396677,平南路714-1临附近,杰宝大王,杰宝大王
2019-11-26,39.337108370541735,112.4393709396677,唐山路与安国路交叉口北50米,杰宝大王,杰宝大王
2019-11-26,39.337108370541735,112.4393709396677,西林北路335号,杰宝大王电动车(西林北路),杰宝大王
2019-11-26,39.337108370541735,112.4393709396677,马陆镇戬浜大治路398号,杰宝大王电动车(戬浜店),杰宝大王
2019-11-26,39.337108370541735,112.4393709396677,嘉松中路157号,新大洲&杰宝大王电动车,杰宝大王
2019-11-26,37.69283940975972,112.75959475565928,中山西路668号,杰宝大王电动车(中山西路店),杰宝大王
2019-11-26,37.69283940975972,112.75959475565928,颛桥镇贵都路355号,杰宝大王电动车,杰宝大王
2019-11-26,37.69283940975972,112.75959475565928,北翟路2942号附近,杰宝大王电动车,杰宝大王
2019-11-26,37.69283940975972,112.75959475565928,金桥经济技术开发区唐陆公路600号,杰宝大王电动车,杰宝大王
2019-11-26,37.69283940975972,112.75959475565928,嘉行公路2969号,杰宝大王电动车,杰宝大王
2019-11-26,37.69283940975972,112.75959475565928,莘庄镇莘朱路675号,杰宝大王电动车,杰宝大王
2019-11-26,37.69283940975972,112.75959475565928,闸航路2503,杰宝大王电动车,杰宝大王
2019-11-26,37.69283940975972,112.75959475565928,工业区宝钱公路3725号,杰宝大王电动车,杰宝大王
2019-11-26,37.69283940975972,112.75959475565928,青昆路79号,杰宝大王电动车,杰宝大王
2019-11-26,37.69283940975972,112.75959475565928,嘉松北路470号,杰宝大王电动车,杰宝大王
2019-11-26,37.69283940975972,112.75959475565928,外青松公路3068号附近,杰宝大王电动车,杰宝大王
2019-11-26,37.69283940975972,112.75959475565928,川沙新镇川南奉公路551-4号,杰宝大王电动车,杰宝大王
2019-11-26,37.69283940975972,112.75959475565928,鼓浪路251-253号,杰宝大王电动车(泗泾专卖店),杰宝大王
2019-11-26,36.85344020021648,111.78483131965783,马桥西街与新街交叉口西北50米,杰宝大王电动车,杰宝大王
2019-11-26,37.69283940975972,112.75959475565928,盐朝公路791-1号附近,杰宝大王电动车,杰宝大王
2019-11-26,37.69283940975972,112.75959475565928,新书路与老芦公路交叉口南50米,杰宝大王电动车,杰宝大王
2019-11-26,37.69283940975972,112.75959475565928,浦江镇三鲁公路2552号,杰宝大王电动车,杰宝大王
2019-11-26,37.69283940975972,112.75959475565928,温宿路33号,杰宝大王电动车(嘉定北大街店),杰宝大王
2019-11-26,37.69283940975972,112.75959475565928,顾太路99号,杰宝大王电动车(宝山专卖店),杰宝大王
2019-11-26,37.69283940975972,112.75959475565928,沪宜公路3183号,杰宝大王电动车,杰宝大王
2019-11-26,37.69283940975972,112.75959475565928,周家嘴路3322号,杰宝大王电动车,杰宝大王
2019-11-26,37.69283940975972,112.75959475565928,盛夏路1131号,杰宝大王电动车,杰宝大王
2019-11-26,37.69283940975972,112.75959475565928,庄良路111弄2,杰宝大王电动车(步韵路),杰宝大王
2019-11-26,37.69283940975972,112.75959475565928,涞坊路357,杰宝大王电动车,杰宝大王
2019-11-26,37.69283940975972,112.75959475565928,宣桥镇宣春路光明村731号,杰宝大王电动车,杰宝大王
2019-11-26,37.69283940975972,112.75959475565928,密云路430-2号,杰宝大王电动车(密云路店),杰宝大王
2019-11-26,37.69283940975972,112.75959475565928,广富林路1238号,杰宝大王电动车,杰宝大王
2019-11-26,37.69283940975972,112.75959475565928,淞宝路785号附近,杰宝大王电动车,杰宝大王
2019-11-26,37.69283940975972,112.75959475565928,益文路与虹梅南路交叉口南50米,杰宝大王电动车天龙车行,杰宝大王
2019-11-26,37.69283940975972,112.75959475565928,沪宜公路2446号,杰宝大王电动车大名车行(电动车大卖场),杰宝大王
2019-11-26,37.69283940975972,112.75959475565928,真华路1608号-2层,杰宝大王电动车(真华路),杰宝大王
2019-11-26,37.69283940975972,112.75959475565928,大同路670-672号,杰宝大王电动车(高桥专卖店),杰宝大王
2019-11-26,37.69283940975972,112.75959475565928,解放西路605号附近,杰宝大王电动车,杰宝大王
2019-11-26,37.69283940975972,112.75959475565928,老芦公路834号附近,杰宝大王电动车(丽正路),杰宝大王
2019-11-26,37.69283940975972,112.75959475565928,安丰路与纪鹤公路交叉口西北50米,杰宝大王电动车,杰宝大王
2019-11-26,37.69283940975972,112.75959475565928,万安路455号(江湾镇),杰宝大王电动车,杰宝大王
2019-11-26,37.69283940975972,112.75959475565928,徐行镇新建一路2118号,杰宝大王电动车,杰宝大王
2019-11-26,37.69283940975972,112.75959475565928,浦驰路138号附近,发奋商贸公司杰宝大王电动车,杰宝大王
2019-11-26,37.69283940975972,112.75959475565928,罗城路486号,杰宝大王电动车,杰宝大王
2019-11-26,37.20934458085084,112.20873189828636,平南路714-1临附近,杰宝大王,杰宝大王
2019-11-26,37.69283940975972,112.75959475565928,唐山路与安国路交叉口北50米,杰宝大王,杰宝大王
2019-11-26,37.69283940975972,112.75959475565928,西林北路335号,杰宝大王电动车(西林北路),杰宝大王
2019-11-26,37.69283940975972,112.75959475565928,马陆镇戬浜大治路398号,杰宝大王电动车(戬浜店),杰宝大王
2019-11-26,37.69283940975972,112.75959475565928,嘉松中路157号,新大洲&杰宝大王电动车,杰宝大王
2019-11-26,31.872888585956545,106.7515853031645,中山西路668号,杰宝大王电动车(中山西路店),杰宝大王
2019-11-26,31.872888585956545,106.7515853031645,颛桥镇贵都路355号,杰宝大王电动车,杰宝大王
2019-11-26,31.872888585956545,106.7515853031645,北翟路2942号附近,杰宝大王电动车,杰宝大王
2019-11-26,31.872888585956545,106.7515853031645,金桥经济技术开发区唐陆公路600号,杰宝大王电动车,杰宝大王
2019-11-26,31.872888585956545,106.7515853031645,嘉行公路2969号,杰宝大王电动车,杰宝大王
2019-11-26,31.872888585956545,106.7515853031645,莘庄镇莘朱路675号,杰宝大王电动车,杰宝大王
2019-11-26,31.872888585956545,106.7515853031645,闸航路2503,杰宝大王电动车,杰宝大王
2019-11-26,31.872888585956545,106.7515853031645,工业区宝钱公路3725号,杰宝大王电动车,杰宝大王
2019-11-26,31.872888585956545,106.7515853031645,青昆路79号,杰宝大王电动车,杰宝大王
2019-11-26,31.872888585956545,106.7515853031645,嘉松北路470号,杰宝大王电动车,杰宝大王
2019-11-26,31.872888585956545,106.7515853031645,外青松公路3068号附近,杰宝大王电动车,杰宝大王
2019-11-26,31.872888585956545,106.7515853031645,川沙新镇川南奉公路551-4号,杰宝大王电动车,杰宝大王
2019-11-26,31.872888585956545,106.7515853031645,鼓浪路251-253号,杰宝大王电动车(泗泾专卖店),杰宝大王
2019-11-26,31.826983545621285,107.34568267049492,马桥西街与新街交叉口西北50米,杰宝大王电动车,杰宝大王
2019-11-26,31.872888585956545,106.7515853031645,盐朝公路791-1号附近,杰宝大王电动车,杰宝大王
2019-11-26,31.872888585956545,106.7515853031645,新书路与老芦公路交叉口南50米,杰宝大王电动车,杰宝大王
2019-11-26,31.872888585956545,106.7515853031645,浦江镇三鲁公路2552号,杰宝大王电动车,杰宝大王
2019-11-26,31.872888585956545,106.7515853031645,温宿路33号,杰宝大王电动车(嘉定北大街店),杰宝大王
2019-11-26,31.872888585956545,106.7515853031645,顾太路99号,杰宝大王电动车(宝山专卖店),杰宝大王
2019-11-26,31.872888585956545,106.7515853031645,沪宜公路3183号,杰宝大王电动车,杰宝大王
2019-11-26,31.872888585956545,106.7515853031645,周家嘴路3322号,杰宝大王电动车,杰宝大王
2019-11-26,31.872888585956545,106.7515853031645,盛夏路1131号,杰宝大王电动车,杰宝大王
2019-11-26,31.872888585956545,106.7515853031645,庄良路111弄2,杰宝大王电动车(步韵路),杰宝大王
2019-11-26,31.872888585956545,106.7515853031645,涞坊路357,杰宝大王电动车,杰宝大王
2019-11-26,31.38317805719266,107.03932342750711,宣桥镇宣春路光明村731号,杰宝大王电动车,杰宝大王
2019-11-26,31.872888585956545,106.7515853031645,密云路430-2号,杰宝大王电动车(密云路店),杰宝大王
2019-11-26,31.872888585956545,106.7515853031645,淞宝路785号附近,杰宝大王电动车,杰宝大王
2019-11-26,31.872888585956545,106.7515853031645,广富林路1238号,杰宝大王电动车,杰宝大王
2019-11-26,31.872888585956545,106.7515853031645,益文路与虹梅南路交叉口南50米,杰宝大王电动车天龙车行,杰宝大王
2019-11-26,31.872888585956545,106.7515853031645,沪宜公路2446号,杰宝大王电动车大名车行(电动车大卖场),杰宝大王
2019-11-26,31.872888585956545,106.7515853031645,真华路1608号-2层,杰宝大王电动车(真华路),杰宝大王
2019-11-26,31.872888585956545,106.7515853031645,大同路670-672号,杰宝大王电动车(高桥专卖店),杰宝大王
2019-11-26,31.872888585956545,106.7515853031645,老芦公路834号附近,杰宝大王电动车(丽正路),杰宝大王
2019-11-26,31.872888585956545,106.7515853031645,解放西路605号附近,杰宝大王电动车,杰宝大王
2019-11-26,31.872888585956545,106.7515853031645,安丰路与纪鹤公路交叉口西北50米,杰宝大王电动车,杰宝大王
2019-11-26,31.872888585956545,106.7515853031645,徐行镇新建一路2118号,杰宝大王电动车,杰宝大王
2019-11-26,31.872888585956545,106.7515853031645,万安路455号(江湾镇),杰宝大王电动车,杰宝大王
2019-11-26,31.872888585956545,106.7515853031645,浦驰路138号附近,发奋商贸公司杰宝大王电动车,杰宝大王
2019-11-26,31.872888585956545,106.7515853031645,罗城路486号,杰宝大王电动车,杰宝大王
2019-11-26,31.872888585956545,106.7515853031645,平南路714-1临附近,杰宝大王,杰宝大王
2019-11-26,31.872888585956545,106.7515853031645,唐山路与安国路交叉口北50米,杰宝大王,杰宝大王
2019-11-26,31.872888585956545,106.7515853031645,西林北路335号,杰宝大王电动车(西林北路),杰宝大王
2019-11-26,31.872888585956545,106.7515853031645,马陆镇戬浜大治路398号,杰宝大王电动车(戬浜店),杰宝大王
2019-11-26,31.872888585956545,106.7515853031645,嘉松中路157号,新大洲&杰宝大王电动车,杰宝大王
2019-11-26,31.473663048745863,104.6855618607612,中山西路668号,杰宝大王电动车(中山西路店),杰宝大王
2019-11-26,31.473663048745863,104.6855618607612,颛桥镇贵都路355号,杰宝大王电动车,杰宝大王
2019-11-26,31.473663048745863,104.6855618607612,北翟路2942号附近,杰宝大王电动车,杰宝大王
2019-11-26,31.473663048745863,104.6855618607612,金桥经济技术开发区唐陆公路600号,杰宝大王电动车,杰宝大王
2019-11-26,31.473663048745863,104.6855618607612,嘉行公路2969号,杰宝大王电动车,杰宝大王
2019-11-26,31.473663048745863,104.6855618607612,莘庄镇莘朱路675号,杰宝大王电动车,杰宝大王
2019-11-26,31.473663048745863,104.6855618607612,闸航路2503,杰宝大王电动车,杰宝大王
2019-11-26,31.473663048745863,104.6855618607612,工业区宝钱公路3725号,杰宝大王电动车,杰宝大王
2019-11-26,31.473663048745863,104.6855618607612,青昆路79号,杰宝大王电动车,杰宝大王
2019-11-26,31.473663048745863,104.6855618607612,嘉松北路470号,杰宝大王电动车,杰宝大王
2019-11-26,31.473663048745863,104.6855618607612,外青松公路3068号附近,杰宝大王电动车,杰宝大王
2019-11-26,31.473663048745863,104.6855618607612,川沙新镇川南奉公路551-4号,杰宝大王电动车,杰宝大王
2019-11-26,31.473663048745863,104.6855618607612,鼓浪路251-253号,杰宝大王电动车(泗泾专卖店),杰宝大王
2019-11-26,31.10581459076634,104.99733345912462,马桥西街与新街交叉口西北50米,杰宝大王电动车,杰宝大王
2019-11-26,31.473663048745863,104.6855618607612,盐朝公路791-1号附近,杰宝大王电动车,杰宝大王
2019-11-26,31.473663048745863,104.6855618607612,新书路与老芦公路交叉口南50米,杰宝大王电动车,杰宝大王
2019-11-26,31.473663048745863,104.6855618607612,浦江镇三鲁公路2552号,杰宝大王电动车,杰宝大王
2019-11-26,31.473663048745863,104.6855618607612,温宿路33号,杰宝大王电动车(嘉定北大街店),杰宝大王
2019-11-26,31.473663048745863,104.6855618607612,顾太路99号,杰宝大王电动车(宝山专卖店),杰宝大王
2019-11-26,31.473663048745863,104.6855618607612,沪宜公路3183号,杰宝大王电动车,杰宝大王
2019-11-26,31.473663048745863,104.6855618607612,周家嘴路3322号,杰宝大王电动车,杰宝大王
2019-11-26,31.473663048745863,104.6855618607612,盛夏路1131号,杰宝大王电动车,杰宝大王
2019-11-26,31.473663048745863,104.6855618607612,庄良路111弄2,杰宝大王电动车(步韵路),杰宝大王
2019-11-26,31.473663048745863,104.6855618607612,涞坊路357,杰宝大王电动车,杰宝大王
2019-11-26,31.35339145141104,105.61230628589622,宣桥镇宣春路光明村731号,杰宝大王电动车,杰宝大王
2019-11-26,31.473663048745863,104.6855618607612,密云路430-2号,杰宝大王电动车(密云路店),杰宝大王
2019-11-26,31.473663048745863,104.6855618607612,淞宝路785号附近,杰宝大王电动车,杰宝大王
2019-11-26,31.473663048745863,104.6855618607612,广富林路1238号,杰宝大王电动车,杰宝大王
2019-11-26,31.473663048745863,104.6855618607612,益文路与虹梅南路交叉口南50米,杰宝大王电动车天龙车行,杰宝大王
2019-11-26,31.473663048745863,104.6855618607612,沪宜公路2446号,杰宝大王电动车大名车行(电动车大卖场),杰宝大王
2019-11-26,31.473663048745863,104.6855618607612,真华路1608号-2层,杰宝大王电动车(真华路),杰宝大王
2019-11-26,31.473663048745863,104.6855618607612,大同路670-672号,杰宝大王电动车(高桥专卖店),杰宝大王
2019-11-26,31.473663048745863,104.6855618607612,老芦公路834号附近,杰宝大王电动车(丽正路),杰宝大王
2019-11-26,31.78826450471457,104.74067358920543,安丰路与纪鹤公路交叉口西北50米,杰宝大王电动车,杰宝大王
2019-11-26,31.473663048745863,104.6855618607612,解放西路605号附近,杰宝大王电动车,杰宝大王
2019-11-26,31.473663048745863,104.6855618607612,万安路455号(江湾镇),杰宝大王电动车,杰宝大王
2019-11-26,31.473663048745863,104.6855618607612,徐行镇新建一路2118号,杰宝大王电动车,杰宝大王
2019-11-26,31.473663048745863,104.6855618607612,浦驰路138号附近,发奋商贸公司杰宝大王电动车,杰宝大王
2019-11-26,31.473663048745863,104.6855618607612,罗城路486号,杰宝大王电动车,杰宝大王
2019-11-26,31.473663048745863,104.6855618607612,平南路714-1临附近,杰宝大王,杰宝大王
2019-11-26,31.473663048745863,104.6855618607612,唐山路与安国路交叉口北50米,杰宝大王,杰宝大王
2019-11-26,31.473663048745863,104.6855618607612,西林北路335号,杰宝大王电动车(西林北路),杰宝大王
2019-11-26,31.473663048745863,104.6855618607612,马陆镇戬浜大治路398号,杰宝大王电动车(戬浜店),杰宝大王
2019-11-26,31.473663048745863,104.6855618607612,嘉松中路157号,新大洲&杰宝大王电动车,杰宝大王
2019-11-26,30.541447401292388,106.44370416355794,环城西路北段86弄13号,杰宝大王电动车,杰宝大王
2019-11-26,30.13495655925314,104.6344353416441,庄市西陆路140号,杰宝大王电动车,杰宝大王
2019-11-26,30.13495655925314,104.6344353416441,环城西路北段86弄13号,杰宝大王电动车,杰宝大王
2019-11-26,30.13495655925314,104.6344353416441,李家西路125号,杰宝大王电动车,杰宝大王
2019-11-26,30.13495655925314,104.6344353416441,永达西路56号,杰宝大王电动车(永达西路店),杰宝大王
2019-11-26,28.975545802265025,118.86659674035565,庄市西陆路140号,杰宝大王电动车,杰宝大王
2019-11-26,29.028167760840702,119.17201074126972,环城西路北段86弄13号,杰宝大王电动车,杰宝大王
2019-11-26,28.975545802265025,118.86659674035565,李家西路125号,杰宝大王电动车,杰宝大王
2019-11-26,28.975545802265025,118.86659674035565,永达西路56号,杰宝大王电动车(永达西路店),杰宝大王
2019-11-26,28.66219405599615,121.42743470427969,庄市西陆路140号,杰宝大王电动车,杰宝大王
2019-11-26,28.855544305364205,120.73431112911561,环城西路北段86弄13号,杰宝大王电动车,杰宝大王
2019-11-26,28.66219405599615,121.42743470427969,李家西路125号,杰宝大王电动车,杰宝大王
2019-11-26,28.66219405599615,121.42743470427969,永达西路56号,杰宝大王电动车(永达西路店),杰宝大王
2019-11-26,29.99091168016034,122.21355631852045,庄市西陆路140号,杰宝大王电动车,杰宝大王
2019-11-26,30.02140023350559,122.1089436405098,环城西路北段86弄13号,杰宝大王电动车,杰宝大王
2019-11-26,29.99091168016034,122.21355631852045,李家西路125号,杰宝大王电动车,杰宝大王
2019-11-26,29.99091168016034,122.21355631852045,永达西路56号,杰宝大王电动车(永达西路店),杰宝大王
2019-11-26,36.02161725801098,106.24857742607188,庄市西陆路140号,杰宝大王电动车,杰宝大王
2019-11-26,36.02161725801098,106.24857742607188,环城西路北段86弄13号,杰宝大王电动车,杰宝大王
2019-11-26,36.02161725801098,106.24857742607188,李家西路125号,杰宝大王电动车,杰宝大王
2019-11-26,36.02161725801098,106.24857742607188,永达西路56号,杰宝大王电动车(永达西路店),杰宝大王
2019-11-26,34.98913990996821,102.91758468825803,庄市西陆路140号,杰宝大王电动车,杰宝大王
2019-11-26,34.98913990996821,102.91758468825803,环城西路北段86弄13号,杰宝大王电动车,杰宝大王
2019-11-26,34.98913990996821,102.91758468825803,李家西路125号,杰宝大王电动车,杰宝大王
2019-11-26,34.98913990996821,102.91758468825803,永达西路56号,杰宝大王电动车(永达西路店),杰宝大王
2019-11-26,29.58588653832045,105.06458802499718,庄市西陆路140号,杰宝大王电动车,杰宝大王
2019-11-26,29.58588653832045,105.06458802499718,环城西路北段86弄13号,杰宝大王电动车,杰宝大王
2019-11-26,29.58588653832045,105.06458802499718,李家西路125号,杰宝大王电动车,杰宝大王
2019-11-26,29.58588653832045,105.06458802499718,永达西路56号,杰宝大王电动车(永达西路店),杰宝大王
2019-11-26,26.41429689484048,103.2824895802964,云南省曲靖市会泽县会曲线,上海杰宝大王电动车(会泽店),杰宝大王
2019-11-26,32.63355587054924,116.85103122642853,安徽省淮南市八公山区建北路,杰宝大王电动车,杰宝大王
2019-11-26,32.715103905085066,116.71757320891433,淮南市凤台县026县道南50米,杰宝大王电动车,杰宝大王
2019-11-26,32.931313576024976,115.81542555643966,安徽省阜阳市颍泉区柳荫路,杰宝大王电动车,杰宝大王
2019-11-26,32.891195643868215,115.81724157085864,安徽省阜阳市颍州区阜王路426号,杰宝大王电动车,杰宝大王
2019-11-26,32.66409738512507,115.60254592516004,安徽省阜阳市阜南县X048(中科北路),杰宝大王电动车,杰宝大王
2019-11-26,32.6480776925571,115.60060292357927,安徽省阜阳市阜南县焦阳路,杰宝大王电动车,杰宝大王
2019-11-26,31.629002428816317,117.89557620044565,073乡道南50米,杰宝大王电动车,杰宝大王
2019-11-26,32.65652081463746,116.26933868474985,安徽省阜阳市颍上县颍阳路辅路,杰宝大王电动车(颍上二店),杰宝大王
2019-11-26,32.636001081541,116.26674947093099,安徽省阜阳市颍上县慎城镇人民西路115号杰宝大王,杰宝大王,杰宝大王
2019-11-26,33.166672258004006,115.6429204459671,阜阳市太和县曙光小区28号,杰宝大王雅杰电动车批发(太和办事处),杰宝大王
2019-11-26,32.665229994135245,115.61109267327363,安徽省阜阳市阜南县经三路,杰宝大王,杰宝大王
2019-11-26,29.71855170819329,118.32497318404035,黄山东路17-3号,杰宝大王电动车(镇江店),杰宝大王
2019-11-26,32.20378548352827,119.47560369584319,江苏省镇江市京口区,杰宝大王电动车,杰宝大王
2019-11-26,32.203986263947506,119.45049184468476,江苏省镇江市润州区黄山东路22-106号南80米,杰宝大王电动车,杰宝大王
2019-11-26,32.09465103798745,119.77296082438323,江苏省镇江市丹阳市中心大街,杰宝大王电动车专卖,杰宝大王
2019-11-26,23.110146001635474,114.42238500924715,下蜀镇桥头西路66号附近,杰宝大王电动车,杰宝大王
2019-11-26,32.21292461758689,119.48719955246793,江苏省镇江市京口区小米山路128号,宝杰大王电动车,杰宝大王
2019-11-26,32.20378548352827,119.47560369584319,镇江市京口区,杰宝大王电动车专卖,杰宝大王
2019-11-26,32.09225465035664,121.49562796731927,南通市海门市闸西中路与037县道交叉口西北50米,杰宝大王电动车,杰宝大王
2019-11-26,32.01822633000947,121.27690358849324,江苏省南通市海门市人民路589东南80米,杰宝大王电动车,杰宝大王
2019-11-26,32.53919574424043,120.47443309577918,南通市海安市,杰宝大王电动车,杰宝大王
2019-11-26,31.799827072839868,121.56238095993517,江苏省南通市启东市万安医院西北50米(沿江线北),杰宝大王电动车,杰宝大王
2019-11-26,32.33587288615511,121.19243791023843,江苏省南通市如东县,杰宝大王电动车,杰宝大王
2019-11-26,31.965998572320682,121.13077148633545,江苏省南通市海门市三星大道,杰宝大王电动车,杰宝大王
2019-11-26,26.269736515991838,117.64552116782143,海营线与331乡道交叉口远东批发超市旁,杰宝大王电动车,杰宝大王
2019-11-26,32.53797712521865,120.96210551891751,江苏省南通市如东县闸西中路与037县道交叉口西北50米,杰宝大王电动车,杰宝大王
2019-11-26,31.811381339765695,121.6617791410383,江苏省南通市启东市江海中路357号,杰宝大王电动车,杰宝大王
2019-11-26,26.269736515991838,117.64552116782143,白古线与墩南线交叉口(313县道),杰宝大王电动车,杰宝大王
2019-11-26,31.844700821504286,121.73276883528686,江苏省南通市启东市合汇线,杰宝大王电动车,杰宝大王
2019-11-26,31.760689295726085,121.65817799414717,江苏省南通市启东市沿江线,杰宝大王电动车,杰宝大王
2019-11-26,32.49354531875041,120.39592804468491,江苏省南通市海安市X213(胡孙线),杰宝大王电动车,杰宝大王
2019-11-26,31.794000622497393,121.47450266665814,江苏省南通市海门市永兴中路,杰宝大王电动车,杰宝大王
2019-11-26,32.09108294739848,121.43789713753351,江苏省南通市海门市环卫路,杰宝大王电动车,杰宝大王
2019-11-26,26.269736515991838,117.64552116782143,农民街与汇大线交叉口南50米,杰宝大王电动车,杰宝大王
2019-11-26,31.964556746463455,121.12404398294743,江苏省南通市海门市国土局工业园区分局(洋海线西),杰宝大王电动车,杰宝大王
2019-11-26,31.715781862573415,121.8642802428216,江苏省南通市启东市振阳路14号,杰宝大王电动车,杰宝大王
2019-11-26,26.269736515991838,117.64552116782143,孙倪线雅周镇倪庄小学,杰宝大王电动车,杰宝大王
2019-11-26,26.269736515991838,117.64552116782143,松花江东路164号附近,杰宝大王电动车,杰宝大王
2019-11-26,32.04096777375197,121.71121878074668,江苏省南通市启东市吕蒿线,杰宝大王电动车,杰宝大王
2019-11-26,32.05903573974411,121.60888731415335,江苏省南通市启东市吕四港镇菜园来鹤路金鹤广场服饰城旁,杰宝·大王电动车,杰宝大王
2019-11-26,32.063041673798764,121.49864320072965,江苏省南通市海门市六甲街,杰宝大王电动车(刘浩店),杰宝大王
2019-11-26,32.4629628852198,121.00609458304577,江苏省南通市如东县中国邮政北(六甲街北),杰宝大王电动车(刘浩店),杰宝大王
2019-11-26,32.54766552949432,120.45597628080495,江苏省南通市海安市人民西路36-13,杰宝大王电动车(海安专卖店),杰宝大王
2019-11-26,26.269736515991838,117.64552116782143,X313(纬洲路),上海杰宝大王电动车(吉庆店),杰宝大王
2019-11-26,26.363112694201675,117.21254015791885,创维电视专卖(313县道南),杰宝大王电动车(隆政店),杰宝大王
2019-11-26,32.067279532464156,121.42977543614656,江苏省南通市海门市海门港新区包场镇包新街315号,上海杰宝·大王电动车,杰宝大王
2019-11-26,32.066148819905386,121.55137590896298,江苏省南通市启东市吕四港镇221省道天汾小学南200米,杰宝大王,杰宝大王
2019-11-26,31.96570527270523,121.57590272518345,江苏省南通市海门市吕北线,杰宝大王电动车(兆民镇专卖店),杰宝大王
2019-11-26,32.503466039784975,120.33437460066591,江苏省南通市海安市曲塘镇G328(旧)香溢花城附近,杰宝大王电动车(曲塘专卖店),杰宝大王
2019-11-26,26.269736515991838,117.64552116782143,人民西路36-13,杰宝大王电动车(海安专卖店),杰宝大王
2019-11-26,26.269736515991838,117.64552116782143,合作镇志圩线大江中学东南300米,杰宝大王电动车(新日电动),杰宝大王
2019-11-26,26.269736515991838,117.64552116782143,通港街12号,杰宝大王电动车(新港专卖店),杰宝大王
2019-11-26,32.62269752187865,120.40173836826585,江苏省南通市海安市X212(仇海线),杰宝大王电动车(海安隆政店),杰宝大王
2019-11-26,31.98560231045621,121.43103425501363,江苏省南通市海门市盛昌中路289号附近,杰宝大王电动车(万年镇专卖店),杰宝大王
2019-11-26,32.55060138373092,120.46426678547519,南通市海安市中坝北路6号,杰宝·大王电动车,杰宝大王
2019-11-26,31.83242885799244,121.59895108414473,江苏省南通市启东市名人路,杰宝大王,杰宝大王
2019-11-26,25.69512697568481,117.87463003552138,南通市海安市鑫雅路与208县道交叉口东南150米海安市公安局交巡警大队雅周中队附近,杰宝大王,杰宝大王
2019-11-26,32.55067424553539,120.46222880695116,江苏省南通市海安市海安镇中坝北路实验中学东200米,超威电池捷安特电动车杰宝大王维修部,杰宝大王
2019-11-26,32.4705021580094,120.44915205955762,江苏省南通市海安市X213(海营线),捷安特杰宝大王电动车,杰宝大王
2019-11-26,32.54522904361129,120.44074798661325,江苏省南通市海安市中国邮政东60米(315县道北),杰宝大王吉祥林车业,杰宝大王
2019-11-26,31.92522937107247,121.62961454779554,江苏省南通市启东市志圩线,杰宝大王,杰宝大王
2019-11-26,24.51892979117087,117.65357645298785,海营线与331乡道交叉口远东批发超市旁,杰宝大王电动车,杰宝大王
2019-11-26,24.51892979117087,117.65357645298785,白古线与墩南线交叉口(313县道),杰宝大王电动车,杰宝大王
2019-11-26,24.505603850816712,117.66327428977871,江苏省南通市启东市沿江线,杰宝大王电动车,杰宝大王
2019-11-26,24.51892979117087,117.65357645298785,农民街与汇大线交叉口南50米,杰宝大王电动车,杰宝大王
2019-11-26,24.51892979117087,117.65357645298785,孙倪线雅周镇倪庄小学,杰宝大王电动车,杰宝大王
2019-11-26,24.51892979117087,117.65357645298785,松花江东路164号附近,杰宝大王电动车,杰宝大王
2019-11-26,24.51892979117087,117.65357645298785,X313(纬洲路),上海杰宝大王电动车(吉庆店),杰宝大王
2019-11-26,24.371091044423952,117.32469153469988,创维电视专卖(313县道南),杰宝大王电动车(隆政店),杰宝大王
2019-11-26,24.453066196817964,117.81595268100186,人民西路36-13,杰宝大王电动车(海安专卖店),杰宝大王
2019-11-26,24.376359543621778,117.8404951447979,合作镇志圩线大江中学东南300米,杰宝大王电动车(新日电动),杰宝大王
2019-11-26,24.51892979117087,117.65357645298785,通港街12号,杰宝大王电动车(新港专卖店),杰宝大王
2019-11-26,24.513539420073688,117.69610942226022,南通市海安市鑫雅路与208县道交叉口东南150米海安市公安局交巡警大队雅周中队附近,杰宝大王,杰宝大王
2019-11-26,33.40662022995126,104.92857497071192,海营线与331乡道交叉口远东批发超市旁,杰宝大王电动车,杰宝大王
2019-11-26,33.40662022995126,104.92857497071192,白古线与墩南线交叉口(313县道),杰宝大王电动车,杰宝大王
2019-11-26,33.40662022995126,104.92857497071192,农民街与汇大线交叉口南50米,杰宝大王电动车,杰宝大王
2019-11-26,33.40662022995126,104.92857497071192,孙倪线雅周镇倪庄小学,杰宝大王电动车,杰宝大王
2019-11-26,33.40662022995126,104.92857497071192,松花江东路164号附近,杰宝大王电动车,杰宝大王
2019-11-26,33.40662022995126,104.92857497071192,X313(纬洲路),上海杰宝大王电动车(吉庆店),杰宝大王
2019-11-26,34.047242867722645,104.40550927903975,创维电视专卖(313县道南),杰宝大王电动车(隆政店),杰宝大王
2019-11-26,33.335660235994276,105.59661377436615,人民西路36-13,杰宝大王电动车(海安专卖店),杰宝大王
2019-11-26,33.40662022995126,104.92857497071192,通港街12号,杰宝大王电动车(新港专卖店),杰宝大王
2019-11-26,33.40662022995126,104.92857497071192,合作镇志圩线大江中学东南300米,杰宝大王电动车(新日电动),杰宝大王
2019-11-26,32.3998069143303,120.34281171777845,南通市海安市鑫雅路与208县道交叉口东南150米海安市公安局交巡警大队雅周中队附近,杰宝大王,杰宝大王
2019-11-26,23.467322134068365,113.26734980354597,南通市海门市闸西中路与037县道交叉口西北50米,杰宝大王电动车,杰宝大王
2019-11-26,23.467322134068365,113.26734980354597,江苏省南通市如东县闸西中路与037县道交叉口西北50米,杰宝大王电动车,杰宝大王
2019-11-26,23.135336306695006,113.27143134445974,海营线与331乡道交叉口远东批发超市旁,杰宝大王电动车,杰宝大王
2019-11-26,23.467322134068365,113.26734980354597,白古线与墩南线交叉口(313县道),杰宝大王电动车,杰宝大王
2019-11-26,23.135336306695006,113.27143134445974,农民街与汇大线交叉口南50米,杰宝大王电动车,杰宝大王
2019-11-26,23.135336306695006,113.27143134445974,孙倪线雅周镇倪庄小学,杰宝大王电动车,杰宝大王
2019-11-26,23.100931760317003,113.27528273950196,松花江东路164号附近,杰宝大王电动车,杰宝大王
2019-11-26,23.135336306695006,113.27143134445974,X313(纬洲路),上海杰宝大王电动车(吉庆店),杰宝大王
2019-11-26,23.475202944767958,113.16499840089226,创维电视专卖(313县道南),杰宝大王电动车(隆政店),杰宝大王
2019-11-26,23.212296640521217,113.83549480111546,合作镇志圩线大江中学东南300米,杰宝大王电动车(新日电动),杰宝大王
2019-11-26,23.135336306695006,113.27143134445974,人民西路36-13,杰宝大王电动车(海安专卖店),杰宝大王
2019-11-26,23.135336306695006,113.27143134445974,通港街12号,杰宝大王电动车(新港专卖店),杰宝大王
2019-11-26,22.785231404207202,113.49219198956658,南通市海安市鑫雅路与208县道交叉口东南150米海安市公安局交巡警大队雅周中队附近,杰宝大王,杰宝大王
2019-11-26,22.920911970342857,112.05151269959146,海营线与331乡道交叉口远东批发超市旁,杰宝大王电动车,杰宝大王
2019-11-26,22.920911970342857,112.05151269959146,白古线与墩南线交叉口(313县道),杰宝大王电动车,杰宝大王
2019-11-26,22.88761104562321,112.29616330991446,农民街与汇大线交叉口南50米,杰宝大王电动车,杰宝大王
2019-11-26,22.920911970342857,112.05151269959146,孙倪线雅周镇倪庄小学,杰宝大王电动车,杰宝大王
2019-11-26,22.920911970342857,112.05151269959146,松花江东路164号附近,杰宝大王电动车,杰宝大王
2019-11-26,22.920911970342857,112.05151269959146,X313(纬洲路),上海杰宝大王电动车(吉庆店),杰宝大王
2019-11-26,22.937472623879707,112.04952897153441,创维电视专卖(313县道南),杰宝大王电动车(隆政店),杰宝大王
2019-11-26,22.920911970342857,112.05151269959146,人民西路36-13,杰宝大王电动车(海安专卖店),杰宝大王
2019-11-26,22.920911970342857,112.05151269959146,通港街12号,杰宝大王电动车(新港专卖店),杰宝大王
2019-11-26,22.486609336173743,112.13003259605661,合作镇志圩线大江中学东南300米,杰宝大王电动车(新日电动),杰宝大王
2019-11-26,23.555740488275585,116.37851218033846,海营线与331乡道交叉口远东批发超市旁,杰宝大王电动车,杰宝大王
2019-11-26,23.555740488275585,116.37851218033846,白古线与墩南线交叉口(313县道),杰宝大王电动车,杰宝大王
2019-11-26,23.555740488275585,116.37851218033846,农民街与汇大线交叉口南50米,杰宝大王电动车,杰宝大王
2019-11-26,23.555740488275585,116.37851218033846,孙倪线雅周镇倪庄小学,杰宝大王电动车,杰宝大王
2019-11-26,23.555740488275585,116.37851218033846,松花江东路164号附近,杰宝大王电动车,杰宝大王
2019-11-26,32.2718353409675,121.30618952849197,江苏省南通市如东县中国邮政北(六甲街北),杰宝大王电动车(刘浩店),杰宝大王
2019-11-26,23.555740488275585,116.37851218033846,X313(纬洲路),上海杰宝大王电动车(吉庆店),杰宝大王
2019-11-26,23.592396181538856,116.33287421807188,创维电视专卖(313县道南),杰宝大王电动车(隆政店),杰宝大王
2019-11-26,23.555740488275585,116.37851218033846,人民西路36-13,杰宝大王电动车(海安专卖店),杰宝大王
2019-11-26,23.58323403585843,116.07829497561151,合作镇志圩线大江中学东南300米,杰宝大王电动车(新日电动),杰宝大王
2019-11-26,23.555740488275585,116.37851218033846,通港街12号,杰宝大王电动车(新港专卖店),杰宝大王
2019-11-26,24.409450902865487,111.57352631416218,海营线与331乡道交叉口远东批发超市旁,杰宝大王电动车,杰宝大王
2019-11-26,24.409450902865487,111.57352631416218,白古线与墩南线交叉口(313县道),杰宝大王电动车,杰宝大王
2019-11-26,24.409450902865487,111.57352631416218,农民街与汇大线交叉口南50米,杰宝大王电动车,杰宝大王
2019-11-26,24.409450902865487,111.57352631416218,孙倪线雅周镇倪庄小学,杰宝大王电动车,杰宝大王
2019-11-26,24.409450902865487,111.57352631416218,松花江东路164号附近,杰宝大王电动车,杰宝大王
2019-11-26,24.409450902865487,111.57352631416218,X313(纬洲路),上海杰宝大王电动车(吉庆店),杰宝大王
2019-11-26,24.321066941035586,111.45219587202213,创维电视专卖(313县道南),杰宝大王电动车(隆政店),杰宝大王
2019-11-26,24.409450902865487,111.57352631416218,人民西路36-13,杰宝大王电动车(海安专卖店),杰宝大王
2019-11-26,24.24387208273794,111.6299242696543,合作镇志圩线大江中学东南300米,杰宝大王电动车(新日电动),杰宝大王
2019-11-26,24.409450902865487,111.57352631416218,通港街12号,杰宝大王电动车(新港专卖店),杰宝大王
2019-11-26,24.530550899092944,111.3078643173067,南通市海安市鑫雅路与208县道交叉口东南150米海安市公安局交巡警大队雅周中队附近,杰宝大王,杰宝大王
2019-11-26,22.822606601187154,108.37345082581861,海营线与331乡道交叉口远东批发超市旁,杰宝大王电动车,杰宝大王
2019-11-26,22.822606601187154,108.37345082581861,白古线与墩南线交叉口(313县道),杰宝大王电动车,杰宝大王
2019-11-26,22.822606601187154,108.37345082581861,农民街与汇大线交叉口南50米,杰宝大王电动车,杰宝大王
2019-11-26,22.822606601187154,108.37345082581861,孙倪线雅周镇倪庄小学,杰宝大王电动车,杰宝大王
2019-11-26,22.822606601187154,108.37345082581861,松花江东路164号附近,杰宝大王电动车,杰宝大王
2019-11-26,22.822606601187154,108.37345082581861,X313(纬洲路),上海杰宝大王电动车(吉庆店),杰宝大王
2019-11-26,22.800179462180495,108.31538229157013,创维电视专卖(313县道南),杰宝大王电动车(隆政店),杰宝大王
2019-11-26,22.82190769638815,108.32019819723808,人民西路36-13,杰宝大王电动车(海安专卖店),杰宝大王
2019-11-26,22.822606601187154,108.37345082581861,通港街12号,杰宝大王电动车(新港专卖店),杰宝大王
2019-11-26,23.312748597486763,108.62061662239921,合作镇志圩线大江中学东南300米,杰宝大王电动车(新日电动),杰宝大王
2019-11-26,22.70092703489188,109.29130148711836,南通市海安市鑫雅路与208县道交叉口东南150米海安市公安局交巡警大队雅周中队附近,杰宝大王,杰宝大王
2019-11-26,27.731700878916666,106.93342774801829,海营线与331乡道交叉口远东批发超市旁,杰宝大王电动车,杰宝大王
2019-11-26,27.731700878916666,106.93342774801829,白古线与墩南线交叉口(313县道),杰宝大王电动车,杰宝大王
2019-11-26,28.58682399889329,105.7097259793265,农民街与汇大线交叉口南50米,杰宝大王电动车,杰宝大王
2019-11-26,27.731700878916666,106.93342774801829,孙倪线雅周镇倪庄小学,杰宝大王电动车,杰宝大王
2019-11-26,27.731700878916666,106.93342774801829,松花江东路164号附近,杰宝大王电动车,杰宝大王
2019-11-26,27.731700878916666,106.93342774801829,X313(纬洲路),上海杰宝大王电动车(吉庆店),杰宝大王
2019-11-26,28.877409344428976,107.6155956520677,创维电视专卖(313县道南),杰宝大王电动车(隆政店),杰宝大王
2019-11-26,28.588802712278234,105.70968050581833,人民西路36-13,杰宝大王电动车(海安专卖店),杰宝大王
2019-11-26,27.731700878916666,106.93342774801829,合作镇志圩线大江中学东南300米,杰宝大王电动车(新日电动),杰宝大王
2019-11-26,27.731700878916666,106.93342774801829,通港街12号,杰宝大王电动车(新港专卖店),杰宝大王
2019-11-26,26.25925237871499,105.95441712388904,海营线与331乡道交叉口远东批发超市旁,杰宝大王电动车,杰宝大王
2019-11-26,26.25925237871499,105.95441712388904,白古线与墩南线交叉口(313县道),杰宝大王电动车,杰宝大王
2019-11-26,26.25925237871499,105.95441712388904,农民街与汇大线交叉口南50米,杰宝大王电动车,杰宝大王
2019-11-26,26.25925237871499,105.95441712388904,孙倪线雅周镇倪庄小学,杰宝大王电动车,杰宝大王
2019-11-26,26.25925237871499,105.95441712388904,松花江东路164号附近,杰宝大王电动车,杰宝大王
2019-11-26,26.25925237871499,105.95441712388904,X313(纬洲路),上海杰宝大王电动车(吉庆店),杰宝大王
2019-11-26,26.17263844875068,105.85821120888816,创维电视专卖(313县道南),杰宝大王电动车(隆政店),杰宝大王
2019-11-26,26.25925237871499,105.95441712388904,人民西路36-13,杰宝大王电动车(海安专卖店),杰宝大王
2019-11-26,26.25925237871499,105.95441712388904,合作镇志圩线大江中学东南300米,杰宝大王电动车(新日电动),杰宝大王
2019-11-26,26.25925237871499,105.95441712388904,通港街12号,杰宝大王电动车(新港专卖店),杰宝大王
2019-11-26,40.7732372026915,114.89257223145165,海营线与331乡道交叉口远东批发超市旁,杰宝大王电动车,杰宝大王
2019-11-26,40.7732372026915,114.89257223145165,白古线与墩南线交叉口(313县道),杰宝大王电动车,杰宝大王
2019-11-26,40.7732372026915,114.89257223145165,农民街与汇大线交叉口南50米,杰宝大王电动车,杰宝大王
2019-11-26,40.7732372026915,114.89257223145165,孙倪线雅周镇倪庄小学,杰宝大王电动车,杰宝大王
2019-11-26,40.7732372026915,114.89257223145165,松花江东路164号附近,杰宝大王电动车,杰宝大王
2019-11-26,40.7732372026915,114.89257223145165,X313(纬洲路),上海杰宝大王电动车(吉庆店),杰宝大王
2019-11-26,40.61456317601706,115.10463067674931,人民西路36-13,杰宝大王电动车(海安专卖店),杰宝大王
2019-11-26,40.7732372026915,114.89257223145165,合作镇志圩线大江中学东南300米,杰宝大王电动车(新日电动),杰宝大王
2019-11-26,40.7732372026915,114.89257223145165,通港街12号,杰宝大王电动车(新港专卖店),杰宝大王
2019-11-26,39.95738457004447,114.77263470179528,创维电视专卖(313县道南),杰宝大王电动车(隆政店),杰宝大王
2019-11-26,39.832526585685706,118.12803533724788,唐山路与安国路交叉口北50米,杰宝大王,杰宝大王
2019-11-26,37.07668595096609,114.51146225612979,中山西路668号,杰宝大王电动车(中山西路店),杰宝大王
2019-11-26,37.07668595096609,114.51146225612979,颛桥镇贵都路355号,杰宝大王电动车,杰宝大王
2019-11-26,37.07668595096609,114.51146225612979,北翟路2942号附近,杰宝大王电动车,杰宝大王
2019-11-26,37.07668595096609,114.51146225612979,金桥经济技术开发区唐陆公路600号,杰宝大王电动车,杰宝大王
2019-11-26,37.07668595096609,114.51146225612979,嘉行公路2969号,杰宝大王电动车,杰宝大王
2019-11-26,37.07668595096609,114.51146225612979,莘庄镇莘朱路675号,杰宝大王电动车,杰宝大王
2019-11-26,37.07668595096609,114.51146225612979,闸航路2503,杰宝大王电动车,杰宝大王
2019-11-26,37.07668595096609,114.51146225612979,工业区宝钱公路3725号,杰宝大王电动车,杰宝大王
2019-11-26,37.07668595096609,114.51146225612979,青昆路79号,杰宝大王电动车,杰宝大王
2019-11-26,37.07668595096609,114.51146225612979,嘉松北路470号,杰宝大王电动车,杰宝大王
2019-11-26,37.07668595096609,114.51146225612979,外青松公路3068号附近,杰宝大王电动车,杰宝大王
2019-11-26,37.07668595096609,114.51146225612979,鼓浪路251-253号,杰宝大王电动车(泗泾专卖店),杰宝大王
2019-11-26,37.07668595096609,114.51146225612979,川沙新镇川南奉公路551-4号,杰宝大王电动车,杰宝大王
2019-11-26,37.07668595096609,114.51146225612979,马桥西街与新街交叉口西北50米,杰宝大王电动车,杰宝大王
2019-11-26,37.07668595096609,114.51146225612979,盐朝公路791-1号附近,杰宝大王电动车,杰宝大王
2019-11-26,37.07668595096609,114.51146225612979,新书路与老芦公路交叉口南50米,杰宝大王电动车,杰宝大王
2019-11-26,37.07668595096609,114.51146225612979,浦江镇三鲁公路2552号,杰宝大王电动车,杰宝大王
2019-11-26,37.07668595096609,114.51146225612979,温宿路33号,杰宝大王电动车(嘉定北大街店),杰宝大王
2019-11-26,37.07668595096609,114.51146225612979,顾太路99号,杰宝大王电动车(宝山专卖店),杰宝大王
2019-11-26,37.07668595096609,114.51146225612979,沪宜公路3183号,杰宝大王电动车,杰宝大王
2019-11-26,37.07668595096609,114.51146225612979,周家嘴路3322号,杰宝大王电动车,杰宝大王
2019-11-26,37.07668595096609,114.51146225612979,盛夏路1131号,杰宝大王电动车,杰宝大王
2019-11-26,37.07668595096609,114.51146225612979,庄良路111弄2,杰宝大王电动车(步韵路),杰宝大王
2019-11-26,37.07668595096609,114.51146225612979,涞坊路357,杰宝大王电动车,杰宝大王
