add_time,lat,lon,store_address,store_name,topic
2019-11-26,28.555219430823207,115.94837442774697,南昌县团结北路与站前西路交叉口东北50米,绿驹电动车,绿驹
2019-11-26,28.64481873499726,115.92312935070332,江西省南昌市青云谱区洪都南大道212号附近,绿驹电动车南昌动力体验店,绿驹
2019-11-26,28.38351219825198,116.27647572359645,民和镇211省道培英幼儿园附近,绿驹电动车(进贤动力体验店),绿驹
2019-11-26,27.826976494007194,114.68294569080817,江西省新余市分宜县分宜镇昌山北路268号绿驹电动车,绿驹电动车,绿驹
2019-11-26,27.831306140640056,114.95894866089434,江西省新余市渝水区龙潭洲路,绿驹电动车,绿驹
2019-11-26,27.798720394273992,114.86970620898407,江西省新余市渝水区万商红B69栋28-29号,绿驹电动车,绿驹
2019-11-26,27.829776910185014,114.69429502814296,仙来西大道701号,绿驹电动车,绿驹
2019-11-26,27.812344272030387,114.94299994365501,锦龙路147号,绿驹电动车(新余动力体验店),绿驹
2019-11-26,28.82070189114289,115.44232849506135,江西省宜春市奉新县干洲大桥,绿驹电动车,绿驹
2019-11-26,27.814640468770286,114.41017524435279,江西省宜春市袁州区明月北路710-附12附近,绿驹电动车,绿驹
2019-11-26,27.790135626032605,114.55776198515044,江西省宜春市袁州区洁美雅大酒店东(彬兴路东),绿驹电动车,绿驹
2019-11-26,28.39244143063459,114.78290079165035,江西省宜春市宜丰县沿河西路与319省道交叉口西南100米,绿驹电动车,绿驹
2019-11-26,28.44154358226366,115.38418948964396,江西省宜春市高安市莱茵花园10栋13号,绿驹电动车,绿驹
2019-11-26,28.062153117647533,115.55241893532511,宜春市樟树市,绿驹电动车,绿驹
2019-11-26,28.166614024368958,115.7774784214485,宜春市丰城市,绿驹电动车,绿驹
2019-11-26,41.733815801613424,125.94660627598029,中山东路630号附近,绿驹电动车,绿驹
2019-11-26,28.422857002119002,115.38256535328246,宜春市高安市,绿驹电动车,绿驹
2019-11-26,28.400373307264914,114.80951713474946,江西省宜春市宜丰县S227(长胜路),绿驹电动车,绿驹
2019-11-26,28.61434776449411,115.48534506800318,江西省宜春市奉新县S308(干大线),绿驹电动车,绿驹
2019-11-26,27.849932811131865,114.39584107496198,江西省宜春市袁州区G320(宜春大道),绿驹电动车,绿驹
2019-11-26,28.422857002119002,115.38256535328246,江西省宜春市高安市G320(沪瑞线),绿驹电动车,绿驹
2019-11-26,27.812544124941223,114.41595152844114,江西省宜春市袁州区钓台路,绿驹电动车,绿驹
2019-11-26,28.712556142657398,115.39785666899046,江西省宜春市奉新县奉新中大道549号,绿驹电动车,绿驹
2019-11-26,28.075479298758548,115.56789412294209,江西省宜春市樟树市药都北大道32号附近,绿驹电动车,绿驹
2019-11-26,27.82588999592266,114.3706714690557,江西省宜春市袁州区X525(宜湖路),绿驹电动车,绿驹
2019-11-26,27.793873376316384,114.41627347754259,江西省宜春市袁州区中山东路766附近,绿驹电动车,绿驹
2019-11-26,28.36781160638189,115.35997314937507,江西省宜春市高安市X614(化上段),绿驹电动车,绿驹
2019-11-26,42.6935158601256,126.06563906915751,城东路281号鹅峰医院旁,绿驹电动车,绿驹
2019-11-26,41.78958364368938,126.05359494730364,学府路沙背桥苏记车行,绿驹电动车,绿驹
2019-11-26,27.787752996943837,114.55562187108723,江西省宜春市袁州区S314(宜彬大道),绿驹电动车,绿驹
2019-11-26,41.733815801613424,125.94660627598029,高荷路东50米,绿驹电动车,绿驹
2019-11-26,41.733815801613424,125.94660627598029,回兰路碧水家园·西苑对面,绿驹电动车,绿驹
2019-11-26,27.849932811131865,114.39584107496198,江西省宜春市袁州区G320(宜春大道),绿驹电动车专卖店,绿驹
2019-11-26,41.13404861853331,126.19676028592147,友谊路4号附近,绿驹电动车(上高动力体验店),绿驹
2019-11-26,28.184268531591503,115.79012737149978,江西省宜春市丰城市第二中学,绿驹电动车(丰城专卖店),绿驹
2019-11-26,28.422857002119002,115.38256535328246,江西省宜春市高安市320国道与615县道交叉口西南50米,绿驹电动车(龙潭专卖店),绿驹
2019-11-26,41.733815801613424,125.94660627598029,三天段76号附近,绿驹电动车(金瑞专卖店),绿驹
2019-11-26,41.733815801613424,125.94660627598029,东门路177号,绿驹电动车(宜丰动力体验店),绿驹
2019-11-26,41.733815801613424,125.94660627598029,320国道东50米,绿驹电动车(古楼专卖店),绿驹
2019-11-26,41.78381724594134,125.96094763990466,兴安路82-92,绿驹电动车(高安动力体验店),绿驹
2019-11-26,41.10093149946208,121.13259630055518,中山东路630号附近,绿驹电动车,绿驹
2019-11-26,41.10093149946208,121.13259630055518,城东路281号鹅峰医院旁,绿驹电动车,绿驹
2019-11-26,41.10093149946208,121.13259630055518,学府路沙背桥苏记车行,绿驹电动车,绿驹
2019-11-26,41.10093149946208,121.13259630055518,高荷路东50米,绿驹电动车,绿驹
2019-11-26,41.10093149946208,121.13259630055518,回兰路碧水家园·西苑对面,绿驹电动车,绿驹
2019-11-26,41.5364245435157,121.24216927106797,友谊路4号附近,绿驹电动车(上高动力体验店),绿驹
2019-11-26,41.05045768764357,121.18925727991923,江西省宜春市高安市320国道与615县道交叉口西南50米,绿驹电动车(龙潭专卖店),绿驹
2019-11-26,41.10093149946208,121.13259630055518,东门路177号,绿驹电动车(宜丰动力体验店),绿驹
2019-11-26,41.10093149946208,121.13259630055518,三天段76号附近,绿驹电动车(金瑞专卖店),绿驹
2019-11-26,41.10093149946208,121.13259630055518,兴安路82-92,绿驹电动车(高安动力体验店),绿驹
2019-11-26,41.05045768764357,121.18970643267423,320国道东50米,绿驹电动车(古楼专卖店),绿驹
2019-11-26,40.791267302592765,113.22160531673478,内蒙古自治区乌兰察布市察哈尔右翼前旗208国道前期五路(新车管所对面)别克4S店,乌兰察布市奥捷通汽车销售有限公司,绿驹
2019-11-26,40.942403941998876,113.12147901679548,平地泉众森国际汽配城旁边,乌兰察布市公安交通管理支队车辆管理所,绿驹
2019-11-26,40.97833727908686,113.17751988598465,内蒙古自治区乌兰察布市察哈尔右翼前旗曙光北路西100米,乌兰察布市天韵二手车交易市场,绿驹
2019-11-26,41.04125493833094,113.13006669530131,内蒙古自治区乌兰察布市集宁区恩和大街,乌兰察布市退役军人事务局,绿驹
2019-11-26,40.89902741907806,112.56893992852737,内蒙古自治区乌兰察布市卓资县卓资山镇大庆西街中国石油加油站东,乌兰察布市公安局交通警察支队卓资县大队,绿驹
2019-11-26,40.791267302592765,113.22160531673478,乌兰察布市察哈尔右翼前旗,乌兰察布市印天鸿汽车服务有限公司,绿驹
2019-11-26,40.433074258285444,113.12687414985785,内蒙古自治区乌兰察布市丰镇市浑源夭路,乌兰察布市公安局交通警察支队丰镇市大队,绿驹
2019-11-26,41.917986632012024,114.01475482439251,新一完小住宅小区西汽车超市院内,乌兰察布市鑫驰汽车销售有限公司,绿驹
2019-11-26,40.894057581627905,112.59333159198896,内蒙古自治区乌兰察布市卓资县希望街,乌兰察布市卓资县职中教学楼,绿驹
2019-11-26,40.91364384168201,112.52609506038144,110国道西50米,乌兰察布市交警支队卓镇中队,绿驹
2019-11-26,40.97833727908686,113.1793164970046,曙光北路东100米,乌兰察布市中等职业技术学校,绿驹
2019-11-26,41.909602587109205,114.01640878449749,内蒙古自治区乌兰察布市化德县,乌兰察布市雄伟光大新材料有限公司,绿驹
2019-11-26,40.433499036847614,113.12120395564831,内蒙古自治区乌兰察布市丰镇市普罗旺斯庄园一期乌兰察布丰镇市,乌兰察布丰镇市,绿驹
2019-11-26,40.44180480884355,113.1166012178763,乌兰察布市丰镇市南环路嘉园小区l7号门市富路电动汽车科技馆,丰镇市富路电动车科技馆,绿驹
2019-11-26,40.53803938705084,112.50393173985604,内蒙古自治区乌兰察布市凉城县光明街,乌兰察布市同创商贸有限公司,绿驹
2019-11-26,40.791267302592765,113.22160531673478,内蒙古自治区乌兰察布市察哈尔右翼前旗,乌兰察布市鑫龍清生物有限公司,绿驹
2019-11-26,40.433270303401024,113.16057187931787,内蒙古自治区乌兰察布市丰镇市电厂路,乌兰察布市昆仑润滑油总经销,绿驹
2019-11-26,41.896998394842335,114.06803822085264,内蒙古自治区乌兰察布市化德县长顺镇北辰北路南400米,乌兰察布市乌化水泥有限责任公司,绿驹
2019-11-26,40.89584115909525,112.5857265752703,内蒙古自治区乌兰察布市卓资县人民南路,乌兰察布市卓资县国防动员委员会,绿驹
2019-11-26,40.89584115909525,112.5852774225153,乌兰察布市卓资县人民南路西50米,乌兰察布市卓资县国防动员委员会-东北门,绿驹
2019-11-26,41.912302667409776,114.02589578898835,内蒙古自治区乌兰察布市化德县长顺镇省际支线化德汽车站,乌兰察布市化德交通运输管理所,绿驹
2019-11-26,41.00074832767381,113.13946767446333,208省道东50米,乌兰察布市公路管理局朝阳管理站,绿驹
2019-11-26,40.53509338649481,112.49640561322559,新华路与新建路交叉口东50米,乌兰察布市凉城交通运输管理所,绿驹
2019-11-26,40.44380595244986,113.16826483385779,交通门里23号,乌兰察布市丰镇交通运输管理所,绿驹
2019-11-26,41.79597606326872,114.12311247738084,乌兰察布市化德县208省道附近,乌兰察布市公路管理局化德公路管理工区,绿驹
2019-11-26,40.91330309621262,112.52654421313642,乌兰察布市卓资县110国道南50米,乌兰察布市公路路政管理支队印堂子超限检测大队,绿驹
2019-11-26,40.53601447780256,112.51870308400092,内蒙古自治区乌兰察布市凉城县岱海镇宣德街凉城第一小学东,乌兰察布市公安局交通警察支队凉城县大队,绿驹
2019-11-26,42.01001474394536,112.04767820679389,乌兰察布市四子王旗101省道东50米,乌兰察布市公路路政管理支队乌兰花超限检测大队,绿驹
2019-11-26,40.851416683743224,113.91977536587261,乌兰察布市兴和县110国道南50米,乌兰察布市公路管理局110国道兴和管理工区高庙子管理站,绿驹
2019-11-26,34.801832760483684,109.94845330291125,陕西省渭南市大荔县X206,绿驹电动车,绿驹
2019-11-26,34.51227469438819,109.49905913460461,陕西省渭南市临渭区胜利大街,绿驹电动车,绿驹
2019-11-26,34.504000470428366,109.49859627640245,渭南市临渭区,绿驹电动车,绿驹
2019-11-26,34.521379197002595,110.17353353996629,渭南市华阴市孟塬镇洞口对面,绿驹电动车,绿驹
2019-11-26,35.24830643256852,110.15980311990737,环城北路01号合阳县环北医院附近,绿驹电动车,绿驹
2019-11-26,34.48670262339288,109.42952098438214,陕西省渭南市临渭区吴焦路与108国道交叉口东100米,绿驹电动车,绿驹
2019-11-26,34.80028016948005,109.94988430358865,陕西省渭南市大荔县中国邮政储蓄银行(206县道南),绿驹电动车,绿驹
2019-11-26,35.19657281555104,109.93843360325295,渭南市澄城县,绿驹电动车,绿驹
2019-11-26,35.18852116992186,109.59863120609512,陕西省渭南市白水县杜康中路,绿驹电动车,绿驹
2019-11-26,34.91750292867678,109.94354118872158,陕西省渭南市大荔县利民家居广场(108国道北),绿驹电动车,绿驹
2019-11-26,35.300976759088,110.05154185510027,渭南市合阳县王坡路与黄王路交叉口东50米,绿驹电动车,绿驹
2019-11-26,34.66786331071567,109.69568863749696,陕西省渭南市临渭区交斜镇交斜中心卫生院西北150米,绿驹电动车,绿驹
2019-11-26,35.30447862254104,110.18721545152765,108国道南50米,绿驹电动车,绿驹
2019-11-26,34.96558265509518,109.60373889397057,陕西省渭南市蒲城县迎宾路木器厂家属院附近(蒲城宾馆西南),绿驹电动车(蒲城动力体验店),绿驹
2019-11-26,35.4845431008979,110.44582522620604,状元街10号,绿驹电动车(黄河大街店),绿驹
2019-11-26,34.79752779001583,109.94592708815608,渭南市大荔县西环路6号,绿驹电动车(大荔动力体验店),绿驹
2019-11-26,35.4849992952453,110.46148772295355,陕西省渭南市韩城市烟泉北路,绿驹电动车专卖店,绿驹
2019-11-26,34.555012862910104,110.25485758693735,陕西省渭南市潼关县城关街道和平路黄金工业管理局附近,绿驹电动车(潼关专卖店),绿驹
2019-11-26,34.83777100656083,109.05195868701085,长庄路与314县道交叉口北150米,绿驹电动车,绿驹
2019-11-26,34.628600400448725,110.04378678363261,华北路北50米,绿驹电动车,绿驹
2019-11-26,34.506133150016964,109.50815332177393,陕西省渭南市临渭区解放路与东风大街十字西50米,绿驹电动车(东风大街店),绿驹
2019-11-26,34.504000470428366,109.49859627640245,渭南市临渭区,绿驹电动车(辛市店),绿驹
2019-11-26,35.00537588248417,109.42237181998098,220县道老庙镇中心小学附近,绿驹电动车专卖店,绿驹
2019-11-26,34.731090214149575,109.21804998597273,金庄路与雷闫路交叉口东150米,绿驹电动车专卖店,绿驹
2019-11-26,34.96127412878287,109.59249651068265,陕西省渭南市蒲城县,绿驹电动车(德庆车行),绿驹
2019-11-26,34.51873074009985,109.77847737160204,陕西省渭南市华州区X319柳枝街西,绿驹电动车(柳枝店),绿驹
2019-11-26,34.9162389107212,109.30087016077066,美梅路南50米,绿驹电动车专卖店,绿驹
2019-11-26,34.557665695231165,109.99991354252529,渭南市华阴市北赤路北50米,绿驹电动车(罗敷镇4S店),绿驹
2019-11-26,34.390226463711656,109.59562620707942,陕西省渭南市临渭区四季沐歌太阳能(101县道西),绿驹电动车(崇凝专卖),绿驹
2019-11-26,34.504000470428366,109.49859627640245,渭南市临渭区,绿驹电动车(信义动力体验店),绿驹
2019-11-26,34.50550951800315,109.77358625620198,陕西省渭南市华州区新秦路与彤城街路口向西北侧,绿驹电动车(华县动力体验店),绿驹
2019-11-26,35.300976759088,110.05154185510027,皇新路与黄王路交叉口西100米,皇甫庄绿驹电动车,绿驹
2019-11-26,35.19852156480847,109.95010438843859,城关镇兆兴花城向北100米,绿驹路路通电动车城,绿驹
2019-11-26,34.83955915981867,109.40543723399854,车站大街西段240附近,绿驹电动车(富平动力体验店),绿驹
2019-11-26,35.614828849130724,110.56206150120637,玉镜大街中段,绿驹电动车(玉镜大街店),绿驹
2019-11-26,35.23895172930715,110.14713201494314,西新街68号附近,绿驹电动车(合阳动力体验店),绿驹
2019-11-26,34.5721689567656,110.11184339720462,市公安局西80米东岳路(西段),绿驹电动车(华阴动力体验店),绿驹
2019-11-26,34.51873074009985,109.77847737160204,陕西省渭南市华州区X318,下庙绿驹电动车专卖店,绿驹
2019-11-26,34.51558696416779,109.50963180957551,乐天大街与解放路交叉口南150米,黑马绿驹电动车售后,绿驹
2019-11-26,34.416967513553544,109.50513091000424,107省道(闫村国土资源所东北),绿驹电动车(闫村国土资源所东北),绿驹
2019-11-26,34.99514320227686,109.81546815521412,106省道萌芽幼儿园附近,绿驹电动车(蒲城县自然资源和规划局东陈国土资源所南),绿驹
2019-11-26,34.64445526517624,109.59391511474401,202省道绿驹电动车旁,东方超市,绿驹
2019-11-26,34.370362119676685,107.18387569593402,宝鸡市金台区联盟摩托车城,绿驹电动车(宝鸡4S店),绿驹
2019-11-26,34.366996195529644,107.28779333739686,陕西省宝鸡市陈仓区陈仓大道,绿驹电动车,绿驹
2019-11-26,34.21770727628491,107.78954444196236,陕西省宝鸡市眉县金渠镇河营路金渠中心卫生院西南,绿驹电动车,绿驹
2019-11-26,34.36382521175361,107.88672097609854,陕西省宝鸡市扶风县城关镇东关路飞凤市场附近,鑫绿驹电动车,绿驹
2019-11-26,34.27376757236891,107.84312874471748,宝平路与西大街交叉口西50米,绿驹电动车,绿驹
2019-11-26,34.892577905491876,106.86417684968247,南大街与二一二省道十字陇县城关客运站附近,绿驹电动车,绿驹
2019-11-26,34.201723980679716,107.96878602450514,张载路北50米,绿驹电动车,绿驹
2019-11-26,34.68253802460322,107.80073943783802,杜阳路6号附近,绿驹电动车,绿驹
2019-11-26,34.38031492887622,107.90311022146693,南二路与南大街交叉口北100米,绿驹电动车(扶风动力体验店),绿驹
2019-11-26,34.44451082113536,107.62961152313605,南大街与电力路交叉口西北50米,绿驹电动车(岐山动力体验店),绿驹
2019-11-26,34.52163003663138,107.40231997052575,陕西省宝鸡市凤翔县城关镇雍城大道东段妇幼保健院附近,绿驹电动车(凤翔动力体验店),绿驹
2019-11-26,34.34889859316945,108.00491489476003,陕西省宝鸡市扶风县杏林小学(扶风县杏林镇政府东南),绿驹电动车(杏林镇张军专卖店),绿驹
2019-11-26,34.32439921055449,107.61195802145734,凤凰西路南100米,绿驹电动车(蔡家坡动力体验店),绿驹
2019-11-26,34.484931382262886,107.27601857334844,陕西省宝鸡市凤翔县凤马尹路,雅迪绿驹电动车(陈村专卖店),绿驹
2019-11-26,35.40194240106938,119.5476468823701,日照市东港区海滨三路21号附近,飞鸽电动车(日照店),绿驹
2019-11-26,35.380735407703526,119.43216783968867,山东省日照市东港区南郊宾馆东北50米(南昌路东),金彭电动三轮车(日照奎山店),绿驹
2019-11-26,35.55595756383842,118.77237246051291,日照市莒县莒竹线,东营墩村,绿驹
2019-11-26,35.585872122989336,118.84353824240415,山东省日照市莒县,东营路,绿驹
2019-11-26,35.451218749689076,119.4613955434395,山东省日照市东港区文萃路,市北电动车配件连锁店,绿驹
2019-11-26,35.55595756383842,118.77237246051291,日照市莒县莒竹线,东营墩子,绿驹
2019-11-26,35.43104900394244,119.46862431118342,山东省日照市东港区,东营路,绿驹
2019-11-26,37.613066838238375,112.36455763137184,山西省太原市清徐县G208(二长线),绿驹电动车,绿驹
2019-11-26,37.889355796249255,112.5685678431987,山西省太原市杏花岭区解放路162附近,绿驹电动车,绿驹
2019-11-26,37.85160491542051,112.53374950815737,山西省太原市万柏林区大王路,绿驹电动车(太原动力体验店),绿驹
2019-11-26,23.376312063492946,104.2470401806363,开化中路53号附近,绿驹电动车(文山动力体验店),绿驹
2019-11-26,23.406658747240765,104.22219960786875,云南省文山壮族苗族自治州文山市政府(华龙北路北),文山壮族苗族自治州市中心,绿驹
2019-11-26,23.403972473293486,104.22101941409014,云南省文山壮族苗族自治州文山县华龙北路2号,文山壮族苗族自治州人民政府,绿驹
2019-11-26,23.362750907636887,104.26208883438206,环城南路201号,文山壮族苗族自治州水务局,绿驹
2019-11-26,23.39090188399379,104.23934129009612,文山市凤凰路,文山壮族苗族自治州中级人民法院,绿驹
2019-11-26,23.403655187775147,104.22132675404907,华龙北路与华龙西路交叉口南150米,文山壮族苗族自治州司法局,绿驹
2019-11-26,23.369755405281186,104.24446189410592,文山市开化镇螺峰路158号,文山壮族苗族自治州第一中学(秀峰路),绿驹
2019-11-26,23.406610670560433,104.22388044707063,云南省文山壮族苗族自治州文山市华龙北路,文山壮族苗族自治州砚山具稼依镇,绿驹
2019-11-26,23.37272277743943,104.24906316464411,文山壮族苗族自治州文山市秀峰路1号,文山壮族苗族自治州市场监督管理局,绿驹
2019-11-26,23.406610670560433,104.22388044707063,文山壮族苗族自治州华龙北路,文山壮族苗族自治州公安局,绿驹
2019-11-26,23.37425876837545,104.2590511541146,云南省文山壮族苗族自治州文山市大景商业城A幢,文山壮族苗族自治州住房公积金管理中心,绿驹
2019-11-26,23.406837587003693,104.22197934335777,华龙北路1号,文山壮族苗族自治州人力资源和社会保障局,绿驹
2019-11-26,23.37268255498476,104.25647283764071,云南省文山壮族苗族自治州文山市七花名店步行街与光大商业步行街交叉口东北50米,光大商业步行街(文山壮族苗族自治州政协西南),绿驹
2019-11-26,23.38497407820002,104.22773275209633,金石路239,文山壮族苗族自治州无线电管理处,绿驹
2019-11-26,23.371031765037173,104.2631476967304,建禾东路84号,文山壮族苗族自治州电力公司-东北门,绿驹
2019-11-26,23.3729240553932,104.2496430208506,云南省文山壮族苗族自治州文山市河西路38号,文山壮族苗族自治州环境监察支队,绿驹
2019-11-26,23.391944131908,104.23854382746465,文山壮族苗族自治州文山市,文山壮族苗族自治州蒙古族学会,绿驹
2019-11-26,23.37473117738264,104.25926032545082,文山壮族苗族自治州文山市学海巷18号,文山壮族苗族自治州电影事业管理中心,绿驹
2019-11-26,23.364237997082228,104.2404265087281,环城西路东50米,文山壮族苗族自治州潇湘商业协会,绿驹
2019-11-26,23.57256782739761,103.91669506674235,云南省文山壮族苗族自治州文山市210省道附近,文山壮族苗族自治州电力公司电杆厂,绿驹
2019-11-26,24.045625636727383,104.19764128448894,文山壮族苗族自治州丘北县锦屏镇文翠路2号,文山壮族苗族自治州烟草公司丘北县分公司,绿驹
2019-11-26,23.62167279927964,104.34660229258074,建设南路7号,文山壮族苗族自治州电力股份有限公司砚山分公司,绿驹
2019-11-26,23.37728591405652,104.22914997725826,安邦矿业附近,文山壮族苗族自治州七乡面粉厂,绿驹
2019-11-26,23.248982382741495,104.57590327010038,云南省文山壮族苗族自治州西畴县兴街镇文天线逸德兴街1号西北500米,文山壮族苗族自治州机动车检测站(兴街分站),绿驹
2019-11-26,23.634471642696422,105.62641248825868,云南省文山壮族苗族自治州富宁县金农路10号附近,文山壮族苗族自治州公路派出所,绿驹
2019-11-26,23.385341205066315,104.23723233914933,卧龙街道七花北路8号,文山壮族苗族自治州人民政府扶贫开发办公室,绿驹
2019-11-26,23.62643768841742,105.6289461114872,新华街60,云南省文山壮族苗族自治州壮剧团,绿驹
2019-11-26,23.3873533117595,104.22774951896865,金石路301建设家园附近,文山壮族苗族自治州兰花协会办公室,绿驹
2019-11-26,23.374038583965,104.23210935492934,文山壮族苗族自治州文山市开化街道环城西路加州花园大门旁,云南省文山壮族苗族自治州文山市腾达汽车,绿驹
2019-11-26,23.6338121918207,105.64046302142668,文山壮族苗族自治州富宁县新华镇迎宾路56号,文山壮族苗族自治州烟草公司富宁县分公司,绿驹
2019-11-26,23.37153998331831,104.23578602954993,云南省文山壮族苗族自治州文山市开化街道秀峰路秀峰苑云小筑旁,文山壮族苗族自治州兽药饲料检测所,绿驹
2019-11-26,23.611486576699626,104.34355089069662,云南省文山壮族苗族自治州砚山县锰矿厂(县道H15),壮族苗族自治州锰矿厂,绿驹
2019-11-26,23.39876526123503,104.19778429292947,文山壮族苗族自治州文山市西郊路与210省道交叉口西南150米,文山壮族苗族自治州通用机械厂铸钢分厂,绿驹
2019-11-26,23.156417028311427,104.6990169385077,起义纪念馆附近,文山壮族苗族自治州起义纪念馆-东南门,绿驹
2019-11-26,23.57256782739761,103.91624591398751,云南省文山壮族苗族自治州文山市210省道西50米,文山壮族苗族自治州电力公司电杆厂-东北门,绿驹
2019-11-26,23.75854366647844,103.80009492175519,046乡道与G80广昆高速入口交叉口西50米,文山壮族苗族自治州高速公路路政管理大队,绿驹
2019-11-26,23.611486576699626,104.34355089069662,文山壮族苗族自治州砚山县嘉禾一巷22号,文山壮族苗族自治州烟草公司江那烟草服务站,绿驹
2019-11-26,27.93223855118512,120.81240867916065,浙江省温州市龙湾区永中西路辅路,绿驹电动车,绿驹
2019-11-26,27.863679328411752,120.67760619478338,浙江省温州市瓯海区朝阳大街,绿驹电动车,绿驹
2019-11-26,28.171796506784776,121.06596077035546,浙江省温州市乐清市镇武东路158号北70米,绿驹电动车,绿驹
2019-11-26,27.785815017172528,120.46397545788614,温州市瑞安市双屿南路110号,绿驹电动车,绿驹
2019-11-26,28.152087059227757,120.70364590299951,浙江省温州市永嘉县永建路54号附近,绿驹电动车,绿驹
2019-11-26,27.691199615302313,120.32618387641055,浙江省温州市平阳县S230(腾蛟大道),绿驹电动车,绿驹
2019-11-26,28.00853269001307,120.83594400144638,浙江省温州市乐清市迎晖北路,绿驹电动车,绿驹
2019-11-26,27.839453725411232,120.75722162961424,浙江省温州市龙湾区锦瑞街82号附近,绿驹电动车,绿驹
2019-11-26,27.519596313061708,120.55151784247737,浙江省温州市苍南县球新路71号附近,绿驹电动车,绿驹
2019-11-26,27.78930041662729,120.68208376356245,民莘西路3-7号,绿驹电动车,绿驹
2019-11-26,27.950311638297133,120.57542938768681,浙江省温州市瓯海区马桥路19号附近,绿驹电动车,绿驹
2019-11-26,28.003353079142467,120.66433423482722,浙江省温州市鹿城区吴桥路232号,绿驹电动车(吴桥专卖店),绿驹
2019-11-26,28.06963874364714,120.69370056058311,浙江省温州市永嘉县千东南路115号附近,绿驹电动车,绿驹
2019-11-26,28.09674903657859,120.87023304409023,浙江省温州市乐清市玉虹南路,绿驹电动车,绿驹
2019-11-26,27.490979475304744,120.57715512240148,浙江省温州市苍南县振兴西街319号附近,绿驹电动车,绿驹
2019-11-26,27.874115758366333,120.79898250530104,温州市龙湾区永强大道1785号,绿驹电动车,绿驹
2019-11-26,27.437794541285385,120.62126042110974,东门大街134号附近,绿驹电动车,绿驹
2019-11-26,27.876299453188828,120.80841498264434,浙江省温州市龙湾区沙城街371号附近,鑫绿驹电动车,绿驹
2019-11-26,28.034019553960462,120.79807105039531,浙江省温州市永嘉县芦池街73-1南80米,绿驹电动车维修,绿驹
2019-11-26,27.9959319264805,120.61367968544181,温州市瓯海区温瞿东路319-325号(4路公交车始发站斜对面),绿驹电动车(温州销售中心),绿驹
2019-11-26,27.92505115689644,120.83890643335621,浙江省温州市龙湾区永中东路44号,绿驹电动车(龙湾旗舰店),绿驹
2019-11-26,28.006478627620837,120.90281907645391,柳市镇七里港沿江大道3-5号,绿驹电动车,绿驹
2019-11-26,28.154454370612847,120.70382999723915,永建路124号,绿驹电动车(永嘉动力体验店),绿驹
2019-11-26,28.408085677057812,121.16481708815247,荆水路33附近,绿驹电动车,绿驹
2019-11-26,27.491892414207825,120.63379092224338,浙江省温州市龙港市农贸路10号东60米,绿驹电动车(巴曹旗舰店),绿驹
2019-11-26,28.05901398159155,120.91079782599091,柳市镇育英北路139号,绿驹电动车(育英北路店),绿驹
2019-11-26,27.579111064025298,120.56779226373517,温州市龙港市龙翔路1053-1055号,绿驹电动车(龙翔路旗舰店),绿驹
2019-11-26,27.951248183090897,120.78477517485159,温州市龙湾区苏川路14号,绿驹电动车(龙湾旗舰店),绿驹
2019-11-26,28.07061111996006,120.51465791593941,浙江省温州市鹿城区泰新街222号附近,绿驹电动车(吴敏车行),绿驹
2019-11-26,27.76532481017012,120.68479493942122,浙江省温州市瑞安市新桥路,鑫绿驹电动车,绿驹
2019-11-26,27.580929015992503,120.54897923110701,龙港市西一街334号,绿驹电动车(西一路店),绿驹
2019-11-26,27.784440273005227,120.64355140416558,解放东路231号,绿驹电动车(瑞安旗舰店),绿驹
2019-11-26,27.680124277677837,120.56964474935724,人民路101-106号,绿驹电动车(平阳旗舰店),绿驹
2019-11-26,27.685263014382258,120.33041947761757,浙江省温州市平阳县腾蛟大道51-2号附近,绿驹电动车(腾蛟动力体验店),绿驹
2019-11-26,28.02324722392315,120.61713290836346,温金公路96,绿驹电动车(鹿城路),绿驹
2019-11-26,28.173615838612324,120.48785223608975,浙江省温州市永嘉县桥东北大街155,绿驹电动车(永嘉桥头旗舰店),绿驹
2019-11-26,28.221247828635455,121.0409160217286,浙江省温州市乐清市文星路11,绿驹电动车(虹桥动力体验店),绿驹
2019-11-26,27.561716667174906,119.71666684816869,泰庆南路81～83号,绿驹电动车(泰庆路店),绿驹
2019-11-26,27.725440005869782,120.61774012515917,郑林东路464号,绿驹电动车(万全动力体验店),绿驹
2019-11-26,28.042938537119216,120.86069475421806,浙江省温州市乐清市交通东路15号,绿驹电动车(北白象动力体验店),绿驹
2019-11-26,27.841870324586573,121.16354856758629,温州市洞头区,绿驹电动车(泰祥车店),绿驹
2019-11-26,28.05530304546835,120.62343762066787,瓯北张堡工业街105号,绿驹电动车(瓯北动力体验店),绿驹
2019-11-26,28.165146364643476,120.7009087436539,温州市永嘉县上塘镇环城北路上塘中学对面,绿驹电动车(永嘉动力体验店),绿驹
2019-11-26,27.621583510922697,120.66870678899731,浙江省温州市平阳县城新线,绿驹电动车(海西动力体验店),绿驹
2019-11-26,28.00108540447221,120.70647689035565,镇西北路81～83号,绿驹电动车(翁垟动力体验店),绿驹
2019-11-26,27.849574323337084,120.50566871014479,陶山镇花园路10号,绿驹电动车(陶山动力体验店),绿驹
2019-11-26,28.02318782207348,120.9021042525395,浙江省温州市乐清市柳黄路,绿驹电动车(黄华动力体验店),绿驹
2019-11-26,27.907425213044736,120.83292551796765,纪兴东路3号附近,绿驹电动车(龙湾旗舰店),绿驹
2019-11-26,27.644368079912972,120.33797424314713,腾龙东路52～68号,绿驹电动车(水头旗舰店),绿驹
2019-11-26,28.048177827417987,120.91510484158762,柳市镇虎啸路160至166号,绿驹电动车(长虹动力体验店),绿驹
2019-11-26,27.84079666875829,120.70279877844627,环镇北路88-90号,绿驹电动车(塘下动力体验店),绿驹
2019-11-26,28.047875459323713,120.66836585780213,瓯北罗浮大街43号,绿驹电动车(瓯北动力体验店),绿驹
2019-11-26,27.609209908954092,120.55891725079361,鳌江镇新河中路117-119号,绿驹电动车(鳌江动力体验店),绿驹
2019-11-26,27.73245651893369,120.58964426390257,万全镇章桥粮油东路56-58号,绿驹电动车(章桥动力旗舰店),绿驹
2019-11-26,30.06551117451065,119.94202726178733,浙江省杭州市富阳区文新路,绿驹电动车,绿驹
2019-11-26,29.81827865774007,119.72972460627774,浙江省杭州市桐庐县赵家路197东北50米,绿驹电动车,绿驹
2019-11-26,30.2633105670119,120.21153877811217,杭州市江干区,绿驹电动车,绿驹
2019-11-26,29.93767490770252,119.44901711501699,浙江省杭州市桐庐县东门路3附近,绿驹电动车,绿驹
2019-11-26,29.92019666221247,120.15266103525933,浙江省杭州市萧山区钱镠路,绿驹电动车,绿驹
2019-11-26,30.00650158171679,120.01648239142209,浙江省杭州市富阳区花果山路,绿驹电动车,绿驹
2019-11-26,30.014706938277573,120.29502284380062,浙江省杭州市萧山区白曹线,绿驹电动车,绿驹
2019-11-26,30.150208512957793,120.33303521277765,浙江省杭州市萧山区新螺路,绿驹电动车,绿驹
2019-11-26,30.217447776159986,120.44963271498852,浙江省杭州市萧山区瓜港西路,绿驹电动车,绿驹
2019-11-26,29.779631265585188,119.702454785922,浙江省杭州市桐庐县尖端路103号附近,绿驹电动车,绿驹
2019-11-26,30.151748880232216,120.26623277922309,浙江省杭州市萧山区萧然西路正德大药房旁边,绿驹电动车,绿驹
2019-11-26,30.373131513344347,120.30553837306651,杭州市余杭区南苑街道翁乔路180号,绿驹电动车,绿驹
2019-11-26,30.150275277025774,120.30826873044373,浙江省杭州市萧山区新螺路569号附近,绿驹电动车,绿驹
2019-11-26,29.86024974728147,119.8479998502946,浙江省杭州市富阳区桐常线,绿驹电动车专卖,绿驹
2019-11-26,30.0451470160439,120.2564393231973,浙江省杭州市萧山区峙山东路6附近,绿驹电动车,绿驹
2019-11-26,30.200569176739286,119.40295774272585,浙江省杭州市临安区於潜镇下埠天目路平和家园北区,绿驹电动车,绿驹
2019-11-26,29.60684272453403,119.1685232108629,康盛路259号附近,绿驹电动车,绿驹
2019-11-26,30.267452717670206,120.45590043687073,南虹路411号,绿驹电动车,绿驹
2019-11-26,30.076299617709356,119.89524959954242,浙江省杭州市富阳区孙油线,三桥绿驹电动车专卖,绿驹
2019-11-26,29.86024974728147,119.8479998502946,浙江省杭州市桐庐县桐常线,绿驹电动车专卖,绿驹
2019-11-26,30.169351310292193,121.28033970947575,浙江省宁波市慈溪市彭民路74号附近,绿驹电动车,绿驹
2019-11-26,29.94434334215144,121.72590980986053,浙江省宁波市北仑区前进路296号附近,绿驹电动车,绿驹
2019-11-26,30.1740371981584,120.98302344754828,浙江省宁波市余姚市高夹线,绿驹电动车,绿驹
2019-11-26,29.71233886513195,121.4483115039858,浙江省宁波市奉化区南渡路100附近,绿驹电动车,绿驹
2019-11-26,29.92405557021338,121.79591139587247,浙江省宁波市北仑区富春江路154号附近,绿驹电动车,绿驹
2019-11-26,29.696246330068853,121.78389508645944,浙江省宁波市鄞州区咸祥中路37~39附近,绿驹电动车,绿驹
2019-11-26,30.1724525574676,121.41548352663543,浙江省宁波市慈溪市观海卫路145号附近,绿驹电动车,绿驹
2019-11-26,30.035894583896347,121.29280540790207,浙江省宁波市余姚市朝阳路408号西60米,绿驹电动车,绿驹
2019-11-26,29.99277824057961,121.32468697552326,浙江省宁波市余姚市河姆渡南路38东南60米,绿驹电动车,绿驹
2019-11-26,29.90918538885894,121.84586124075504,浙江省宁波市北仑区东河路717号附近,绿驹电动车,绿驹
2019-11-26,29.765988155385784,121.46283137288819,浙江省宁波市奉化区方阳南路48,绿驹电动车,绿驹
2019-11-26,29.866162493223303,121.50805276843231,浙江省宁波市海曙区薛家南路,绿驹电动车,绿驹
2019-11-26,29.827137124009273,121.58675551498399,浙江省宁波市鄞州区贸城东路149号附近,绿驹电动车,绿驹
2019-11-26,30.08548655552781,121.5592394732786,浙江省宁波市慈溪市凤鸣路254号附近,绿驹电动车,绿驹
2019-11-26,30.20998609104912,121.39373496993349,浙江省宁波市慈溪市白玉兰客房(观附公路东),绿驹电动车,绿驹
2019-11-26,29.48440625392362,121.67818358102983,浙江省宁波市象山县振瀛路51西南60米,绿驹电动车,绿驹
2019-11-26,30.149543501246836,121.08937872994468,浙江省宁波市余姚市朗马路,绿驹电动车,绿驹
2019-11-26,29.83958364912393,121.50242597855025,浙江省宁波市海曙区云林东路9号东南60米,绿驹电动车,绿驹
2019-11-26,30.23539567789395,121.32707090956308,浙江省宁波市慈溪市公园路1号附近,绿驹电动车,绿驹
2019-11-26,30.09998614363881,121.50934534911532,浙江省宁波市慈溪市仙境路25号,绿驹电动车,绿驹
2019-11-26,30.057082762815547,121.11861505203855,浙江省宁波市余姚市阳明西路788号东60米,绿驹电动车,绿驹
2019-11-26,35.601107264020015,103.21591293625778,西关路4号,临夏回族自治州教育局,绿驹
2019-11-26,35.60745671902753,103.21360709650523,甘肃省临夏回族自治州临夏市红园路41西90米,国家税务总局临夏回族自治州税务局第一税务分局,绿驹
2019-11-26,35.61093858775936,103.2134441232247,北宁路北9巷与新营路交叉口西北50米,临夏回族自治州道教协会,绿驹
2019-11-26,35.66824742862717,103.195646894461,向日葵双语幼儿园附近,临夏回族自治州质量技术监督检测所临夏县水表检定站,绿驹
2019-11-26,35.603846974976435,103.2466108202808,光华东路建设大厦,临夏回族自治州市场监督管理局,绿驹
2019-11-26,35.60929133948626,103.21140326293657,民主西路196,临夏回族自治州商务综合行政执法支队,绿驹
2019-11-26,35.60989877268906,103.24954917760394,临夏回族自治州临夏县,临夏回族自治州林业科学研究所,绿驹
2019-11-26,35.60902613621194,103.21131424086055,民主西路180号(临夏回族自治州商务局东),众友健康药店(临夏回族自治州商务局东),绿驹
2019-11-26,35.49575749153761,103.00663480759825,临夏回族自治州临夏县韩集镇下街,中山回民小学,绿驹
2019-11-26,35.607578202908805,103.21800533772284,红园路7号,临夏回族自治州计划生育协会(红园路),绿驹
2019-11-26,35.57540871587876,103.18642686636771,罗家堡小学附近,临夏回族自治州动物胚胎移植站临夏市分站,绿驹
2019-11-26,35.58958278394921,103.19478912588548,甘肃省临夏回族自治州临夏市G213(兰郎路),甘肃省临夏回民中学,绿驹
2019-11-26,35.736872532769475,103.15109633099918,小寨中心路与213国道交叉口东北200米,临夏回族自治州畜牧技术推广站,绿驹
2019-11-26,35.736872532769475,103.15109633099918,小寨中心路与213国道交叉口东北200米,临夏回族自治州动物疫病预防控制中心-东南门,绿驹
2019-11-26,35.60756218350311,103.21639056529743,309省道与S2兰郎高速交叉口南100米,临夏回族自治州砖雕艺术协会,绿驹
2019-11-26,32.91114449022889,101.7075197357868,阿坝镇中心街1号,阿坝藏族羌族自治州阿坝县市场监督管理局,绿驹
2019-11-26,32.83364840105931,101.44586423351977,阿坝镇德塘路3号,阿坝藏族羌族自治州阿坝质量技术监督局,绿驹
2019-11-26,32.64390583942716,101.14466698636532,四川省阿坝藏族羌族自治州壤塘县阿两路,四川省阿坝藏族羌族自治州南木达木材检查站,绿驹
2019-11-26,28.183386493063345,105.31359507838097,大河苗族乡卫生院隔壁,绿驹电动车,绿驹
2019-11-26,33.09063161468502,116.14175048379391,安徽省亳州市利辛县马店孜镇中国石化加油站北150米,绿驹电动车,绿驹
2019-11-26,33.179807123897106,116.16339021437653,安徽省亳州市利辛县S308,绿驹电动车,绿驹
2019-11-26,33.15559584152897,116.1914935225951,亳州市利辛县,绿驹电动车,绿驹
2019-11-26,33.256951927964565,116.57092231915502,安徽省亳州市蒙城县体育路131号西南100米,绿驹电动车,绿驹
2019-11-26,33.48570660378932,116.24877289547223,城东镇六联中学对面,绿驹电动车,绿驹
2019-11-26,33.850642695788835,115.7844632112745,221乡道西100米,绿驹电动车,绿驹
2019-11-26,33.16238540687563,116.21623573091752,城关镇人民北路名爵公馆,绿驹电动车,绿驹
2019-11-26,33.1570285419462,116.20556404561161,城关镇青年路老转盘北30米路西,绿驹电动车利辛动力体验店,绿驹
2019-11-26,32.89729415332226,117.7810900377766,安徽省滁州市凤阳县S307,绿驹电动车,绿驹
2019-11-26,30.072206237719218,118.60447931610489,安徽省宣城市绩溪县梓潼路68号东北70米,绿驹电动车,绿驹
2019-11-26,27.320714831491397,120.22464804201965,海通路26-30号附近,绿驹电动车,绿驹
2019-11-26,27.469681107479598,119.50777505382885,福建省宁德市寿宁县胜利街192号附近,绿驹电动车,绿驹
2019-11-26,26.65441698463584,119.54795203724099,福建省宁德市蕉城区侨兴路中融中央首府101店面,绿驹电动车,绿驹
2019-11-26,26.972940767364413,119.68529560187768,宁德市福安市虹桥北路191号,绿驹电动车,绿驹
2019-11-26,26.986333514828353,119.65737445171416,福建省宁德市福安市下浦线,绿驹电动车,绿驹
2019-11-26,27.091302275272135,119.64785843195845,福建省宁德市福安市鹤祥路68号东南80米,绿驹电动车,绿驹
2019-11-26,27.33052497252825,120.22345190932259,宁德市福鼎市,绿驹电动车,绿驹
2019-11-26,27.24100382291096,120.18754241606473,福建省宁德市福鼎市启蒙幼儿园西南70米(安平街北),绿驹电动车专卖店,绿驹
2019-11-26,27.33052497252825,120.22345190932259,宁德市福鼎市,绿驹电动车专卖店,绿驹
2019-11-26,26.579441820936957,118.74825397251024,城西街道六一四路龙景佳园A座第十九号,绿驹电动车(古田店),绿驹
2019-11-26,27.114840142232378,119.33926587581199,福建省宁德市周宁县茶枕艺坊(西街东),绿驹电动车(周宁专卖店),绿驹
2019-11-26,26.669284355611698,119.53834322252614,蕉光荣路与八一五东路交叉口西150米,绿驹电动车(东湖路店),绿驹
2019-11-26,25.839688894302622,116.37387692390851,福建省龙岩市长汀县环东路18号附近,绿驹电动车,绿驹
2019-11-26,25.303983930187414,117.4265381776911,福建省龙岩市漳平市和平中路433号,绿驹电动车,绿驹
2019-11-26,24.739449242485883,118.15134484624937,福建省厦门市同安区环城北路193号附近,绿驹电动车,绿驹
2019-11-26,25.43975447880629,119.01948169064262,莆田市荔城区,绿驹电动车,绿驹
2019-11-26,25.43895891260361,119.02722185023624,福建省莆田市荔城区梅园东路798号附近,绿驹电动车,绿驹
2019-11-26,25.38351893452101,119.09141588483995,福建省莆田市荔城区洋东大道303号,绿驹电动车,绿驹
2019-11-26,25.460326580495952,119.12066601477815,福建省莆田市涵江区G324(城涵大道),绿驹电动车,绿驹
2019-11-26,25.39650163650291,119.05975163160721,天妃路5789号,绿驹电动车立信车行,绿驹
2019-11-26,25.465646021576713,119.03754903986717,拱辰办畅林居委会综合楼赤溪市场赤溪妇产医院原生态食府对面,绿驹电动车,绿驹
2019-11-26,25.472980792153848,119.11523009864742,新涵街锦江家园附近(凤凰百货涵江店南),绿驹电动车,绿驹
2019-11-26,25.307152921849045,118.84002010236009,福建省莆田市仙游县玖8连锁酒店(306省道东),绿驹电动车(尾专卖店),绿驹
2019-11-26,25.34605731896294,119.15227064927082,福建省莆田市荔城区尚德西路,绿驹电动车北高亚阳车行,绿驹
2019-11-26,25.069468342549346,119.13492805203316,莆田市秀屿区湄洲大道湄洲岛内,绿驹电动车(荔山飞达专卖店),绿驹
2019-11-26,25.413250641995084,119.0429493911892,福建省莆田市荔城区天妃路2679,绿驹电动车岳公阿彬车行,绿驹
2019-11-26,34.91128848411325,105.99584905220019,天水市秦安县兴国镇吴家巷,绿驹电动车,绿驹
2019-11-26,34.55233137879535,105.89885989435271,埠南路83号,绿驹电动车,绿驹
2019-11-26,34.58543827034833,105.7262538245815,甘肃省天水市秦州区解放路1号商住楼店-20/21,绿驹电动车(天水4S店),绿驹
2019-11-26,23.688230292088083,113.06246832527266,埠南路83号,绿驹电动车,绿驹
2019-11-26,21.276723439012073,110.36555441392824,埠南路83号,绿驹电动车,绿驹
2019-11-26,21.864339726138933,111.98848929181268,埠南路83号,绿驹电动车,绿驹
2019-11-26,30.74992380820305,104.04408512998576,四川省成都市郫都区正义路595,绿驹电动车,绿驹
2019-11-26,30.47935593802439,103.46818989903441,四川省成都市邛崃市交通街,绿驹电动车,绿驹
2019-11-26,30.629640922379373,103.99318499643347,成都市武侯区武侯大道顺江段71号附近,绿驹电动车,绿驹
2019-11-26,23.94242748047801,116.97722094490827,围城南路中段与春城巷交叉口西50米,绿驹电动车,绿驹
2019-11-26,30.639685163079164,103.92629248439557,四川省成都市双流区西南摩托车展销中心9栋1号,绿驹电动车(成都办事处),绿驹
2019-11-26,30.580399352821136,103.93039154226817,成都市双流区万家7组204,绿驹电动车川渝地区成都办事处-东北门,绿驹
2019-11-26,23.979680993270705,109.71146215027841,来宾市象州县,绿驹电动车,绿驹
2019-11-26,23.61615915420296,109.67084688360809,广西壮族自治区来宾市武宣县城北路270号附近,绿驹电动车,绿驹
2019-11-26,23.979680993270705,109.71146215027841,广西壮族自治区来宾市象州县G209(呼北线),绿驹电动车,绿驹
2019-11-26,23.614524027857463,109.37895499468377,323国道人民法庭旁边,绿驹电动车,绿驹
2019-11-26,23.75654676260728,109.22745819590091,033乡道西100米,绿驹电动车,绿驹
2019-11-26,23.611402474990236,109.66872249325995,广西壮族自治区来宾市武宣县城北路226号绿驹电动车行,绿驹电动车行,绿驹
2019-11-26,23.9677991746933,109.69240399073769,广西壮族自治区来宾市象州县温泉大道110,绿驹电动车(象州旗舰店),绿驹
2019-11-26,23.73730792199436,109.2390454090262,广西壮族自治区来宾市兴宾区柳来路217号,绿驹电动车(前卫路),绿驹
2019-11-26,24.197332799580163,109.99117499276358,广西壮族自治区来宾市金秀瑶族自治县人民医院桐木分院,绿驹电动车(桐木动力体验店),绿驹
2019-11-26,23.75654676260728,109.22745819590091,209国道西50米,雅迪电动车,绿驹
2019-11-26,23.33492274259196,107.59657106849201,百色市平果县,绿驹电动车,绿驹
2019-11-26,23.402795036508795,105.83879845372773,百色市那坡县城厢镇睦边大道387号,绿驹电动车,绿驹
2019-11-26,24.495667790361946,105.10049410469409,百色市西林县,绿驹电动车(西林店),绿驹
2019-11-26,23.606609004120923,107.12937854689751,广西壮族自治区百色市田东县东鑫巷127号,绿驹电动车(东鑫巷),绿驹
2019-11-26,23.60703494681432,107.12978071378267,广西壮族自治区百色市田东县福海家私城(人民路东),绿佳绿驹售后服务部,绿驹
2019-11-26,23.74300377767274,106.92383109905494,田州镇解放中路25号,绿驹电动车4S售后服务中心(田阳专卖店),绿驹
2019-11-26,23.327323266782482,106.62867356148415,城关镇德盛路229号,绿驹电动车(德保专卖店),绿驹
2019-11-26,21.76948227821264,108.37007435052647,防城镇长山街20号,绿驹电动车,绿驹
2019-11-26,22.158414224480993,107.98568026479923,防城港市上思县中华路8号附近,绿驹电动车,绿驹
2019-11-26,21.549203194366356,107.97849000373164,广西壮族自治区防城港市东兴市东兴镇北仑大道206号,绿驹电动车(新华路),绿驹
2019-11-26,22.15924688903235,107.98561694405213,中华路烟草公司旁边,绿驹电动车售后维修000018,绿驹
2019-11-26,28.16042017901075,109.20940351278404,贵州省铜仁市松桃苗族自治县S201,绿驹电动车,绿驹
2019-11-26,27.72786200516945,109.19097199050583,贵州省铜仁市碧江区河西街道103商贸城1栋116号豪爵摩托绿驹电动车,豪爵摩托绿驹电动车,绿驹
2019-11-26,27.317678923050583,105.29364674468475,毕节市七星关区天河路28附近,绿驹电动车,绿驹
2019-11-26,27.12905167514207,104.7335158226237,毕节市赫章县212省道东50米,绿驹电动车,绿驹
2019-11-26,27.294404021212866,105.33064186271599,毕节市七星关区德溪街道学院路美食街远航综合汽摩城一楼附近,绿驹电动车,绿驹
2019-11-26,37.741636751694145,115.68139532011222,衡水市桃城区,绿驹电动车衡水动力体验店,绿驹
2019-11-26,35.717888889374784,115.03558408559006,濮阳市濮阳县,绿驹电动车,绿驹
2019-11-26,35.78339491053001,115.0920320767177,濮阳市华龙区茂名路161号附近,绿驹电动车(小鸟电动车),绿驹
2019-11-26,34.79533196719041,114.37923700033475,河南省开封市顺河回族区公园路29号,绿驹电动车专卖,绿驹
2019-11-26,34.7676983733175,114.81641928014878,106国道西50米,绿驹电动车(邢口体验店),绿驹
2019-11-26,34.570809976595186,114.76042699940633,河南省开封市杞县S327,绿驹电动车(葛岗体验店),绿驹
2019-11-26,35.22932348259429,113.45458192871418,焦作市修武县,绿驹电动车,绿驹
2019-11-26,35.2335675441954,113.45980368881312,河南省焦作市修武县体育路,绿驹电动车,绿驹
2019-11-26,35.230595589455305,113.24215773832812,河南省焦作市解放区站前路149号附近,绿驹电动车,绿驹
2019-11-26,35.246794325772626,113.17573991517595,河南省焦作市中站区跃进路,绿驹电动车,绿驹
2019-11-26,35.20293616424754,113.05676746387473,河南省焦作市博爱县月山路辅路,绿驹电动车,绿驹
2019-11-26,35.206882538981844,113.25243854126255,河南省焦作市解放区映湖路,绿驹电动车售后部,绿驹
2019-11-26,35.206882538981844,113.25243854126255,河南省焦作市解放区映湖路,绿驹专卖精修电动车,绿驹
2019-11-26,35.22096325403899,113.24854783457334,016县道与104省道交叉口东200米附近,绿驹电动车(苏家作动力体验店),绿驹
2019-11-26,34.52314262416382,110.90040831286163,三门峡市灵宝市,绿驹电动车,绿驹
2019-11-26,33.74487886345235,112.91443396963372,河南省平顶山市鲁山县G311(徐峡线),绿驹电动车,绿驹
2019-11-26,33.772050748691015,113.19952856052156,冢头公安局北50米,绿驹电动车,绿驹
2019-11-26,33.772050748691015,113.19952856052156,玄武大道与311国道交叉口西100米,绿驹电动车叶县总代理,绿驹
2019-11-26,33.75005141682939,112.9173816194283,墨公路33号附近,绿驹电动车(鲁山动力体验店),绿驹
2019-11-26,33.685790171047444,113.25051467448745,平顶山市湛河区,大志微较绿驹电动车,绿驹
2019-11-26,33.632491674058336,113.36358241275624,平顶山市叶县,绿驹电动车专卖精修电动车电池以旧换新,绿驹
2019-11-26,32.15301454753105,114.09748283304512,010乡道北100米,绿驹电动车,绿驹
2019-11-26,31.806674587575678,115.42169384971933,崇福大道136号,绿驹电动车,绿驹
2019-11-26,35.7523574114,114.30359364247649,010乡道北100米,绿驹电动车,绿驹
2019-11-26,35.7523574114,114.30359364247649,崇福大道136号,绿驹电动车,绿驹
2019-11-26,32.06909220020857,110.75165419189058,东城门路159号附近,绿驹电动车,绿驹
2019-11-26,32.54396805639376,111.51752461515636,湖北省十堰市丹江口市丹江大道59,绿驹电动车(均州一路店),绿驹
2019-11-26,31.041732575569622,112.20639298023002,东城门路159号附近,绿驹电动车,绿驹
2019-11-26,30.6072822768268,114.27750613182234,武汉市江汉区,绿驹电动车,绿驹
2019-11-26,30.601558165291237,114.31171437010028,一元街办事处二曜小路胜利街210号,绿驹电动车,绿驹
2019-11-26,30.579014632947906,114.28745050856361,武汉市江汉区满春路25,绿驹电动车(满春路店),绿驹
2019-11-26,30.844790722463795,114.81590269070084,湖北省武汉市新洲区南安街133附32附近,绿驹电动车,绿驹
2019-11-26,30.708560907595583,114.42030210697719,湖北省武汉市黄陂区梅教街23附近,绿驹电动车,绿驹
2019-11-26,30.613504797578965,114.22115508852023,湖北省武汉市硚口区长丰大道172附近,绿驹电动车,绿驹
2019-11-26,30.614843179847362,114.24829693496163,武汉市江汉区发展大道79,绿驹电动车(发展大道店),绿驹
2019-11-26,30.651713566749333,114.3000427306261,后湖街办事处金桥大道万国摩托车市场,绿驹电动车,绿驹
2019-11-26,30.625919818109203,114.14345873785965,武汉市东西湖区,绿驹电动车(舵落口动力体验店),绿驹
2019-11-26,30.58539908401883,114.0390854021811,湖北省武汉市蔡甸区汉阳大街111-5东北方向47米,绿驹电动车蔡甸专卖,绿驹
2019-11-26,30.582266645982106,114.28983072352084,前进一路与民主二街交叉口西南50米,绿驹电动车(民主二街店),绿驹
2019-11-26,30.611583485836086,114.24205710995703,湖北省武汉市硚口区王家墩商圈发展大道4号西南90米,绿驹电动车售后服务维修中心,绿驹
2019-11-26,30.698977690793086,114.31813334596934,黄陂区汉口北刘店街百信平价超市对面,绿驹电动车(汉口北刘店街店),绿驹
2019-11-26,30.58140499646993,114.24876033663863,仁寿路20号,绿驹电动车(仁寿路),绿驹
2019-11-26,30.31102574457399,114.08681014343364,湖北省武汉市汉南区汉南大道268附近,绿驹电动车(汉南动力体验店),绿驹
2019-11-26,30.650552846662293,114.26320534435783,将军一路37号附近,绿驹电动车(将军一路店),绿驹
2019-11-26,29.037749999406877,111.70545217995837,一元街办事处二曜小路胜利街210号,绿驹电动车,绿驹
2019-11-26,29.635292427102467,111.88653934189124,后湖街办事处金桥大道万国摩托车市场,绿驹电动车,绿驹
2019-11-26,29.037749999406877,111.70545217995837,前进一路与民主二街交叉口西南50米,绿驹电动车(民主二街店),绿驹
2019-11-26,29.037749999406877,111.70545217995837,仁寿路20号,绿驹电动车(仁寿路),绿驹
2019-11-26,29.037749999406877,111.70545217995837,将军一路37号附近,绿驹电动车(将军一路店),绿驹
2019-11-26,27.722102417312744,112.0084849238816,湖南省娄底市娄星区学院路,绿驹电动车,绿驹
2019-11-26,27.708625019787505,112.01778936574063,湖南省娄底市娄星区福星路234号,娄底绿驹电动车旗舰店,绿驹
2019-11-26,27.755392476934393,111.9983674122312,仙桥街与娄星北路交叉口东100米,绿驹电动车,绿驹
2019-11-26,27.81274754892543,113.22155127096612,湖南省株洲市芦淞区X005(株醴路),绿驹电动车,绿驹
2019-11-26,33.78101359213001,120.26444564891948,盐城市射阳县,绿驹电动车,绿驹
2019-11-26,33.12923869984897,120.5721560736486,江苏省盐城市大丰区朝阳路,绿驹电动车,绿驹
2019-11-26,33.26688406988264,119.92252790218402,盐城市盐都区光明西路16号,绿驹电动车,绿驹
2019-11-26,29.30577822037362,117.20954826158831,江西省景德镇市珠山区西路378号,绿驹电动车,绿驹
2019-11-26,29.299919636556407,117.24305583952352,江西省景德镇市珠山区新厂西路,绿驹电动车,绿驹
2019-11-26,29.154830367383255,117.32890357335336,江西省景德镇市乐平市迎宾路,绿驹电动车,绿驹
2019-11-26,29.31885769149124,117.2244734818689,江西省景德镇市珠山区昌江大道东19附近,绿驹电动车,绿驹
2019-11-26,29.32477377766566,117.15719338516129,景德镇市浮梁县洪源街西50米,绿驹电动车,绿驹
2019-11-26,29.321295966690638,117.16203661368962,景德镇市浮梁县洪源镇金氏正骨医院斜对面,绿驹电动车,绿驹
2019-11-26,29.300303540056774,117.19987085855287,景德镇市昌江区茶山路10号,绿驹电动车,绿驹
2019-11-26,29.294911368012468,117.20628429277313,江西省景德镇市昌江区紫薇横一路,绿驹电动车,绿驹
2019-11-26,29.28737804729124,117.19788507876606,景德镇市昌江区瓷都大道,绿驹电动车(瓷都大道店),绿驹
2019-11-26,29.286805478202048,117.21757308970642,太白园街道中华南路469号,绿驹电动车,绿驹
2019-11-26,29.358953296690505,117.2223849574911,江西省景德镇市浮梁县新昌北路12号,绿驹电动车(大坤车行),绿驹
2019-11-26,29.27359861050461,117.18404626647397,市瓷都大道666号,绿驹电动车(瓷都大道店),绿驹
2019-11-26,29.28193499280115,117.20905951781474,景德镇市昌江区昌西路19号附近,小姜绿驹电动车,绿驹
2019-11-26,29.297127698090346,117.22579929366555,江西省景德镇市珠山区马鞍山路107号,绿驹电动车(马鞍山路店),绿驹
2019-11-26,29.329379577985698,117.32759252251286,江西省景德镇市浮梁县308省道(湘湖镇城管中队西北),绿驹电动车(湘湖镇城管中队西北),绿驹
2019-11-26,29.358953296690505,117.2223849574911,江西省景德镇市浮梁县新昌北路12号,绿驹电动车(浮梁动力体验店),绿驹
2019-11-26,29.35945484091257,117.2065183669347,浮梁县绿景翡翠城朝阳西大道37号,绿驹电动车专卖店(绿锦翡翠城动力体验店),绿驹
2019-11-26,28.984363669039215,117.15851067473356,景德镇市乐平市,绿驹车行,绿驹
2019-11-26,29.329379577985698,117.32759252251286,308省道(湘湖镇城管中队西北),绿驹车行,绿驹
2019-11-26,27.563203372894787,116.64391299396873,江西省抚州市南城县胜利西路151号附近,绿驹电动车,绿驹
2019-11-26,26.848454446680922,116.34256064638275,抚州市广昌县,绿驹电动车,绿驹
2019-11-26,27.580518889553183,116.64270981704364,江西省抚州市南城县建昌北大道,绿驹电动车,绿驹
2019-11-26,27.213637331010556,116.55356937670705,抚州市南丰县交通路琴城卫生院斜对面,绿驹电动车,绿驹
2019-11-26,27.42669312780401,115.84203622486837,江西省抚州市乐安县乐安大道60附近,绿驹电动车,绿驹
2019-11-26,27.967272001816465,116.34008090097244,江西省抚州市临川区临川大道辅路,绿驹电动车,绿驹
2019-11-26,27.545749932599726,116.23094008551385,江西省抚州市宜黄县沿江路,绿驹电动车(风神街店),绿驹
2019-11-26,27.910843812977543,116.7851787280983,江西省抚州市金溪县象山南路86号,绿驹电动车(金溪县动力体验店),绿驹
2019-11-26,28.23521249560684,116.6122306129308,江西省抚州市东乡区孝岗镇荆公路宏鑫商贸城东150米,绿驹电动车(东乡动力体验店),绿驹
2019-11-26,27.551985449688626,116.23013457496332,文娱路与208省道交叉口北50米,绿驹电动车(宜黄专卖店),绿驹
2019-11-26,41.49291646055291,123.69250712420832,文娱路与208省道交叉口北50米,绿驹电动车(宜黄专卖店),绿驹
2019-11-26,41.12587528873715,122.07749009021381,文娱路与208省道交叉口北50米,绿驹电动车(宜黄专卖店),绿驹
2019-11-26,40.64947306878302,109.90741601229894,内蒙古自治区包头市青山区,绿驹电动车,绿驹
2019-11-26,40.64947306878302,109.90741601229894,包头市青山区,绿驹电动车,绿驹
2019-11-26,40.5855246847859,110.03551940853264,包头市东河区南门外大街13号包头百货大楼F1,绿驹电动车(包头百货大楼店),绿驹
2019-11-26,40.64990331216553,109.81686878238561,内蒙古自治区包头市昆都仑区白云鄂博路,绿驹电动车磊磊车行,绿驹
2019-11-26,37.519615809161834,110.27636356432104,陕西省榆林市绥德县G210(千狮路),绿驹电动车,绿驹
2019-11-26,37.601002934261565,108.81633942191611,陕西省榆林市靖边县G307(芦河路),绿驹电动车,绿驹
2019-11-26,39.05805160606423,111.05827291738683,陕西省榆林市府谷县S301(柴家沟路),绿驹电动车,绿驹
2019-11-26,38.856105851051844,110.50001854536244,陕西省榆林市神木市麟州街和兴神路交叉口k8桌球会所对面,绿驹电动车(神木专卖店),绿驹
2019-11-26,38.76312640452732,110.19775985143433,陕西省榆林市神木市锦界实验小学西南(兴盛街北),绿驹电动车(锦界镇专卖店),绿驹
2019-11-26,37.604903028945145,107.60971277715963,长城北街113号,高全武绿驹电动车专卖,绿驹
2019-11-26,34.9159603091095,108.98643790006298,陕西省铜川市耀州区,绿驹电动车,绿驹
2019-11-26,35.099331051527734,109.10788000161801,延安路15号,绿驹电动车(铜川4S店),绿驹
2019-11-26,34.914458273904884,108.98041125643047,锦阳路街道中段44号,绿驹电动车(耀县专卖店),绿驹
2019-11-26,34.236612066690114,108.9271974499016,陕西省西安市雁塔区太白南路346号附近,绿驹电动车,绿驹
2019-11-26,34.20454556544993,108.87196457058644,陕西省西安市雁塔区丈八西路,绿驹电动车,绿驹
2019-11-26,34.64100947853589,109.22498855971487,陕西省西安市阎良区迎宾大道辅路,绿驹电动车,绿驹
2019-11-26,34.369789724077364,109.14128321263352,陕西省西安市临潼区窑村路,绿驹电动车,绿驹
2019-11-26,34.27912767495051,109.07141535554312,西安市灞桥区,绿驹电动车,绿驹
2019-11-26,34.372747432848406,109.22043579557668,陕西省西安市临潼区X208,绿驹电动车,绿驹
2019-11-26,34.33857903103902,108.82590238801922,陕西省西安市未央区X307(丰产路),绿驹电动车,绿驹
2019-11-26,34.21145959048997,108.9572077574127,陕西省西安市雁塔区经十五路,绿驹电动车,绿驹
2019-11-26,34.11502071159901,108.61142023270983,西安市鄠邑区,绿驹电动车,绿驹
2019-11-26,34.26536566561062,108.81737095803577,西安市未央区王寺东街167号,绿驹电动车(沣东大道店),绿驹
2019-11-26,34.39366518614421,109.28119188026908,陕西省西安市临潼区代王临蓝路华清驾校,绿驹电动车,绿驹
2019-11-26,34.11502071159901,108.61142023270983,陕西省西安市鄠邑区大王镇七号路口,绿驹电动车,绿驹
2019-11-26,34.11502071159901,108.61142023270983,西安市鄠邑区,欣绿驹电动车,绿驹
2019-11-26,34.16519217494144,108.87798376906288,长安区郭杜东街郭杜小学附近,绿驹电动车(郭杜专卖店),绿驹
2019-11-26,34.03537269736962,109.27663297980594,陕西省西安市蓝田县柳上路,绿驹电动车,绿驹
2019-11-26,34.42729464358367,109.27443897819109,陕西省西安市临潼区庆山路,绿驹电动车,绿驹
2019-11-26,34.14025175545174,109.05998705535363,陕西省西安市长安区大兆西街,绿驹电动车,绿驹
2019-11-26,34.673206443936074,109.24658106727513,陕西省西安市阎良区前进东路2号北50米,绿驹电动车,绿驹
2019-11-26,34.308810048992086,108.84823233523363,陕西省西安市未央区建章路南段,绿驹电动车,绿驹
2019-11-26,34.321727004778445,109.0629310396625,陕西省西安市未央区广运潭大道,绿驹电动车(北辰专卖店),绿驹
2019-11-26,34.215488119591605,109.12173636410942,陕西省西安市灞桥区狄寨街,绿驹电动车专卖店,绿驹
2019-11-26,34.55092660723319,109.24236801443334,陕西省西安市临潼区格力NO.陕A0495(阎新路西),绿驹电动车,绿驹
2019-11-26,34.27748042277134,109.06854778469418,陕西省西安市灞桥区鹿塬街西安市公安局灞桥分局附近,绿驹电动车(纺织城动力体验店),绿驹
2019-11-26,34.268066022583334,108.89211977405955,陕西省西安市莲湖区丰镐二路土门派出所西隔壁,绿驹电动车售后服务中心(团结二路店),绿驹
2019-11-26,34.4177167964027,109.10866315514127,新合街道907车站北50米,绿驹电动车,绿驹
2019-11-26,34.11429481035585,109.01065927085072,陕西省西安市长安区杜曲派出所公交站(104县道),绿驹电动车专卖店,绿驹
2019-11-26,34.23662845933631,108.9875159565055,西部家具城B1排-8号,绿驹电动车(经九路专卖店),绿驹
2019-11-26,34.467149460474445,109.01115859486676,陕西省西安市高陵区泾渭路,欣绿驹电动车,绿驹
2019-11-26,34.329282821412555,108.88494714052864,陕西省西安市未央区德邦东70米(石化大道南),绿驹电动车(石化大道店),绿驹
2019-11-26,34.28781381067015,108.95367411368915,陕西省西安市莲湖区北关正街南口,创绿驹电动车(北关专卖店),绿驹
2019-11-26,34.163290267304646,108.91358047235403,西安市长安区,金箭欣绿驹电动车专卖,绿驹
2019-11-26,34.25186496212873,108.96683938909071,210国道(滦镇街道内苑卫生院高桥分院北),绿驹电动车,绿驹
2019-11-26,34.541093106058156,109.09438691387484,西安市高陵区,欣绿驹电动车,绿驹
2019-11-26,34.57609137584933,109.19287074483326,新马路中国联通对面,绿驹电动车,绿驹
2019-11-26,34.296608956805144,109.03457476861232,陕西省西安市灞桥区十里铺西安市第七十九中学南,绿驹电动车(华清东路),绿驹
2019-11-26,34.6546893088608,109.17103481803913,官刘路与阎南路交叉口东150米,绿驹电动车,绿驹
2019-11-26,34.23841691761237,109.06247725883752,半引路,绿驹电动车,绿驹
2019-11-26,34.34726881662395,108.94646555063274,207县道附近,绿驹电动车,绿驹
2019-11-26,34.11502071159901,108.61142023270983,鄠邑区甘塘街北段2号附近,绿驹电动车,绿驹
2019-11-26,34.457871293554774,108.98943376510826,西安市高陵区泾渭北路83号,绿驹电动车(泾渭北路店),绿驹
2019-11-26,34.06410598846675,108.91460630760233,陕西省西安市长安区子午北街子午西街路口附近,绿驹电动车(子午镇专卖),绿驹
2019-11-26,34.03467432234549,108.27935486006191,楼观镇焦镇街道,绿驹电动车,绿驹
2019-11-26,34.3589726489172,108.9862585982832,陕西省西安市未央区徐家湾街道红旗路奇星御园北,绿驹电动车(奇星御园店),绿驹
2019-11-26,34.54925878626062,109.00287929386282,陕西省西安市高陵区X223(高韩路),绿驹电动车(姬家专卖店),绿驹
2019-11-26,34.297532116738374,108.94569722993006,西安市莲湖区城市华强路与文景南路交叉口北200米,绿驹电动车(文景路动力体验店),绿驹
2019-11-26,34.28616077468487,108.94864097708626,陕西省西安市莲湖区自强西路34号东南80米,欣绿驹电动车北关店,绿驹
2019-11-26,34.38306017916805,109.18564395695468,西安市临潼区姜白路西50米,绿驹电动车(白庙直营店),绿驹
2019-11-26,34.17795263323787,109.32006272748299,蓝新路北段蓝新路中段,绿驹电动车(蓝田动力体验店),绿驹
2019-11-26,34.267063429016595,108.8958255609663,沣惠南路78号北侧,绿驹电动车(沣惠路北段),绿驹
2019-11-26,34.14826906534517,108.95214287020158,陕西省西安市长安区南长安街,欣绿驹精修电动车,绿驹
2019-11-26,34.34180908996633,108.92655325956399,朱宏路385附近,绿驹电动车(朱宏路店),绿驹
2019-11-26,33.94648675032943,108.78132203854327,东大西安市东大街道办东(东大路东),绿驹电动车(东大专卖店),绿驹
2019-11-26,34.10762265032287,108.6144866587546,陕西省西安市鄠邑区草堂路332号,绿驹电动车(户县动力体验店),绿驹
2019-11-26,34.22881814302344,108.7609966340235,陕西省西安市长安区斗门北街22号正东方向157米,绿驹电动车(斗门专卖店),绿驹
2019-11-26,34.11419416251266,108.50109169743259,陕西省西安市鄠邑区重阳宫东南50米(重阳路北),绿驹电动车(145村道店),绿驹
2019-11-26,34.1872317026933,108.0992293377109,陕西省西安市周至县哑柏镇哑兴哑翠二路秦立大酒店附近,绿驹电动车(哑柏4S店),绿驹
2019-11-26,34.23694337436022,108.91980843433605,陕西省西安市雁塔区白沙路,欣绿驹电动车（甘家寨店）,绿驹
2019-11-26,34.37857300979155,109.21684348362007,姜寨南路50号附近,绿驹电动车(临潼动力体验店),绿驹
2019-11-26,34.04185436939671,108.67776611326862,鄠邑区庞光镇中学西100米,绿驹电动车专卖店(动力体验店),绿驹
2019-11-26,34.16635694040084,108.2312317391801,陕西省西安市周至县中心东街29号,绿驹电动车(周至动力体验店),绿驹
2019-11-26,34.34726881662395,108.94646555063274,108省道与277乡道交叉口北100米,绿驹电动车(五屯绿驹专卖),绿驹
2019-11-26,34.175975006946636,109.68941064977938,马家湾泾渭北路79号,绿驹电动车(高陵专卖店),绿驹
2019-11-26,34.088970947443734,108.36966167557331,陕西省西安市周至县终殿路,终南镇绿驹电动车专卖店(孔师车行),绿驹
2019-11-26,34.54259403774887,109.19236536533978,临潼区新马路新市初级中学对面,绿驹电动车(新市和平专卖店),绿驹
2019-11-26,34.07106685194789,108.83197504914808,滦镇东街84号附近,绿驹电动车(滦镇专卖店),绿驹
2019-11-26,34.35289142174913,108.99320654225012,西安市未央区谭家街道太华北路团结购物广场旁,欣绿驹电动车(团结村专卖店),绿驹
2019-11-26,34.293876036124445,108.98367048941685,含元路347号附近,绿驹龙,绿驹
2019-11-26,34.26324934027921,109.00181239886625,仁厚庄小学东(近星币传说),绿驹售后,绿驹
2019-11-26,34.27101720305327,108.9504264491179,西安市莲湖区,绿驹(土门动力体验店),绿驹
2019-11-26,34.299148106588945,108.95340118781418,西安市未央区,绿驹快修,绿驹
2019-11-26,34.210434049190155,108.93460001281255,陕西省西安市雁塔区长延堡街道东仪路龙门补习学校绿驹快修,绿驹快修,绿驹
2019-11-26,34.25677757384797,109.03949879343475,陕西省西安市雁塔区咸宁东路308号附近,绿驹快修,绿驹
2019-11-26,32.94222186107037,115.83972534929843,阜阳市颍泉区临沂路316号附近,绿驹电动车(阜阳临沂商城专卖店),绿驹
2019-11-26,32.9173622401719,115.86361668264179,安徽省阜阳市颍东区插胡路,绿驹电动车,绿驹
2019-11-26,33.04595952836284,115.26761550051185,安徽省阜阳市临泉县G106(京广线),绿驹电动车,绿驹
2019-11-26,37.3881961960769,117.9774040171467,岱山湖路长美电器旁,绿驹电动车,绿驹
2019-11-26,33.049499784135996,115.25852440441177,安徽省阜阳市临泉县教育西路辅路,绿驹电动车临泉总代理,绿驹
2019-11-26,33.04595952836284,115.26761550051185,安徽省阜阳市临泉县X050,绿驹电动车长官专卖店,绿驹
2019-11-26,33.04595952836284,115.26761550051185,安徽省阜阳市临泉县G345,绿驹电动车关庙店,绿驹
2019-11-26,33.04595952836284,115.26761550051185,安徽省阜阳市临泉县思源路,绿驹电动车艾亭专卖店,绿驹
2019-11-26,34.445537623242906,115.64026818996584,河南省商丘市永城市民生路,绿驹电动车,绿驹
2019-11-26,34.652478726537026,115.15457605886661,商丘市民权县,绿驹电动车,绿驹
2019-11-26,34.451616965408846,115.0784108906088,商丘市睢县,绿驹电动车,绿驹
2019-11-26,33.93480147585089,116.45556614759954,商丘市永城市,绿驹电动车,绿驹
2019-11-26,33.94490396992612,116.37642317113551,河南省商丘市永城市中山街,绿驹电动车,绿驹
2019-11-26,34.58451517120131,115.31904950331686,河南省商丘市宁陵县平安路,绿驹电动车,绿驹
2019-11-26,33.93893225954516,116.38845994125711,河南省商丘市永城市三台阁路,绿驹电动车,绿驹
2019-11-26,34.435922575229604,115.07317067841636,河南省商丘市睢县S325(睢州大道),绿驹电动车,绿驹
2019-11-26,33.941651307616,116.37957511406822,河南省商丘市永城市牌坊街,绿驹电动车专卖,绿驹
2019-11-26,36.347538501278144,120.29175224998124,和平路与治安路交叉口西100米,绿驹电动车(民权动力店),绿驹
2019-11-26,34.40399550758592,115.87760163487205,河南省商丘市虞城县义和路与惠民路交叉口东南100米,绿驹电动车(义和路店),绿驹
2019-11-26,33.94490396992612,116.37642317113551,河南省商丘市永城市中山街,绿驹电动车永城市旗舰店,绿驹
2019-11-26,34.410568147675875,115.82461683875665,河南省商丘市虞城县仓颉大道豫东商业广场东北450米,绿驹电动车(虞城二店),绿驹
2019-11-26,33.93480147585089,116.45556614759954,商丘市永城市,绿驹电动车(李寨直营店),绿驹
2019-11-26,34.46663402766001,115.32041843737164,河南省商丘市宁陵县S325(富阳街),绿驹电动车(宁陵总代理),绿驹
2019-11-26,36.04787506871767,120.22004168891685,条河乡201省道条河派出所附近,绿驹电动车(条河旗舰店),绿驹
2019-11-26,39.337108370541735,112.4393709396677,和平路与治安路交叉口西100米,绿驹电动车(民权动力店),绿驹
2019-11-26,33.94490396992612,116.37642317113551,河南省商丘市永城市中山街,绿驹电动车永城总代理,绿驹
2019-11-26,39.30856430848895,112.83312591250072,条河乡201省道条河派出所附近,绿驹电动车(条河旗舰店),绿驹
2019-11-26,37.703940486801216,112.71450350211099,晋中市榆次区,绿驹电动车,绿驹
2019-11-26,37.195600690703,112.182455563814,晋中市平遥县,绿驹电动车,绿驹
2019-11-26,37.42739557731329,112.55738411926058,山西省晋中市太谷县,绿驹电动车,绿驹
2019-11-26,37.42739557731329,112.55738411926058,晋中市太谷县,绿驹电动车(胡村专卖店),绿驹
2019-11-26,32.35253165416549,106.83448345088068,巴中市南江县,绿驹电动车,绿驹
2019-11-26,32.35253165416549,106.83448345088068,四川省巴中市南江县米仓山大道文星段22号,绿驹电动车(南江动力体验店),绿驹
2019-11-26,31.406128840886158,104.79313722798938,四川省绵阳市涪城区塘汛西路,绿驹电动车,绿驹
2019-11-26,31.282041008631595,104.94578926567424,四川省绵阳市三台县长兴大街,绿驹电动车,绿驹
2019-11-26,31.63838357460873,104.4359306646268,四川省绵阳市北川羌族自治县沙汀路,绿驹电动车,绿驹
2019-11-26,31.46641619785532,104.64520746199756,绵阳市涪城区高新区永兴镇绵兴中路298号,绿驹电动车新天地车行绵阳总代理,绿驹
2019-11-26,30.35097624058119,106.304305860287,四川省广安市武胜县下东街226号,绿驹电动车,绿驹
2019-11-26,30.544119864579894,106.44641061972047,广安市岳池县,绿驹电动车,绿驹
2019-11-26,30.459428110034978,106.66809863149174,广安市广安区宏志大道与广官路交叉口西南100米,绿驹电动车,绿驹
2019-11-26,28.92701851452033,119.06048349817375,浙江省衢州市衢江区将军路石安线,绿驹电动车,绿驹
2019-11-26,28.74286848011839,118.63358329792732,衢州市江山市,绿驹电动车,绿驹
2019-11-26,28.67417044506904,118.5398139467909,衢州市江山市万和豪生大酒店(墩贺线北),绿驹电动车,绿驹
2019-11-26,28.876680054235102,118.83905117656275,廿里镇通衢路176号,绿驹电动车,绿驹
2019-11-26,29.136644518044562,118.41275101295608,城关镇芹南路15号,绿驹电动车,绿驹
2019-11-26,28.90442150430533,118.5306302704297,文峰东路87号,绿驹电动车店,绿驹
2019-11-26,29.30095958099568,118.42547573058557,开马线与马西线交叉口东北100米,绿驹电动车专卖店,绿驹
2019-11-26,28.97019780838813,118.94347984872452,衢州市衢江区东迹大道189号,绿驹电动车(沈家动力体验店),绿驹
2019-11-26,28.950257003760584,118.8853459932926,浙江省衢州市柯城区三衢路大润发对面,绿驹电动车(衢州动力体验店),绿驹
2019-11-26,29.063148777747074,119.303470226608,景星路与解放南路交叉口东北50米,江山市绿驹电动车专卖店,绿驹
2019-11-26,29.018432048290528,118.35984670233695,华埠镇解放路177号中友电子,绿驹电动车(华埠站),绿驹
2019-11-26,28.94342451269498,118.7845067812043,航埠镇大桥支路33号,绿驹电动车(航埠动力体验店),绿驹
2019-11-26,28.67417044506904,118.5398139467909,浙江省衢州市江山市万和豪生大酒店(墩贺线北),绿驹电动车,绿驹
2019-11-26,28.46249980349602,121.31367419283919,浙江省台州市温岭市潘郎路143,绿驹电动车,绿驹
2019-11-26,28.420562542741855,121.38810623869267,浙江省台州市温岭市S76(锦屏大道),绿驹电动车,绿驹
2019-11-26,29.110355206288737,121.40255379759475,台州市三门县,绿驹电动车,绿驹
2019-11-26,28.655333607550652,121.2685660511622,台州市黄岩区,绿驹电动车,绿驹
2019-11-26,29.11267537827452,121.14020511976423,浙江省台州市天台县光明路,绿驹电动车,绿驹
2019-11-26,28.864785657800535,120.86522499087376,浙江省台州市仙居县穿镇路235号附近,绿驹电动车,绿驹
2019-11-26,28.85657799522956,121.13312048963326,浙江省台州市临海市泉井洋路59号附近,绿驹电动车,绿驹
2019-11-26,28.454049934885997,121.53537317644074,浙江省台州市温岭市山金线,绿驹电动车,绿驹
2019-11-26,28.555551292247873,121.49236291774821,台州市路桥区新蓬南路67-73号,绿驹电动车,绿驹
2019-11-26,28.439565178751028,121.49370723600278,台州市温岭市中源路10号,绿驹电动车,绿驹
2019-11-26,28.737363543578304,121.30643564704218,台州市临海市沿江镇西岑村3-331号,绿驹电动车,绿驹
2019-11-26,28.85322569325804,120.73543520574904,台州市仙居县,绿驹电动车,绿驹
2019-11-26,28.67925822490251,121.4494079756909,台州市椒江区,绿驹电动车,绿驹
2019-11-26,29.246747160905645,120.94352120926702,浙江省台州市天台县繁华路,绿驹电动车,绿驹
2019-11-26,28.34503651122879,121.60712001554943,浙江省台州市温岭市天竺南路189号西60米,绿驹电动车,绿驹
2019-11-26,28.461032218907647,121.35815108894637,二环路64号,绿驹电动车(牧屿直营店),绿驹
2019-11-26,28.47659707740805,121.46311149958001,台州市温岭市新新中路20号,绿驹电动车新河区域直营店,绿驹
2019-11-26,28.515571634178862,121.36747180560594,泽国镇杭温北路68号,绿驹电动车,绿驹
2019-11-26,28.582474396359927,121.3834395784004,里王路58号,绿驹电动车,绿驹
2019-11-26,28.616148638425834,121.4885197187856,台州市椒江区临河街24号,绿驹电动车(椒金线店),绿驹
2019-11-26,28.909247476931437,121.20627562295049,台州市临海市东方大道1642号,绿驹电动车,绿驹
2019-11-26,29.086015109262295,121.17709419362106,浙江省台州市天台县三合镇三合路138,绿驹电动车(三合镇卫生院北),绿驹
2019-11-26,28.638714084188607,121.4531606469576,机场路888号,绿驹电动车,绿驹
2019-11-26,28.396108619354862,121.53179689554563,南大街51号附近,绿驹电动车,绿驹
2019-11-26,28.099569537595432,121.17460747516414,台州市玉环市兴港东路38号,绿驹电动车(兴港东路店),绿驹
2019-11-26,28.746566908869674,121.24726471227223,文明街13号附近,绿驹电动车,绿驹
2019-11-26,29.159192266644926,120.89868864616108,平桥镇朝阳东路118号,绿驹电动车,绿驹
2019-11-26,28.86074153307351,121.16132056324548,浙江省台州市临海市柏叶西路546号,绿驹电动车(临海动力体验店),绿驹
2019-11-26,28.442192455608453,121.38658929807322,台州市温岭市石粘路216号,绿驹电动车(石粘动力体验店),绿驹
2019-11-26,28.59392846097825,120.98122910633745,宁溪镇钟楼路62号,绿驹电动车,绿驹
2019-11-26,28.631724237637336,121.15279028114125,头陀镇西沅路36号,绿驹电动车,绿驹
2019-11-26,28.43862901242549,121.3440550001597,浙江省台州市温岭市宅前路75号,绿驹电动车(横峰直营店),绿驹
2019-11-26,28.400080506811264,121.39673304738368,城东街道锦屏大道8号新开河富日大酒店斜对面,绿驹电动车(温岭4S销售中心店),绿驹
2019-11-26,29.15994114147462,121.00405343620633,上清溪路202号,绿驹电动车(天台专卖店),绿驹
2019-11-26,28.673203113564313,121.4381018576308,云西路41～43号,绿驹电动车(椒江动力体验店),绿驹
2019-11-26,28.679137012851832,121.26905998444668,浙江省台州市黄岩区G104(二环北路),绿驹电动车(黄岩4S店),绿驹
2019-11-26,28.47323320781238,121.26439414700228,大石路98,绿驹电动车(大溪直营店),绿驹
2019-11-26,28.8554585687428,121.14480205537946,柏叶西路17号,绿驹电动车(临海专卖店),绿驹
2019-11-26,28.828596433414727,121.60046379629907,桃渚镇四岔振兴路136号,绿驹电动车(四岔旗舰店),绿驹
2019-11-26,28.218687667072743,121.3084507422943,楚门镇南兴东路63-75号,绿驹电动车(楚门旗舰店),绿驹
2019-11-26,28.149847484913057,121.35605416451376,漩栈线与盐盘村1路交叉口西北50米,绿驹电动车专卖店,绿驹
2019-11-26,28.36943787647591,121.38244370164118,东辉中路270-280号,绿驹电动车(温岭店),绿驹
2019-11-26,30.025462378363247,122.11360080391776,舟山市定海区,绿驹电动车,绿驹
2019-11-26,29.97683569653626,122.33154416585897,舟山市普陀区,绿驹电动车,绿驹
2019-11-26,29.96403524635642,122.32237134013,浙江省舟山市普陀区海华路258号附近,绿驹电动车,绿驹
2019-11-26,30.020952090834694,122.10680898544847,浙江省舟山市定海区解放西路176-1号附近,绿驹电动车,绿驹
2019-11-26,29.7033686510399,122.2017077586783,六横镇台门台兴路93号,绿驹电动车,绿驹
2019-11-26,30.065977106968955,121.86169640347002,浙江省舟山市定海区欣港路,绿驹电动车,绿驹
2019-11-26,30.02246435396505,122.13549956269078,新桥路469-9号至10号,绿驹电动车,绿驹
2019-11-26,29.950711668281265,122.29230725916271,舟山市普陀区沈家门东海中路679号,绿驹电动车(东海中路店),绿驹
2019-11-26,29.97987204845883,122.25105630929338,新益路46号附近,绿驹电动车,绿驹
2019-11-26,30.025462378363247,122.11360080391776,舟山市定海区,绿驹电动车动力体验店,绿驹
2019-11-26,30.251187159190824,122.20325645483278,高亭镇沿港西路88号,绿驹电动车小国大卖场,绿驹
2019-11-26,30.046931068799804,121.88764849187365,金塘镇山潭南街78号,绿驹电动车(金塘店),绿驹
2019-11-26,30.12039013185835,122.09763054682725,景陶路18号附近,绿驹越驹电动车专卖店,绿驹
2019-11-26,36.02161725801098,106.24857742607188,六横镇台门台兴路93号,绿驹电动车,绿驹
2019-11-26,36.02161725801098,106.24857742607188,新桥路469-9号至10号,绿驹电动车,绿驹
2019-11-26,36.02161725801098,106.24857742607188,新益路46号附近,绿驹电动车,绿驹
2019-11-26,36.02161725801098,106.24857742607188,景陶路18号附近,绿驹越驹电动车专卖店,绿驹
2019-11-26,36.02161725801098,106.24857742607188,金塘镇山潭南街78号,绿驹电动车(金塘店),绿驹
2019-11-26,34.98913990996821,102.91758468825803,六横镇台门台兴路93号,绿驹电动车,绿驹
2019-11-26,34.98913990996821,102.91758468825803,新桥路469-9号至10号,绿驹电动车,绿驹
2019-11-26,34.98913990996821,102.91758468825803,新益路46号附近,绿驹电动车,绿驹
2019-11-26,34.98913990996821,102.91758468825803,景陶路18号附近,绿驹越驹电动车专卖店,绿驹
2019-11-26,34.98913990996821,102.91758468825803,金塘镇山潭南街78号,绿驹电动车(金塘店),绿驹
2019-11-26,29.58588653832045,105.06458802499718,高桥镇651号,绿驹电动车,绿驹
2019-11-26,25.508370252133076,103.787545796802,云南省曲靖市麒麟区麒麟西路329号附近,绿驹电动车,绿驹
2019-11-26,25.502101828436917,103.81143036949021,云南省曲靖市麒麟区金宝路,绿驹电动车,绿驹
2019-11-26,26.234233012637635,104.1021232002202,云南省曲靖市宣威市向阳西街15号,绿驹电动车,绿驹
2019-11-26,26.225598378323756,104.11157606909859,云南省曲靖市宣威市,板桥绿驹电动车,绿驹
2019-11-26,25.492948116632725,103.81065010132448,云南省曲靖市麒麟区潇湘路19号绿驹电动车罗,绿驹电动车罗,绿驹
2019-11-26,24.89032502707221,104.31011083928487,云南省曲靖市罗平县龙门街570号,绿驹电动车(罗平专卖店),绿驹
2019-11-26,26.42340789085857,103.31480019219082,锦秀园商铺8一14号,绿驹电动车(云南曲靖动力体验店),绿驹
2019-11-26,25.492258983310357,103.81130846943255,潇湘路中断10号南园村正大门斜对面,绿驹电动车(潇湘动力体验店),绿驹
2019-11-26,32.77795549110771,116.84158096083641,安徽省淮南市潘集区,绿驹电动车,绿驹
2019-11-26,31.609926825876165,117.88139519034293,安徽省合肥市巢湖市亚父街道巢湖中路338号绿驹电动车,绿驹电动车,绿驹
2019-11-26,33.50740741711196,116.88630741251711,淮北市濉溪县305省道西50米,绿驹电动车,绿驹
2019-11-26,26.25117779874947,117.62966392413387,凤凰路与悬索桥交叉口西南100米,绿驹电动车,绿驹
2019-11-26,25.010067731399424,117.54058560970802,漳州市华安县,绿驹电动车,绿驹
2019-11-26,23.94900223467641,117.34607743144682,云漳路525号,绿驹电动车,绿驹
2019-11-26,23.706894688691293,117.43656030456756,福建省漳州市东山县东埔街西环二路二区2正北方向87米,绿驹电动车东山专营店,绿驹
2019-11-26,33.33972874166799,105.61848159729402,甘肃省陇南市康县S307(东街)尚友不锈钢铝合金对面,绿驹电动车(滨河路店),绿驹
2019-11-26,24.536259553451515,111.31688869445695,广西壮族自治区贺州市钟山县钟山中路68号附近,绿驹电动车,绿驹
2019-11-26,22.812703091837545,108.30274412118497,广西壮族自治区南宁市西乡塘区宁铁永和电动车城578号,绿驹电动车,绿驹
2019-11-26,23.713877725360007,108.18356215633243,南宁市马山县,绿驹电动车,绿驹
2019-11-26,23.15936514119866,108.28272563263066,广西壮族自治区南宁市武鸣区灵源路,绿驹电动车,绿驹
2019-11-26,22.55741624731753,108.10707260998024,广西壮族自治区南宁市江南区苏圩广邑门业(322国道东),绿驹电动车,绿驹
2019-11-26,23.20190007437704,109.13352252260107,广西壮族自治区南宁市宾阳县金龙大道92号附近,绿驹电动车,绿驹
2019-11-26,23.436558983436942,108.60684829385231,广西壮族自治区南宁市上林县智城路192号附近,绿驹电动车,绿驹
2019-11-26,23.20062282668284,109.1278174364108,民主东路与金龙大道交汇处西南50米,绿驹电动车,绿驹
2019-11-26,22.764966430118193,108.32385553583256,大沙田街道银海大道86号,绿驹电动车(银海大道辅路店),绿驹
2019-11-26,23.171002766574187,107.7007917038774,蝶城路168,绿驹电动车服务中心,绿驹
2019-11-26,23.222415696440176,108.80257693728747,南宁市宾阳县工业品市场208号,绿驹电动车(宾阳专卖店),绿驹
2019-11-26,22.925054988563005,108.05501248196381,南宁市西乡塘区兴陵街与陵海路南一里交叉口南50米,绿驹电动车(金陵专卖店),绿驹
2019-11-26,22.65198898381793,108.22643685090206,广西壮族自治区南宁市江南区富民路,绿驹(吴圩店),绿驹
2019-11-26,27.221379027996527,107.91146020727803,遵义市余庆县,绿驹电动车,绿驹
2019-11-26,27.542500878000244,106.83650354793187,遵义市播州区,绿驹电动车,绿驹
2019-11-26,27.754498364959613,107.47259853018687,遵义市湄潭县,绿驹电动车,绿驹
2019-11-26,28.569077110561935,107.90545629257353,遵义市务川仡佬族苗族自治县,绿驹电动车,绿驹
2019-11-26,27.76629173948508,107.49345790276608,塔坪街李家巷,绿驹电动车湄潭专卖店,绿驹
2019-11-26,27.96945157594838,107.20509997017449,遵义市绥阳县旺草路56号附近,绿驹电动车(绥阳专卖店),绿驹
2019-11-26,27.60855000509954,106.87919902067095,贵州省遵义市播州区广山登记服务中心(遵南大道东),绿驹电动车遵义旗舰店,绿驹
2019-11-26,28.585736549211237,105.70949280347045,人民南路32号,绿驹电动车(赤水店),绿驹
2019-11-26,28.146025898722804,106.83734367109199,贵州省遵义市桐梓县G210(河滨北路),绿驹电动车(桐梓总代理),绿驹
2019-11-26,27.719601085564562,106.94960430248402,大连路463,绿驹电动车(遵义地区店),绿驹
2019-11-26,25.763719988443516,106.09388348830304,贵州省安顺市紫云苗族布依族自治县格凸大道,绿驹电动车,绿驹
2019-11-26,26.245043755268473,105.93687885864357,贵州省安顺市西秀区塔山西路89号附近,绿驹电动车,绿驹
2019-11-26,26.118855674768316,105.81243005672331,贵州省安顺市镇宁布依族苗族自治县G320(贵黄公路),绿驹电动车,绿驹
2019-11-26,25.67841895900529,106.16091366563819,水塘镇209省羊场中学附近,绿驹电动车,绿驹
2019-11-26,41.00181554202995,116.0340928802895,贵州省安顺市紫云苗族布依族自治县格凸大道,绿驹电动车,绿驹
2019-11-26,40.7732372026915,114.89257223145165,水塘镇209省羊场中学附近,绿驹电动车,绿驹
2019-11-26,39.63658372414733,118.18645947203979,水塘镇209省羊场中学附近,绿驹电动车,绿驹
2019-11-26,37.23861071684596,114.47412955498298,河北省邢台市内丘县平安大道,绿驹电动车,绿驹
2019-11-26,37.073749959650705,114.51347113674177,邢台市桥东区,绿驹电动车邢台动力体验店,绿驹
2019-11-26,36.889841045546746,114.30382522563697,河北省邢台市沙河市白塔镇中国建设银行东南50米,绿驹小鸟电动车,绿驹
2019-11-26,37.291249095972205,114.53068021973553,邢台市内丘县振兴东路123号,绿驹电动车(内丘专卖店),绿驹
2019-11-26,37.292857912046905,114.51849293403419,邢台市内丘县,绿驹电动车(金店志军专卖店),绿驹
2019-11-26,36.8611273411454,114.50947385688346,邢台市沙河市,绿驹电动车(新城动力体验店),绿驹
2019-11-26,37.6300220696835,114.92663506910144,河北省邢台市宁晋县天宝街,绿驹电动车(宁晋县动力体验店),绿驹
2019-11-26,36.10270416264641,114.30419975705155,河南省安阳市龙安区华林街,绿驹电动车,绿驹
2019-11-26,36.26645209630752,114.0207860475865,河南省安阳市安阳县林清线,天能电池绿驹电动车精修电动车,绿驹
2019-11-26,34.873519885775636,113.62345527984044,郑州市惠济区,绿驹电动车,绿驹
2019-11-26,34.54589798344474,113.39739094909922,郑州市新密市,绿驹电动车,绿驹
2019-11-26,34.72697314180725,113.62147919905756,河南省郑州市二七区航海西路,绿驹电动车,绿驹
2019-11-26,34.53827512383293,113.38521502067447,河南省郑州市新密市开阳路,绿驹电动车,绿驹
2019-11-26,34.75480778648787,113.61489918934954,河南省郑州市中原区前进路50号院北门,绿驹电动车(协作路店),绿驹
2019-11-26,34.51961679355871,113.41059541509416,河南省郑州市新密市振兴路60,绿驹电动车(新密旗舰店),绿驹
2019-11-26,34.60886141392317,113.68755845086302,河南省郑州市新郑市龙湖镇小乔祥安路新嘉苑小区附近,绿驹电动车(龙湖专卖店),绿驹
2019-11-26,34.73968141438016,113.60797864370068,河南省郑州市中原区绿东村街道秦岭路卧龙花园,绿驹电动车(秦岭路旗舰店),绿驹
2019-11-26,34.82618787279517,113.63128140727392,河南省郑州市惠济区国基路城市北岸住宅小区,绿驹电动车(国基路长兴路专卖店),绿驹
2019-11-26,34.47203145375213,113.61517812219346,河南省郑州市新密市昶博路,绿驹电动车(尚庄专卖店),绿驹
2019-11-26,34.773385845626066,113.64168073084072,二环支路电动车大卖场,绿驹电动车(二环支路旗舰店),绿驹
2019-11-26,34.68007800793839,113.453611040119,河南省郑州市荥阳市中国移动G3手机商城迪讯通专营店,绿驹电动车(贾峪专卖店),绿驹
2019-11-26,34.73501941846985,113.661997886221,永安东街51号,绿驹电动车售后,绿驹
2019-11-26,34.72501084892361,113.98248490572702,河南省郑州市中牟县大寨路,雅马哈电动车绿驹酷车,绿驹
2019-11-26,34.502746718614965,113.80847755895012,河南省郑州市新郑市薛店镇岳庄大街枣都公寓,绿驹电动(车薛店专营店),绿驹
2019-11-26,33.28324036445298,114.26557401968248,河南省驻马店市上蔡县腾飞路,绿驹电动车,绿驹
2019-11-26,32.82163750255709,114.01517675310072,董北路北50米,绿驹电动车,绿驹
2019-11-26,33.01784241674367,114.02847078173271,334省道南50米,绿驹电动车,绿驹
2019-11-26,32.979519871981815,114.00038696674372,驻马店市驿城区334省道西50米,绿驹电动车,绿驹
2019-11-26,33.28195416620827,114.45810993628112,河南省驻马店市上蔡县健康路,绿驹电动车,绿驹
2019-11-26,33.14737444174405,114.00390835937675,河南省驻马店市遂平县嵖岈山路,绿驹电动车,绿驹
2019-11-26,32.72011718033964,114.20853681290303,河南省驻马店市西平县商贸街,绿驹电动车,绿驹
2019-11-26,33.151971399578684,114.01944146389916,河南省驻马店市遂平县永固大道,绿驹电动车,绿驹
2019-11-26,32.840166287116425,113.73312431334784,河南省驻马店市驿城区S206(商桐线),爱玛绿驹电动车,绿驹
2019-11-26,32.99211586623036,114.05353925461637,驻马店市驿城区贸易广场2栋14号,绿驹电动车(驻马店动力体验店),绿驹
2019-11-26,32.83093811809371,114.04008227875468,河南省驻马店市确山县三里河乡龙山路确山农村商业银行,绿驹电动车(确山专卖店),绿驹
2019-11-26,33.067792134464945,114.01157796695648,河南省驻马店市驿城区法院关王庙法庭东,绿驹电动车(关王庙专卖店),绿驹
2019-11-26,32.796690562289285,114.15512206710955,河南省驻马店市确山县刘店镇确山农村商业银行刘店支行旁,绿驹电动车(刘店专卖店),绿驹
2019-11-26,33.01784241674367,114.02847078173271,刘阁村东组87号,刘阁绿驹电动车专卖店,绿驹
2019-11-26,32.806578767945304,114.04024530952678,龙山路172号,绿驹电动车(确山动力体验店),绿驹
2019-11-26,30.697446484492378,111.29254921035434,董北路北50米,绿驹电动车,绿驹
2019-11-26,30.697446484492378,111.29254921035434,334省道南50米,绿驹电动车,绿驹
2019-11-26,32.75682312422238,114.98374404240637,河南省驻马店市新蔡县东海明珠大酒店(新蔡汽车站东北),绿驹电动车(新蔡旗舰店),绿驹
2019-11-26,30.697446484492378,111.29254921035434,刘阁村东组87号,刘阁绿驹电动车专卖店,绿驹
2019-11-26,30.697446484492378,111.29254921035434,龙山路172号,绿驹电动车(确山动力体验店),绿驹
2019-11-26,30.076605056821283,115.95046198476884,黄冈市黄梅县,绿驹电动车,绿驹
2019-11-26,29.862463616924234,115.56549916185156,湖北省黄冈市武穴市广济大道6号附近,绿驹电动车,绿驹
2019-11-26,27.33527389482777,111.4737368788221,"湖南省邵阳市新邵县新涟街148号金典投资隔壁,大塘农贸市场路口绿驹电动车店",绿驹电动车,绿驹
2019-11-26,27.239108783296654,111.50344150643294,邵阳市双清区,绿驹电动车(邵阳动力体验店),绿驹
2019-11-26,32.95004152265495,119.8410952824158,江苏省泰州市兴化市英武北路121号附近,绿驹电动车,绿驹
2019-11-26,32.17747402371212,120.05859939046078,泰州市泰兴市,绿驹电动车,绿驹
2019-11-26,32.946408428533765,119.84584920500515,英武路120号(体育场大门北侧),绿驹电动车专卖店兴化旗舰店,绿驹
2019-11-26,34.14027233113251,118.78538966911557,英武路120号(体育场大门北侧),绿驹电动车专卖店兴化旗舰店,绿驹
2019-11-26,27.798554355160654,114.40304747335637,中山东路630号附近,绿驹电动车,绿驹
2019-11-26,27.79588492487238,114.36927521124268,学府路沙背桥苏记车行,绿驹电动车,绿驹
2019-11-26,28.114940003566396,114.46244350616257,城东路281号鹅峰医院旁,绿驹电动车,绿驹
2019-11-26,28.70802967078062,115.40241628540159,回兰路碧水家园·西苑对面,绿驹电动车,绿驹
2019-11-26,28.401789560397134,115.3993526629693,高荷路东50米,绿驹电动车,绿驹
2019-11-26,28.177304437894584,115.48511734755648,友谊路4号附近,绿驹电动车(上高动力体验店),绿驹
2019-11-26,28.38958422918232,114.80222420463859,东门路177号,绿驹电动车(宜丰动力体验店),绿驹
2019-11-26,27.820743005498823,114.07607089796872,三天段76号附近,绿驹电动车(金瑞专卖店),绿驹
2019-11-26,28.43168076028201,115.38610225156573,兴安路82-92,绿驹电动车(高安动力体验店),绿驹
2019-11-26,27.820856421848216,114.4235636759064,320国道东50米,绿驹电动车(古楼专卖店),绿驹
2019-11-26,28.222142358615116,117.17438269105524,江西省鹰潭市贵溪市罗河大道,绿驹电动车,绿驹
2019-11-26,28.240651429169095,117.04768537654593,环城东路35号8号,绿驹电动车(鹰潭直销店),绿驹
2019-11-26,28.405676255736548,118.07475367100164,江西省上饶市信州区上广公路,朝阳绿驹电动车,绿驹
2019-11-26,28.442615061204748,118.19742022041781,江西省上饶市广丰区龙轩路,绿驹电动车,绿驹
2019-11-26,40.682598089505,122.28787135420907,中国邮政储蓄银行东南(651县道),绿驹电动车,绿驹
2019-11-26,28.46515708741609,117.96847430713392,江西省上饶市信州区庆丰路97号附近,绿驹电动车,绿驹
2019-11-26,28.419105047403605,117.43805111622193,江西省上饶市弋阳县式平路,绿驹电动车,绿驹
2019-11-26,28.66346202644886,116.93368935724826,上饶市万年县北大路与青云路交叉口南100米,绿驹电动车,绿驹
2019-11-26,40.67313683826707,122.24157466449694,四股桥十七都,绿驹电动车,绿驹
2019-11-26,29.274982348016326,117.86951819927276,江西省上饶市婺源县园丁路,绿驹电动车,绿驹
2019-11-26,28.80586405832651,118.2836159578021,江西省上饶市玉山县双明镇玉紫线地方税务局双明税务分局,绿驹电动车,绿驹
2019-11-26,28.6530071216465,118.30909100375115,江西省上饶市玉山县六都乡六都派出所(玉山六都中学西),绿驹电动车,绿驹
2019-11-26,29.015812000305726,116.70285588400367,江西省上饶市鄱阳县鄱阳湖大道辅路,绿驹电动车,绿驹
2019-11-26,40.67313683826707,122.24157466449694,河口镇广电网络隔壁,绿驹电动车,绿驹
2019-11-26,28.693754718372542,116.7090645333135,江西省上饶市余干县和谐路,绿驹电动车,绿驹
2019-11-26,28.463630950066094,116.80164183303857,上饶市余干县黄金埠镇清华中学旁,绿驹电动车,绿驹
2019-11-26,28.317869197540336,117.71592925055107,江西省上饶市铅山县狮江大道56号附近,绿驹电动车,绿驹
2019-11-26,28.8017420358706,118.09408454441713,江西省上饶市玉山县南山乡中国邮政西北150米,绿驹电动车,绿驹
2019-11-26,28.504509075388214,117.34654712808933,江西省上饶市弋阳县中畈乡陈塘小学西400米,绿驹电动车,绿驹
2019-11-26,28.99639420421705,116.71789020528502,江西省上饶市鄱阳县鄱阳镇鄱阳洪迈学校附近,绿驹电动车,绿驹
2019-11-26,40.67313683826707,122.24157466449694,河大段与262乡道交叉口东南100米,绿驹电动车,绿驹
2019-11-26,28.675252815853003,118.25185161806439,江西省上饶市玉山县人民大道与冰溪路交叉口旁,绿驹电动车(冰溪路店),绿驹
2019-11-26,29.01431847153372,116.6952020623492,上饶市鄱阳县北纬二路汉庭酒店旁边,绿驹电动车(鄱阳旗舰店),绿驹
2019-11-26,29.34771122045252,116.88598059327326,江西省上饶市鄱阳县爱国宾馆(208省道),绿驹电动车(田坂街店),绿驹
2019-11-26,28.879209156534987,116.96063256587485,江西省上饶市鄱阳县莱特陶瓷(富饶大道西),绿驹电动车专卖店,绿驹
2019-11-26,40.67313683826707,122.24157466449694,人民大道221号附近,绿驹电动车专卖店,绿驹
2019-11-26,28.852002239753023,116.87563615617651,江西省上饶市万年县雷士照明(乐安路东),绿驹电动车厂家直营店,绿驹
2019-11-26,40.67313683826707,122.24157466449694,玉亭镇世纪大道343号,绿驹电动车(世纪大道店),绿驹
2019-11-26,28.994910795418573,116.67880203642183,上饶市鄱阳县新民路与西门路交叉口北50米,绿驹电动车(鄱阳二店),绿驹
2019-11-26,40.26233445818793,122.13449062906065,玉虹世纪家园,绿驹电动车(玉虹世纪家园店),绿驹
2019-11-26,28.437628310999735,117.97341184157126,江西省上饶市信州区G320(沪瑞线),绿驹电动车(杨强车行),绿驹
2019-11-26,28.691259179775223,115.9054660260597,环湖路东湖国际华城12幢2号,绿驹电动车(国际华城店),绿驹
2019-11-26,40.67313683826707,122.24157466449694,人民南路(绿驹旁边),雅迪电动车,绿驹
2019-11-26,39.902962898417975,123.60033091786286,中国邮政储蓄银行东南(651县道),绿驹电动车,绿驹
2019-11-26,40.00640870559368,124.36154728159079,四股桥十七都,绿驹电动车,绿驹
2019-11-26,40.00640870559368,124.36154728159079,河大段与262乡道交叉口东南100米,绿驹电动车,绿驹
2019-11-26,40.00640870559368,124.36154728159079,河口镇广电网络隔壁,绿驹电动车,绿驹
2019-11-26,40.00640870559368,124.36154728159079,人民大道221号附近,绿驹电动车专卖店,绿驹
2019-11-26,40.00640870559368,124.36154728159079,玉亭镇世纪大道343号,绿驹电动车(世纪大道店),绿驹
2019-11-26,40.00640870559368,124.36154728159079,玉虹世纪家园,绿驹电动车(玉虹世纪家园店),绿驹
2019-11-26,40.00640870559368,124.36154728159079,人民南路(绿驹旁边),雅迪电动车,绿驹
2019-11-26,39.48171262398245,110.08403419421002,中国邮政储蓄银行东南(651县道),绿驹电动车,绿驹
2019-11-26,39.61448231394889,109.78744317923602,四股桥十七都,绿驹电动车,绿驹
2019-11-26,39.61448231394889,109.78744317923602,河口镇广电网络隔壁,绿驹电动车,绿驹
2019-11-26,39.61448231394889,109.78744317923602,河大段与262乡道交叉口东南100米,绿驹电动车,绿驹
2019-11-26,39.61448231394889,109.78744317923602,人民大道221号附近,绿驹电动车专卖店,绿驹
2019-11-26,39.827925339001915,109.8505370141876,玉亭镇世纪大道343号,绿驹电动车(世纪大道店),绿驹
2019-11-26,38.60039322781684,108.83814185359267,玉虹世纪家园,绿驹电动车(玉虹世纪家园店),绿驹
2019-11-26,39.61448231394889,109.78744317923602,人民南路(绿驹旁边),雅迪电动车,绿驹
2019-11-26,36.596890441313086,109.49959402433238,延安市宝塔区210国道北50米,绿驹电动车,绿驹
2019-11-26,35.77115971883338,109.44606747813003,陕西省延安市洛川县中心大街,绿驹电动车,绿驹
2019-11-26,35.60023508679671,109.2899828740576,S205(环城路),绿驹电动车,绿驹
2019-11-26,36.61802238942,109.52054807831924,G309(迎宾大道),绿驹电动车,绿驹
2019-11-26,36.583918802110205,110.01519704298042,茶坊镇正街南8,绿驹电动车力帆摩托车(富县专营店),绿驹
2019-11-26,35.63996013261647,108.8088861936761,陕西省延安市黄陵县黄五路辅路,绿驹电动车专卖(平安车业),绿驹
2019-11-26,36.596890441313086,109.49959402433238,陕西省延安市宝塔区G210(包南线),绿驹电动车(李渠镇大型停车场),绿驹
2019-11-26,37.15172940975291,109.69148393889641,安定东路14附近,绿驹电动车子长动力体验店,绿驹
2019-11-26,33.53649656929293,110.88105773421007,陕西省商洛市商南县长新西路779号,绿驹电动车,绿驹
2019-11-26,33.86885529307985,109.94747163464996,陕西省商洛市商州区G70(福银高速),绿驹电动车,绿驹
2019-11-26,34.03203451754687,110.37674614633082,陕西省商洛市洛南县金百花门业(古城分店),绿驹电动车,绿驹
2019-11-26,33.87863385220776,109.92441788136406,山镇路西100米,绿驹电动车,绿驹
2019-11-26,33.42598793269628,109.16808308943847,商洛市镇安县迎宾路42号,绿驹电动车(镇安专卖),绿驹
2019-11-26,33.86885529307985,109.94747163464996,陕西省商洛市商州区,绿驹电动车商州动力体验店,绿驹
2019-11-26,33.69096289799381,110.34840999732408,陕西省商洛市丹凤县金山小区门口,绿驹电动车(丹凤动力体验店),绿驹
2019-11-26,36.77956590619261,119.21106194246413,山东省潍坊市寒亭区民主街4401号,潍坊市寒亭区教育局,绿驹
2019-11-26,36.77051639333289,119.20296009991709,通亭街4781号,潍坊市公安局寒亭区分局,绿驹
2019-11-26,36.65631378530757,119.18157233145375,山东省潍坊市坊子区龙山路,潍坊市坊子区人民医院-停车场,绿驹
2019-11-26,36.62697181856673,119.27982347703083,山东省潍坊市坊子区潍胶路,潍坊市永佳饲料有限公司,绿驹
2019-11-26,37.02068657999319,119.56697160689077,山东省潍坊市昌邑市下营镇廒里盐场金晶大道西500米,潍坊市海欣药业有限公司,绿驹
2019-11-26,36.458753344973886,119.90521040090165,红高粱大街9785号,高密市爱玛电动车河崖店,绿驹
2019-11-26,36.76211761368049,119.19238316941633,潍坊市寒亭区海龙路3650号,潍坊市国信汽车销售有限公司,绿驹
2019-11-26,36.1860317093196,119.13339753554747,潍坊市安丘市庵上北仕居园,潍坊市百思特食品有限公司,绿驹
2019-11-26,36.61897090429614,118.84579101296208,山东省潍坊市昌乐县第三殡仪馆,潍坊市第三殡仪馆,绿驹
2019-11-26,36.11260488633226,119.40873182654549,舜和路967号,潍坊市华顿机电有限公司,绿驹
2019-11-26,36.79770455942847,118.97811794077136,山东省潍坊市寿光市潍高路化龙段79,潍坊市绿龙食品有限公司,绿驹
2019-11-26,36.79770455942847,118.97811794077136,潍坊市寿光市潍高路化龙段65号,潍坊市华星医疗器械有限公司,绿驹
2019-11-26,36.61810827619596,119.18298337088441,山东省潍坊市坊子区永盛武术职业中等学校,潍坊市永盛国际武术院,绿驹
2019-11-26,36.63032510490552,119.12031161106484,山东省潍坊市坊子区南外环路,潍坊市亚兴家具有限公司,绿驹
2019-11-26,37.27223132048243,118.8700321336381,太平路61号附近,潍坊市机动车驾驶员培训,绿驹
2019-11-26,36.41979253199319,118.50086962724545,山东省潍坊市临朐县米山路,潍坊市誉航饲料有限公司,绿驹
2019-11-26,36.735573664240526,118.5072249662539,山东省潍坊市青州市巴黎路七里嘉园东北500米,青州市电动车行业协会,绿驹
2019-11-26,36.483842195596104,119.2256075181801,潍坊市安丘市,潍坊市宇宏石油机械有限公司,绿驹
2019-11-26,36.417335674193616,119.21195627207392,山东省潍坊市安丘市南苑路,潍坊市龙飞玻璃制品有限公司,绿驹
2019-11-26,36.42715050023732,119.2053472713522,山东省潍坊市坊子区潍安路,潍坊市福景苗圃,绿驹
2019-11-26,36.73285441557026,119.03142854151555,潍坊市潍城区,潍坊市盛隆饮料厂,绿驹
2019-11-26,36.571914533294326,118.90139754625072,潍坊市昌乐县乔官镇乔山街一号,潍坊市江润润滑油有限公司,绿驹
2019-11-26,36.66074159970123,119.17240097265466,山东省潍坊市坊子区,潍坊市瑞泉农业有限公司,绿驹
2019-11-26,36.86192174647094,118.7974153748082,山东省潍坊市寿光市S320,潍坊市博冠防水材料有限公司,绿驹
2019-11-26,36.62196882301891,118.99501049863221,山东省潍坊市潍城区隆泰路,潍坊市洪刚配件公司,绿驹
2019-11-26,36.42715050023732,119.2053472713522,山东省潍坊市坊子区潍安路,潍坊市秋雨化工有限公司,绿驹
2019-11-26,36.225408642194466,118.87132894120356,山东省潍坊市安丘市青柘路与024县道交叉口东100米,潍坊市宏盛铸造厂,绿驹
2019-11-26,36.388734882874914,119.77799596780062,高密市人民大街城投新世界8号楼底商,潍坊银行(高密支行),绿驹
2019-11-26,36.62607302233629,118.99826400039267,潍坊市潍城区大柳树中学以东,潍坊市日新沙发厂,绿驹
2019-11-26,36.4344728813058,119.67863098178103,山东潍坊高密市康庄派出所对面,潍坊市正源净化设备厂,绿驹
2019-11-26,36.55993541292689,119.67624993319627,潍坊市高密市大牟家镇驻地伟民电器,潍坊市明昊信息科技有限公司,绿驹
2019-11-26,36.97326332891903,119.19590351937332,山东省潍坊市寒亭区渤海路15433号,潍坊市宏洋港建有限公司,绿驹
2019-11-26,36.483842195596104,119.2256075181801,潍坊市安丘市,潍坊市运通驾校安丘分校,绿驹
2019-11-26,36.65655420178723,117.12639941261048,27县道附近,雅迪电动车(乳山市徐家镇卫生院东北),绿驹
2019-11-26,37.16751874931955,122.42875158327064,山东省威海市荣成市文化东路85,荣成市福林祥电动车有限公司,绿驹
2019-11-26,30.911212018374083,121.76631998284697,山东省威海市乳山市海阳所镇东海路50-1,上海立马电动车,绿驹
2019-11-26,31.235929042252014,121.48053886017651,27县道附近,雅迪电动车(乳山市徐家镇卫生院东北),绿驹
2019-11-26,37.173484946887676,122.42644229492325,威海市荣成市月眉巷与立信街交叉口东50米,上海凤凰电动车(山东荣成总代理),绿驹
2019-11-26,37.40774918747212,122.14179993025289,威海市环翠区珠海路1317号附近,杨泽平上海奇强电动车行,绿驹
2019-11-26,35.50574368684681,112.8479935397251,山西省晋城市城区新市西街1187号附近,绿驹电动车,绿驹
2019-11-26,35.78032043548622,113.28372646648015,山西省晋城市陵川县崇文镇梅园西街44号(陵川县烟草专卖局南),绿驹电动车,绿驹
2019-11-26,31.2662443526329,106.3061144724947,四川省南充市仪陇县新南路,绿驹电动车,绿驹
2019-11-26,31.560860040700497,106.00290317587839,万驰国际酒店对面七里大道539号,绿驹电动车(巴都大道店),绿驹
2019-11-26,28.452947394100924,119.93232987181328,解放街339号,绿驹电动车(丽水旗舰店),绿驹
2019-11-26,28.145487556330146,120.29657334899679,丽水市青田县,绿驹电动车,绿驹
2019-11-26,28.665214747164,120.0974783056641,浙江省丽水市缙云县S42(溪西北路),绿驹电动车,绿驹
2019-11-26,27.518372798129633,119.01052486606669,浙江省丽水市庆元县中国邮政(54省道),绿驹电动车,绿驹
2019-11-26,28.608591490620764,120.12873041543068,浙江省丽水市缙云县石仁线,绿驹电动车,绿驹
2019-11-26,28.59591963397781,119.28387545977954,凯恩路68,绿驹电动车(青云路店),绿驹
2019-11-26,28.461300443800862,119.48946267650533,丽水市松阳县新华路8-3,绿驹电动车(新华路店),绿驹
2019-11-26,27.98291770813641,119.64077556250628,鹤溪街道复兴西路30号,绿驹电动车(景宁动力体验店),绿驹
2019-11-26,28.116112936894723,119.57081795483718,浙江省丽水市云和县中山街228号,绿驹电动车(云和动力体验店),绿驹
2019-11-26,28.53613784681726,119.41338721934902,浙江省丽水市松阳县万寿北路28号,绿驹电动车(万寿路店),绿驹
2019-11-26,28.64726338872429,119.39378421685566,丽水市遂昌县连直线东亭村综合大楼南200米,绿驹电动车(云峰旗舰店),绿驹
2019-11-26,27.631982204649184,119.06664488583411,松源镇新建路108号,绿驹电动车售后服务中心,绿驹
2019-11-26,27.588123678094693,119.44312643172196,浙江省丽水市庆元县229省道与55省道交叉口东150米,绿驹电动车(菊水动力体验店),绿驹
2019-11-26,28.14179402659625,120.29958168431817,新建路粮食大厦130号,绿驹电动车(庆元动力体验店),绿驹
2019-11-26,29.97233639364818,120.88292147466866,绍兴市上虞区人民大道中段18,绿驹电动车,绿驹
2019-11-26,29.57186965320016,120.33843417644275,浙江省绍兴市诸暨市建新路176号附近,绿驹电动车,绿驹
2019-11-26,29.595010360952276,120.8375470973968,浙江省绍兴市嵊州市嵊州大道37号附近,绿驹电动车,绿驹
2019-11-26,30.152713621682615,120.52721698856216,浙江省绍兴市柯桥区安华北路,绿驹电动车,绿驹
2019-11-26,30.013686561123617,120.82663489293577,绍兴市上虞区建东中路109-111号,绿驹电动车,绿驹
2019-11-26,29.505247787949667,120.91757113756785,浙江省绍兴市新昌县阳光路176号附近,绿驹电动车,绿驹
2019-11-26,29.69498918470558,120.16265153818864,浙江省绍兴市诸暨市开元西路306-、308号,绿驹电动车,绿驹
2019-11-26,29.59132944957788,120.84129355897693,浙江省绍兴市嵊州市一景路2号西50米,绿驹电动车,绿驹
2019-11-26,29.85889452883266,120.36133219318971,浙江省绍兴市诸暨市麦香城(枫江路),绿驹电动车,绿驹
2019-11-26,29.5097249507061,120.89530917591838,浙江省绍兴市新昌县鼓山中路290号附近,绿驹电动车,绿驹
2019-11-26,29.921669019842586,120.30880656325819,浙江省绍兴市诸暨市江东路,绿驹电动车,绿驹
2019-11-26,29.572065403813813,121.03911301836723,浙江省绍兴市嵊州市嵊张线,绿驹电动车,绿驹
2019-11-26,29.818173716504408,120.12214106155095,浙江省绍兴市诸暨市应镇南路,绿驹电动车,绿驹
2019-11-26,29.714934649194955,120.25340833196779,绍兴市诸暨市,绿驹电动车专卖,绿驹
2019-11-26,29.596912045340442,120.82980696056025,浙江省绍兴市嵊州市雅戈尔大道,绿驹电动车,绿驹
2019-11-26,29.604771656369024,120.15356221355003,浙江省绍兴市诸暨市站前路217西北90米,绿驹电动车,绿驹
2019-11-26,29.697288710198432,120.16594445669548,浙江省绍兴市诸暨市开元西路219号附近,绿驹电动车,绿驹
2019-11-26,29.88232740908402,120.3976466874866,阮市镇临江北路18号,绿驹电动车专卖店,绿驹
2019-11-26,29.567326991294273,120.83743725739004,绍兴市嵊州市,绿驹电动车专卖店,绿驹
2019-11-26,30.156629178664954,120.37914821787741,浙江省绍兴市柯桥区杨江东路212正西方向12米,绿驹电动车,绿驹
2019-11-26,30.0363693113069,120.58547847885335,034乡道与316县道交叉口北50米,绿驹电动车,绿驹
2019-11-26,29.530178118696064,120.72959651278371,浙江省绍兴市嵊州市桃源路19号,甘霖绿驹电动车店,绿驹
2019-11-26,30.158088980376814,120.6383237780044,马鞍镇春华路777号,绿驹电动车,绿驹
2019-11-26,30.055737132054134,120.78237558246562,道墟镇浙江上虞市龙盛大道41号,绿驹电动车,绿驹
2019-11-26,30.038242967062466,120.87450989363869,浙江省绍兴市上虞区丰石线,绿驹电动车专卖,绿驹
2019-11-26,29.55843494998648,120.1390993879458,安华镇东街120号,绿驹电动车,绿驹
2019-11-26,29.7414846466525,120.23418475395898,直埠镇商业街,绿驹电动车,绿驹
2019-11-26,29.88013520112278,120.39933741703216,浙江省绍兴市诸暨市枫店线,绿驹电动车店口专卖,绿驹
2019-11-26,29.751440179818623,119.97241513463968,浙江省绍兴市诸暨市合环线,绿源绿驹电动车,绿驹
2019-11-26,29.46060786498117,120.62357046128815,浙江省绍兴市嵊州市环镇东路25号附近,绿驹电动车(长乐动力体验店),绿驹
2019-11-26,29.704972181319423,120.26061265232488,浙江省绍兴市嵊州市平安路,绿驹电动车(崇仁体验店),绿驹
2019-11-26,29.996969390606385,120.62246084637532,浙江省绍兴市越城区鲁迅东路480号,绿驹电动车城东(动力体验店),绿驹
2019-11-26,29.59237237508779,120.84180913064455,浙江省绍兴市嵊州市湖滨新村50号,绿驹电动车至臻名车馆,绿驹
2019-11-26,30.09645508432496,120.53310430321345,浙江省绍兴市柯桥区局勤俭村凯豪宾馆2楼正北方向188米,绿驹电动车(越剑路店),绿驹
2019-11-26,29.714934649194955,120.25340833196779,绍兴市诸暨市,东和绿驹电动车专卖店,绿驹
2019-11-26,29.81412679767737,120.8923663818653,绍兴市上虞区绿洲路与503县道交叉口西北100米,章镇绿驹电动车专卖店,绿驹
2019-11-26,30.079003604949623,120.45151103408105,绍兴市柯桥区s212,平水绿驹电动车(平水动力体验店),绿驹
2019-11-26,29.79843957334582,120.4270605596548,枫桥镇步森大道274号,绿驹电动车维修部,绿驹
2019-11-26,29.574231810141445,120.82690527566221,浙江省绍兴市嵊州市浦南二路,绿驹电动车(浦口动力体验店),绿驹
2019-11-26,30.096773821525243,120.85368682247655,崧厦镇新兴桥环城东路245号,绿驹电动车(崧厦旗舰店),绿驹
2019-11-26,29.714934649194955,120.25340833196779,绍兴市诸暨市,绿驹佳捷时电动车专卖,绿驹
2019-11-26,29.79270430198587,120.68978053499995,浙江省绍兴市柯桥区王坛镇平王线舜皇山庄西,绿驹电动车(舜皇山庄店),绿驹
2019-11-26,30.12079956021163,120.54911753478237,浙江省绍兴市柯桥区羊山路12号附近,绿驹电动车,绿驹
2019-11-26,29.58396299763029,120.92997000116183,黄泽镇东直街100号,绿驹电动车(黄泽店),绿驹
2019-11-26,29.59693837867301,120.83254335993944,城中路53,绿驹电动车(城中店),绿驹
2019-11-26,29.714934649194955,120.25340833196779,绍兴市诸暨市,均江车行绿驹电动车专卖,绿驹
2019-11-26,29.79843957334582,120.4270605596548,浙江省绍兴市诸暨市步森大道274,绿驹电动车维修部-金龙车行,绿驹
2019-11-26,29.584666188631196,120.92815889777968,浙江省绍兴市嵊州市滨江路102号附近,绿驹电动车(黄泽店),绿驹
2019-11-26,30.08262837278845,120.48534999204999,育才路403号附近,绿驹电动车(兴越动力体验店),绿驹
2019-11-26,29.967469725430554,120.73521539039082,浙江省绍兴市越城区富盛镇卫生院(吼山连接线西),绿驹电动车(林华车业动力体验店),绿驹
2019-11-26,30.079003604949623,120.45151103408105,浙江省绍兴市柯桥区振贤街160附近,雅迪绿驹电动车专卖店建兴车业,绿驹
2019-11-26,29.84411644583497,120.32408840184304,浙江省绍兴市诸暨市江澡街,绿驹,绿驹
2019-11-26,30.08569468035765,120.50638708039679,浙江省绍兴市柯桥区育才路,绿驹专卖店,绿驹
2019-11-26,29.714934649194955,120.25340833196779,绍兴市诸暨市,绿园绿驹,绿驹
2019-11-26,30.895981678861546,120.06248216810668,浙江省湖州市吴兴区赵湾三路66,绿驹电动车,绿驹
2019-11-26,30.548628239138925,119.98346466845346,浙江省湖州市德清县G104(京福线),绿驹电动车,绿驹
2019-11-26,30.560295111426043,120.09406216179022,浙江省湖州市德清县乾元镇南街149号绿驹电动车,绿驹电动车,绿驹
2019-11-26,30.90517829747736,119.66527985685082,湖州市长兴县浙皖大道751号,绿驹电动车,绿驹
2019-11-26,30.781251374923116,119.65000621619697,浙江省湖州市安吉县上马山中路80西北70米,绿驹电动车,绿驹
2019-11-26,30.550509996480393,119.97104918800007,浙江省湖州市德清县英溪北路271号附近,绿驹电动车德清动力体验店,绿驹
2019-11-26,30.578617926027842,119.39296087350209,吉华路6,绿驹电动车,绿驹
2019-11-26,30.86920425677645,120.26023753675798,珍贝路217号,绿驹电动车(珍贝路店),绿驹
2019-11-26,30.64054898466621,119.69249677198876,浙江省湖州市安吉县浦源大道415附近,绿驹电动车(浦源大道店),绿驹
2019-11-26,31.00609071749514,119.91894746842134,仓前二街309号,绿驹电动车(长兴动力体验店),绿驹
2019-11-26,30.858541562183873,120.11961257019013,建设南路107号,绿驹电动车(碧浪湖动力体验店),绿驹
2019-11-26,30.86424790700244,120.10421949650654,朝阳路1号附近,绿驹电动车(千金动力体验店),绿驹
2019-11-26,21.677522289220143,109.21482281026283,广西壮族自治区北海市合浦县红旗幼儿园东北50米(延安路西),绿驹电动车,绿驹
2019-11-26,21.681652563736083,109.2145107993398,东山一路96号附近,绿驹电动车,绿驹
2019-11-26,21.600422741200475,109.45494661029194,广西壮族自治区北海市铁山港区朝阳大道,绿驹电动车(南康专营店),绿驹
2019-11-26,21.67472148317154,109.21390159796265,广西壮族自治区北海市合浦县延安路221号,绿驹电动车(合浦动力店),绿驹
2019-11-26,42.2616861034116,118.8955203975195,东山一路96号附近,绿驹电动车,绿驹
2019-11-26,31.756287719901362,116.54543837997299,六安市金安区,绿驹电动车,绿驹
2019-11-26,32.014824086053515,116.3244594258933,安徽省六安市裕安区金华路,绿驹电动车,绿驹
2019-11-26,31.853911259788994,115.92490276758508,安徽省六安市叶集区观山路,绿驹电动车,绿驹
2019-11-26,31.71205671492027,116.65474940459907,016乡道和003县道的交叉口附近,绿驹电动车,绿驹
2019-11-26,31.82887143725165,116.54062750481431,安徽省六安市金安区中国邮政南50米(皖西大道北),绿驹电动车(皖西大道辅路店),绿驹
2019-11-26,31.422422227494526,116.3868243964151,经济开发区国际汽车城B1-31号,绿驹电动车(皖西大道店),绿驹
2019-11-26,30.647641793939556,117.85626603422716,临城北路103号附近,绿驹电动车,绿驹
2019-11-26,30.659731895939533,117.48118400597913,三台路天地商业广场,绿驹电动车(石台路店),绿驹
2019-11-26,26.495495660323886,119.55648045991936,福州市罗源县,绿驹电动车,绿驹
2019-11-26,26.074816457411117,119.1719945484146,福建省福州市闽侯县文贤路,绿驹电动车,绿驹
2019-11-26,26.156035214577336,119.13848201812112,福州市闽侯县,绿驹电动车,绿驹
2019-11-26,25.975388811753866,119.5075179776564,福建省福州市长乐区大同路,绿驹电动车,绿驹
2019-11-26,26.034642166132347,119.31677276847691,福建省福州市仓山区万安路19号南80米,绿驹电动车,绿驹
2019-11-26,26.4773951482925,119.5876433966946,福建省福州市罗源县罗源湾滨海新城滨海商业街g119店面绿驹电动车,绿驹电动车,绿驹
2019-11-26,26.12479385831443,119.31084753186047,新店镇福飞北路32号浮村村民委员会楼下32号-1店面,绿驹电动车,绿驹
2019-11-26,26.0575920844957,119.26074660816067,建新镇金山大道418号汇创名居1期小区20号楼03店,绿驹电动车,绿驹
2019-11-26,26.203583291029112,119.54647881620511,福州市连江县,绿驹电动车,绿驹
2019-11-26,25.96925744807659,119.52943832000868,福州市长乐区,绿驹电动车,绿驹
2019-11-26,26.03925361179934,119.30096203904864,鹭岭路南台新苑紫竹园1-2号楼一层03店面,绿驹电动车,绿驹
2019-11-26,26.14962371080214,119.1654363639394,福建省福州市闽侯县华侨路,绿驹电动车,绿驹
2019-11-26,26.48114103515694,119.58142240915862,福建省福州市罗源县江滨南路,绿驹电动车(松山店),绿驹
2019-11-26,26.15469083215005,119.14509758904715,福建省福州市闽侯县甘洲路172号附近,铭鑫绿驹电动车,绿驹
2019-11-26,25.709856603794478,119.32882253527865,福建省福州市福清市福平街1号东北50米,绿驹电动车(福清店),绿驹
2019-11-26,26.06671248394882,119.36198483062678,福建省福州市晋安区鼓山镇福光南路260号东方纽约12栋3号绿驹电动维修中心,绿驹电动车,绿驹
2019-11-26,25.97047706130977,119.50932885286895,福建省福州市长乐区航城街道夏朱农贸市场绿驹电动车,绿驹电动车(长乐旗舰店),绿驹
2019-11-26,25.72634329903456,119.39046524748903,福州市福清市,绿驹电动车(顺达车行),绿驹
2019-11-26,25.96925744807659,119.52943832000868,福建省福州市长乐区槐海中路辅路,绿驹电动车(两港店),绿驹
2019-11-26,26.218402449208938,119.53820757839418,福建省福州市连江县凤城镇国优路财富天下7号楼14门店绿驹电动车店,绿驹电动车(连江动力体验店),绿驹
2019-11-26,26.13182663711474,119.19198563326103,福建省福州市闽侯县荆溪中心小学东60米(洪甘路南),绿驹电动车(明前车行),绿驹
2019-11-26,23.008093784680852,114.71036914793312,广东省惠州市惠东县大岭街道大岭镇惠东大道2435号工商银行绿驹电动车惠东4s销售中心,工商银行绿驹电动车惠东4s销售中心,绿驹
2019-11-26,23.413792304761518,111.24819652975934,广西壮族自治区梧州市龙圩区龙城路160号附近,绿驹电动车,绿驹
2019-11-26,23.37582368420633,110.92343932528838,南湖小区111号,绿驹电动车(南湖小区店),绿驹
2019-11-26,24.44599101825237,109.38916547197137,柳州市柳北区振兴路2号,绿驹电动车,绿驹
2019-11-26,25.2305114471283,109.4045632593399,广西壮族自治区柳州市融安县G209(呼北线),绿驹电动车,绿驹
2019-11-26,24.263961939983723,109.38415061409066,广西壮族自治区柳州市柳江区宝丰宾馆(龙怀路店)东,绿驹电动车,绿驹
2019-11-26,24.602575629349545,109.14101753372279,广西壮族自治区柳州市柳城县马大线,绿驹电动车,绿驹
2019-11-26,24.662936009451723,109.24273664158586,广西壮族自治区柳州市柳城县河东大道489附近,绿驹电动车,绿驹
2019-11-26,24.367867017647864,109.40853179342056,广西壮族自治区柳州市柳北区G209(呼北线),绿驹电动车,绿驹
2019-11-26,24.266954609872272,109.34865830199625,广西壮族自治区柳州市柳南区柳堡路376号,绿驹电动车(柳江旗舰店),绿驹
2019-11-26,24.260814965350463,109.33244423878395,柳州市柳江区,柳江区进德绿驹电动车专卖店,绿驹
2019-11-26,24.309391070436593,109.42370713788726,广西壮族自治区柳州市鱼峰区屏山大道113-7/8号,吉祥狮电动车绿驹电动车,绿驹
2019-11-26,24.30985902845728,109.4209920993148,屏山大道43号丰华大厦,绿驹吉祥狮柳州同利电动车销售有限公司,绿驹
2019-11-26,25.830923936542046,107.3336892157991,贵州省黔南布依族苗族自治州平塘县S312(迎宾大道),绿驹电动车,绿驹
2019-11-26,27.080968400284156,107.48676591927847,贵州省黔南布依族苗族自治州瓮安县S205(文峰北路),绿驹电动车,绿驹
2019-11-26,26.24790388655787,107.52733075777239,都匀市宫云宫花城26栋一层23-24号,绿驹电动车(云宫花城店),绿驹
2019-11-26,38.7540199251248,114.98944711459758,保定市唐县,绿驹电动车,绿驹
2019-11-26,38.62840651134268,114.71288668746142,保定市曲阳县商城东街86号,绿驹电动车,绿驹
2019-11-26,33.65299710281438,114.6576017405623,周口市川汇区,绿驹电动车,绿驹
2019-11-26,33.44048253859002,114.90807654168925,河南省周口市商水县平安大道,绿驹电动车,绿驹
2019-11-26,33.54887747535332,114.61841594743659,周口市商水县,绿驹电动车,绿驹
2019-11-26,33.737347183458404,114.89258615518705,周口市淮阳区,绿驹电动车,绿驹
2019-11-26,33.64998378163005,114.65369483023831,健康路(择邻名苑东门)门面房,绿驹电动车,绿驹
2019-11-26,34.09045028010844,114.41145650789163,扶亭路附近,绿驹电动车,绿驹
2019-11-26,34.065906253969246,114.4015098413696,周口市扶沟县,绿驹电动车,绿驹
2019-11-26,34.07003838224778,114.84438388999658,周口市太康县,绿驹电动车太康总代理,绿驹
2019-11-26,33.54887747535332,114.61841594743659,河南省周口市商水县S238,绿驹电动车,绿驹
2019-11-26,33.84890733718343,114.92519230960492,河南省周口市淮阳区临蔡镇临蔡二中西350米,绿驹电动车,绿驹
2019-11-26,33.64998378163005,114.65369483023831,健康路(择邻名苑东门)门面房,绿驹电动车(周口动力体验店),绿驹
2019-11-26,33.6318288757022,114.70348251482332,021县道北50米附近,绿驹电动车,绿驹
2019-11-26,33.77321533492214,114.53559667094417,周口市西华县,绿驹电动车小杰车行,绿驹
2019-11-26,34.22264270329483,114.75437520501616,河南省周口市太康县高贤乡韵达快递旁(汇嘉生活广场北),绿驹电动车(高贤专卖店),绿驹
2019-11-26,34.11256607158832,114.51286900255843,河南省周口市扶沟县G311(徐峡线),绿驹电动车(吕潭献伟专卖),绿驹
2019-11-26,34.065906253969246,114.4015098413696,河南省周口市扶沟县X003,绿驹电动车(大新专卖),绿驹
2019-11-26,33.65299710281438,114.6576017405623,周口市川汇区,绿驹电动车江涛车行,绿驹
2019-11-26,33.485541071841034,114.71023579598624,河南省周口市商水县平店乡客运站东南100米,绿驹电动车(周口生活馆平店分店),绿驹
2019-11-26,34.064021081841084,114.40523295838625,新建东路东方明珠购物广场斜对面(近新华路),绿驹电动车(新华路店),绿驹
2019-11-26,34.07003838224778,114.84438388999658,周口市太康县,绿驹电动车(马头华永车行动力体验店),绿驹
2019-11-26,33.6318288757022,114.70348251482332,010乡道与012乡道交叉口西北50米,绿驹电动车(曹里专卖店),绿驹
2019-11-26,34.215299530345135,114.5794301171174,河南省周口市扶沟县雨昕阳光太阳能(崔桥专卖店)北,绿驹电动车(崔桥孙飞专卖店),绿驹
2019-11-26,33.6318288757022,114.70348251482332,102省道西50米,绿驹电动车(练寺专卖店),绿驹
2019-11-26,33.6318288757022,114.70348251482332,010乡道与218省道交叉口西南200米附近,绿驹电动车(包屯专卖店),绿驹
2019-11-26,33.6318288757022,114.70348251482332,011县道附近,绿驹电动车(郑集形象店),绿驹
2019-11-26,33.6318288757022,114.70348251482332,210省道附近,绿驹电动车(玄武镇计划生育办公室西北),绿驹
2019-11-26,33.8671732903174,115.49058525860173,周口市鹿邑县,绿驹专卖,绿驹
2019-11-26,32.82345234119982,111.76045260077865,河南省南阳市淅川县岗楼线,绿驹电动车,绿驹
2019-11-26,32.99248379752679,112.54146183375731,南阳市卧龙区,绿驹电动车,绿驹
2019-11-26,33.00987004062646,112.546454166629,南阳市宛城区,绿驹电动车,绿驹
2019-11-26,33.05120310547566,111.8554252869733,南阳市内乡县,绿驹电动车,绿驹
2019-11-26,32.687720660005475,112.81342436588645,南阳市唐河县,绿驹电动车,绿驹
2019-11-26,32.69391743997009,112.09342010302309,南阳市邓州市,绿驹电动车,绿驹
2019-11-26,33.26053945583183,113.01850275279521,南阳市方城县,绿驹电动车,绿驹
2019-11-26,33.024125973051724,112.594746363879,河南省南阳市卧龙区邓禹路,绿驹电动车,绿驹
2019-11-26,33.05120310547566,111.8554252869733,河南省南阳市内乡县菊乡路,绿驹电动车,绿驹
2019-11-26,32.98194992269449,112.56406343304948,河南省南阳市宛城区长江中路562附近,绿驹电动车,绿驹
2019-11-26,32.69391743997009,112.09342010302309,河南省南阳市邓州市S231,绿驹电动车,绿驹
2019-11-26,33.153861018881585,112.44853015247797,河南省南阳市邓州市人民路,绿驹电动车,绿驹
2019-11-26,32.370950994543925,113.41161965922451,城关镇淮源大道盐业局对面,绿驹电动车,绿驹
2019-11-26,32.90553959777428,111.89277170973678,南阳市邓州市十林镇正义跆拳道西50米,绿驹电动车,绿驹
2019-11-26,33.02944316068567,112.56653878395007,河南省南阳市宛城区明山路,绿驹电动车,绿驹
2019-11-26,32.99248379752679,112.54146183375731,河南省南阳市卧龙区七一路26号附近,绿驹电动车,绿驹
2019-11-26,32.75932765213972,111.86566069942863,文清线与335省道交叉口南100米,绿驹电动车,绿驹
2019-11-26,32.93442304079533,111.7861543889282,建设东路一高西报社对面200米,绿驹电动车,绿驹
2019-11-26,32.99656220465144,112.53450131351325,249省道附近,绿驹电动车,绿驹
2019-11-26,32.68697357156219,112.11703563142234,中州大道东50米,绿驹电动车,绿驹
2019-11-26,33.0397185292249,112.24154448331042,南阳市镇平县,绿驹电动车(镇平旗舰店),绿驹
2019-11-26,33.00040626794549,112.56259337933854,河南省南阳市宛城区新华东路1022号附近,绿驹电动车摩配市场专卖店,绿驹
2019-11-26,33.65258325453659,111.26942035872783,河南省南阳市新野县朝阳街,绿驹电动车(新甸专卖),绿驹
2019-11-26,32.687720660005475,112.81342436588645,河南省南阳市唐河县廖源北路,绿驹电动车(唐河动力体验店),绿驹
2019-11-26,32.68547370438168,112.10434960650188,团结东路151号邓州市小东关摩托城,绿驹电动车(邓州动力体验店),绿驹
2019-11-26,33.0364601848722,112.24868879686183,河南省南阳市镇平县涅阳东路96号,绿驹电动车(镇平动力体验店),绿驹
2019-11-26,30.59679582416895,113.79940494279101,庙头镇平章小学对面,绿驹电动车,绿驹
2019-11-26,30.56821037058779,113.84693628698408,孝感市汉川市中心金马大道425号附近,绿驹电动车前进车行,绿驹
2019-11-26,30.567544945177822,113.84355169060265,湖北省汉川市马口镇金马大道250号,前进车行电动车服务站,绿驹
2019-11-26,30.56659090190368,113.83826159677785,马口镇金马大道电信大楼对面,绿驹电动车(马口敖家分店),绿驹
2019-11-26,30.01297915362835,115.34346009317721,黄石市阳新县S112(振兴大道),绿驹电动车,绿驹
2019-11-26,30.233432112928817,115.0828360333815,黄石大道98号1栋附1号,绿驹电动车(黄石旗舰店),绿驹
2019-11-26,30.015469109509844,114.74897540076513,湖北省黄石市大冶市灵乡老街101,绿驹电动车(灵乡动力体验店),绿驹
2019-11-26,30.180226053645782,114.95400400807407,湖北省黄石市下陆区新下陆街210,绿驹电动车(下陆专卖店),绿驹
2019-11-26,30.13684778832417,115.25225612365519,黄石市兴韦大道202,绿驹电动车(韦源口专卖店),绿驹
2019-11-26,29.870428588658317,115.44349711058025,闸南大道158号,绿驹电动车(富池动力体验店),绿驹
2019-11-26,29.126190558381275,110.54443192396839,张家界市永定区,绿驹电动车,绿驹
2019-11-26,26.425864117900094,111.61945505792227,宁运县冷江西路11号,宁远县绿驹电动车,绿驹
2019-11-26,25.618701605561835,112.08045447268887,嘉宁公路与057县道交叉口北100米,万事好车城(绿驹电动车),绿驹
2019-11-26,32.06465288561847,118.80242172124585,宁运县冷江西路11号,宁远县绿驹电动车,绿驹
2019-11-26,32.06465288561847,118.80242172124585,嘉宁公路与057县道交叉口北100米,万事好车城(绿驹电动车),绿驹
2019-11-26,34.447989951140876,117.48875880819192,江苏省徐州市贾汪区泓福路,绿驹电动车,绿驹
2019-11-26,33.91878941781798,117.94743277245068,徐州市睢宁县,绿驹电动车,绿驹
2019-11-26,33.90148896061587,117.93905095592366,江苏省徐州市睢宁县苏源线,绿驹电动车(瞧宁总代理),绿驹
2019-11-26,27.391784174303012,114.60964780237254,武功山大道北50米,绿驹电动车,绿驹
2019-11-26,27.213731936766028,115.14453179698788,文峰镇龙华中大道347号,绿驹电动车,绿驹
2019-11-26,27.32247497893135,115.43944349798477,恩江大道75号,绿驹电动车,绿驹
2019-11-26,27.224435744739417,115.14054368703356,文水大道88号附近,绿驹电动车,绿驹
2019-11-26,27.324342103714045,115.44740243988527,吉安市永丰县,绿驹电动车,绿驹
2019-11-26,27.66739630547785,115.50199255553915,金庙段与鸡峰中大道交叉口西北150米,绿驹电动车,绿驹
2019-11-26,27.399076477104835,114.62647813460515,江西省吉安市安福县S224,绿驹电动车,绿驹
2019-11-26,27.04710636212387,114.91718780856347,江西省吉安市吉安县文山路65号附近,绿驹电动车,绿驹
2019-11-26,27.744609233044304,115.40242278374363,江西省吉安市新干县善政大道,绿驹电动车,绿驹
2019-11-26,27.0320606418972,114.92844514863441,江西省吉安市吉安县君山大道284号,绿驹电动车,绿驹
2019-11-26,27.901902642711637,115.46238716392281,江西省吉安市新干县中国农业银行(新干县大洋州镇政府西),绿驹电动车,绿驹
2019-11-26,27.251548881689615,114.93670372033768,江西省吉安市吉安县桐坪镇桐坪信用社对面,绿驹电动车店,绿驹
2019-11-26,26.917107993527225,114.92469202821496,G105(京珠线),绿驹电动车,绿驹
2019-11-26,27.6053715700101,115.33080957117272,江西省吉安市峡江县水边镇玉峡大道峡江汽车站北450米,绿驹电动车(峡江动力体验店),绿驹
2019-11-26,27.38738395104638,114.62059396402509,吉安市安福县泸潇市场17号,绿驹电动车(泸潇市场店),绿驹
2019-11-26,26.79692209592093,114.90389752221789,江西省吉安市泰和县工农兵大道385号附近,绿驹电动车(泰和动力体验店),绿驹
2019-11-26,27.75538507265615,115.40364166664224,江西省吉安市新干县金川镇湘惠东路新干粮油贸易大厦附近,绿驹电动车(新干县动力体验店),绿驹
2019-11-26,27.131792085737214,115.04066416782032,105国道与332乡道交叉口东50米,绿驹电动车(城北动力体验店),绿驹
2019-11-26,40.50262265877466,120.61466371521118,武功山大道北50米,绿驹电动车,绿驹
2019-11-26,40.71736443636189,120.8433983399283,文峰镇龙华中大道347号,绿驹电动车,绿驹
2019-11-26,40.71736443636189,120.8433983399283,恩江大道75号,绿驹电动车,绿驹
2019-11-26,40.71736443636189,120.8433983399283,金庙段与鸡峰中大道交叉口西北150米,绿驹电动车,绿驹
2019-11-26,40.71736443636189,120.8433983399283,文水大道88号附近,绿驹电动车,绿驹
2019-11-26,27.20209758567616,115.13857946837557,江西省吉安市永丰县S223(桥南大道),绿驹电动车,绿驹
2019-11-26,40.71736443636189,120.8433983399283,G105(京珠线),绿驹电动车,绿驹
2019-11-26,27.325078861715532,115.44753940153196,江西省吉安市永丰县跃进路49号东100米,绿驹电动车,绿驹
2019-11-26,27.03809571408043,114.91042675706014,江西省吉安市吉安县龙飞休闲广场西(龙湖左岸西南),绿驹电动车,绿驹
2019-11-26,40.71736443636189,120.8433983399283,105国道与332乡道交叉口东50米,绿驹电动车(城北动力体验店),绿驹
2019-11-26,41.14542481341473,123.02283375127185,武功山大道北50米,绿驹电动车,绿驹
2019-11-26,41.11505359694933,123.00137251399407,文峰镇龙华中大道347号,绿驹电动车,绿驹
2019-11-26,41.11505359694933,123.00137251399407,恩江大道75号,绿驹电动车,绿驹
2019-11-26,41.11505359694933,123.00137251399407,金庙段与鸡峰中大道交叉口西北150米,绿驹电动车,绿驹
2019-11-26,41.11505359694933,123.00137251399407,文水大道88号附近,绿驹电动车,绿驹
2019-11-26,41.11505359694933,123.00137251399407,G105(京珠线),绿驹电动车,绿驹
2019-11-26,41.11505359694933,123.00137251399407,105国道与332乡道交叉口东50米,绿驹电动车(城北动力体验店),绿驹
2019-11-26,40.84842299711348,111.75550856170946,武功山大道北50米,绿驹电动车,绿驹
2019-11-26,40.84842299711348,111.75550856170946,恩江大道75号,绿驹电动车,绿驹
2019-11-26,40.84842299711348,111.75550856170946,文峰镇龙华中大道347号,绿驹电动车,绿驹
2019-11-26,40.84842299711348,111.75550856170946,金庙段与鸡峰中大道交叉口西北150米,绿驹电动车,绿驹
2019-11-26,40.84842299711348,111.75550856170946,文水大道88号附近,绿驹电动车,绿驹
2019-11-26,40.84842299711348,111.75550856170946,G105(京珠线),绿驹电动车,绿驹
2019-11-26,40.84842299711348,111.75550856170946,105国道与332乡道交叉口东50米,绿驹电动车(城北动力体验店),绿驹
2019-11-26,38.00371291345338,106.20537126663626,武功山大道北50米,绿驹电动车,绿驹
2019-11-26,38.00371291345338,106.20537126663626,文峰镇龙华中大道347号,绿驹电动车,绿驹
2019-11-26,38.00371291345338,106.20537126663626,恩江大道75号,绿驹电动车,绿驹
2019-11-26,38.00371291345338,106.20537126663626,金庙段与鸡峰中大道交叉口西北150米,绿驹电动车,绿驹
2019-11-26,38.00371291345338,106.20537126663626,文水大道88号附近,绿驹电动车,绿驹
2019-11-26,38.00371291345338,106.20537126663626,G105(京珠线),绿驹电动车,绿驹
2019-11-26,38.00371291345338,106.20537126663626,105国道与332乡道交叉口东50米,绿驹电动车(城北动力体验店),绿驹
2019-11-26,34.318890084556905,108.70700840100939,陕西省咸阳市秦都区世纪西路辅路,绿驹电动车,绿驹
2019-11-26,34.312465100950874,108.63891057407889,陕西省咸阳市秦都区继荣招待所(留渭路西),绿驹电动车,绿驹
2019-11-26,34.42728900737664,108.8155821683373,陕西省咸阳市渭城区天翼大道,绿驹电动车,绿驹
2019-11-26,34.531328771412795,108.44559110960087,218县道东150米,绿驹电动车,绿驹
2019-11-26,34.335476293368586,108.71542245143303,乾兴路西50米,绿驹电动车,绿驹
2019-11-26,34.54012820166638,108.84092875660684,泾云路20号,绿驹电动车,绿驹
2019-11-26,34.53401826614159,108.24537762553739,咸阳市乾县,绿驹电动车,绿驹
2019-11-26,34.68771430489458,108.2799856609707,咸阳市乾县峰阳镇,绿驹电动车,绿驹
2019-11-26,34.48739076850446,108.4316154916632,陕西省咸阳市礼泉县,绿驹电动车,绿驹
2019-11-26,34.560533003778026,108.63820303182871,陕西省咸阳市礼泉县烽火卫生院北(礼泉县烽火镇政府北),绿驹电动车,绿驹
2019-11-26,35.21606858014074,107.7952243378714,陕西省咸阳市长武县长相路2号,绿驹电动车,绿驹
2019-11-26,34.265301200429164,108.68971151044865,陕西省咸阳市秦都区咸户路,绿驹电动车(咸户路店),绿驹
2019-11-26,34.335476293368586,108.71542245143303,县环路228县附近,绿驹电动车,绿驹
2019-11-26,35.050710505804574,108.07841353294202,范公中学(二中)对面,绿驹电动车,绿驹
2019-11-26,34.701801989617806,108.14677296530144,中国农业银行对面,绿驹电动车,绿驹
2019-11-26,34.34791264514173,108.72193604402486,秦都区乐育北路东侧1号商住楼1层1-4号,绿驹电动车(咸阳4S店),绿驹
2019-11-26,34.27788978508044,108.09094780401429,康乐路172号,绿驹电动车(杨凌专卖店),绿驹
2019-11-26,34.531328771412795,108.44469280409089,106县道东50米,绿驹电动车,绿驹
2019-11-26,34.4084083235362,108.85527408565174,窑店街道邮局旁,绿驹电动车,绿驹
2019-11-26,35.048268368688795,108.25315521393095,张洪镇,绿驹电动车,绿驹
2019-11-26,34.40350600083798,108.27461154196911,姜村镇,绿驹电动车,绿驹
2019-11-26,34.30366941855992,108.70332613263918,陕西省咸阳市秦都区钓鱼台路,绿驹电动车(咸阳专卖店),绿驹
2019-11-26,34.532611522246896,108.2524539373617,温州商贸城,绿驹电动车门店,绿驹
2019-11-26,34.58119466754044,108.55456962105261,陕西省咸阳市礼泉县绿源电动车(烟霞专卖店),绿驹电动车(烟霞专卖店),绿驹
2019-11-26,34.30547652029205,108.49639400876816,陕西省咸阳市兴平市X326,绿驹电动车丰仪专卖店,绿驹
2019-11-26,34.26815515438843,108.21814740200331,育才东路与邰城路交叉口西北50米,绿驹电动车(武功专卖店),绿驹
2019-11-26,34.37976025277479,108.67419094716945,陕西省咸阳市秦都区西兰路四川饭店旁,绿驹电动车(动力体验店),绿驹
2019-11-26,35.11498051566835,108.14554890187455,咸阳市彬州市新民镇新民街道(胡家婆小学隔壁),绿驹电动车行,绿驹
2019-11-26,34.531328771412795,108.44469280409089,218县道东50米,绿驹电动车(薛录店),绿驹
2019-11-26,34.53430731402511,108.25318300211359,陕西省咸阳市乾县城关街道高庙街高庙幼儿园(高庙小学附近),绿驹电动车(乾县动力体验店),绿驹
2019-11-26,34.71196443106918,108.9232660023626,咸阳市三原县中国邮政(邮政储蓄)对面,绿驹电动车(三原县独李镇品牌店),绿驹
2019-11-26,35.18881989987361,108.02816699390252,陕西省咸阳市彬州市304县道(北极镇广场斜对面),北极绿驹电动车(北极镇专卖店),绿驹
2019-11-26,34.36811022936848,108.7434505714804,陕西省咸阳市渭城区X101,欣绿驹电动车(长陵路),绿驹
2019-11-26,34.35109072825111,108.69973108614077,陕西省咸阳市秦都区珠泉路23号,绿驹电动车助力摩托车专卖(珠泉路店),绿驹
2019-11-26,35.227662395556436,108.39824092491546,职田镇,绿驹电动车(旬邑专卖店),绿驹
2019-11-26,34.335476293368586,108.71542245143303,104省道北50米,绿驹电动车(长宁专卖),绿驹
2019-11-26,34.53331653276832,108.84937884704755,陕西省咸阳市泾阳县X321(三河路),绿驹电动车(永乐动力体验店),绿驹
2019-11-26,34.61973970897921,108.94960045720147,东亚商贸大厦南(三原商贸中心南),绿驹电动车(三原专卖店),绿驹
2019-11-26,34.5078089836815,108.57424403884049,陕西省咸阳市礼泉县大都饭店(322县道南),绿驹电动车(西张堡动力体验店),绿驹
2019-11-26,34.26613766763324,108.20655106478513,咸阳市武功县,鑫绿驹电动车(武功贞元专卖),绿驹
2019-11-26,34.30379504884019,108.76822898151487,沣东镇沣水园小区市场门口,鑫绿驹电动车,绿驹
2019-11-26,34.35308717129032,108.74921054773243,陕西省咸阳市渭城区东风路15号,欣绿驹电动车(东风路店),绿驹
2019-11-26,34.876248438844094,108.52176858284756,陕西省咸阳市淳化县创业大道西段,绿驹电动车军旗车行总代理,绿驹
2019-11-26,34.67450732806843,108.65747536807032,白王中学附近,绿驹电动车(白王专卖),绿驹
2019-11-26,34.335476293368586,108.71542245143303,关乾路西50米,绿驹电动车关头镇专卖店,绿驹
2019-11-26,34.54603780372721,108.86411815402472,咸阳市泾阳县211国道(云阳镇人民政府西南),绿驹电动车专卖店(云阳镇人民政府西南),绿驹
2019-11-26,35.106565665869255,107.94690410357057,强马路与西兰路交叉口西100米,绿驹电动车灵源动力体验店,绿驹
2019-11-26,34.308356823176034,108.49254800355774,西大街42号,绿驹电动车(兴平动力体验店),绿驹
2019-11-26,34.31894421208381,108.71319034190184,陈阳路陈阳寨转盘向南20米路西(绿驹电动车旁),何方烟酒,绿驹
2019-11-26,34.242479938236734,108.34040547128357,咸阳市兴平市桑镇老街道,绿驹车行,绿驹
2019-11-26,34.37892042668636,108.7379923908458,陕西省咸阳市渭城区迎宾大道,绿驹五星钻豹,绿驹
2019-11-26,34.61873829484619,108.94815409549985,陕西省咸阳市三原县池阳街西段辅路,绿驹三轮,绿驹
2019-11-26,34.34677966186203,108.69146400927822,陕西省咸阳市秦都区咸通北路4号附近,欣绿驹车行,绿驹
2019-11-26,34.53331653276832,108.84937884704755,陕西省咸阳市泾阳县X208,绿驹信远专卖店,绿驹
2019-11-26,32.7011961057378,109.03359606475921,安康市汉滨区316国道西50米,绿驹电动车,绿驹
2019-11-26,32.81509142087677,110.12409013186627,陕西省安康市白河县大桥路,绿驹电动车,绿驹
2019-11-26,32.392094516938315,109.3734664639008,城关镇新正街59号,绿驹电动车,绿驹
2019-11-26,32.89286529304738,108.52112018682875,富强东街与北城街丁字路口,绿驹电动车,绿驹
2019-11-26,32.728524376563975,108.89612792341453,陕西省安康市汉滨区G316(福兰线),鑫绿驹电动车,绿驹
2019-11-26,32.9072555676889,108.48971735306525,安康市汉阴县316国道西50米,绿驹电动车(蒲溪专卖店),绿驹
2019-11-26,36.2058580448846,117.0944948347959,富强东街与北城街丁字路口,绿驹电动车,绿驹
2019-11-26,36.2058580448846,117.0944948347959,城关镇新正街59号,绿驹电动车,绿驹
2019-11-26,37.470038383730525,121.45441541730195,富强东街与北城街丁字路口,绿驹电动车,绿驹
2019-11-26,37.470038383730525,121.45441541730195,城关镇新正街59号,绿驹电动车,绿驹
2019-11-26,38.2774622454041,111.68249916316586,山西省吕梁市岚县秀容街,绿驹电动车,绿驹
2019-11-26,37.523177008038864,111.15325301729685,永宁中路荣宁商城B区27号,绿驹电动车(吕梁体验店),绿驹
2019-11-26,35.302539092483705,111.32666708987766,山西省运城市夏县精诚电脑北50米(后夏线),绿驹电动车,绿驹
2019-11-26,35.645283720360034,110.67158212566048,山西省运城市河津市晋铝西路,绿驹电动车,绿驹
2019-11-26,35.61341489784946,111.22269508745688,顺城街与799县道交叉口西50米,绿驹电动车,绿驹
2019-11-26,34.69938811056296,110.70061151319877,山西省运城市芮城县古风线,绿驹电动车,绿驹
2019-11-26,35.45089724943436,111.16445668361729,山西省运城市闻喜县临夏线畖底镇政府北,绿驹电动车,绿驹
2019-11-26,35.34281472329095,111.36460930209265,山西省运城市闻喜县河底镇政府西100米(后夏线南),绿驹电动车,绿驹
2019-11-26,35.59682822329737,111.3640140947431,山西省运城市闻喜县S232(侯风线),绿驹电动车,绿驹
2019-11-26,35.36293119638129,111.23141035768413,山西省运城市闻喜县后郭线,绿驹电动车,绿驹
2019-11-26,35.302539092483705,111.32666708987766,山西省运城市闻喜县后夏线,绿驹电动车,绿驹
2019-11-26,35.6225089297213,111.24170826255887,山西省运城市新绛县东门街29号附近,绿驹电动车,绿驹
2019-11-26,35.43557523049437,111.31918351957243,山西省运城市闻喜县东镇镇候风线甘泉商贸城东北100米,绿驹电动车专卖,绿驹
2019-11-26,35.5908931526827,110.7199353223461,山西省运城市河津市莲池路绿驹电动车专卖店(莲池宾馆楼下),绿驹电动车(莲池路店),绿驹
2019-11-26,35.48490430088749,110.81803181115507,山西省运城市万荣县里望乡政府(管裴线北),天能电池绿驹电动车专卖,绿驹
2019-11-26,35.35548424422834,111.22706484789829,山西省运城市闻喜县西湖南路,绿驹电动车(运城动力体验店),绿驹
2019-11-26,35.35548424422834,111.22706484789829,山西省运城市闻喜县西湖南路公园一号A区斜对面,闻喜绿驹电动车动力体验店,绿驹
2019-11-26,35.47814687301924,111.52349656096635,山西省运城市闻喜县沁东线,绿驹电动车(东鲁专卖店),绿驹
2019-11-26,35.67617821783728,111.26329100733486,新三线与232省道交叉口南100米,豪爵铃木&绿驹电动车,绿驹
2019-11-26,32.39799605635261,105.93705603453874,大石镇卫生院后门向东50米(创业街114号),大运摩托 绿驹电动车,绿驹
2019-11-26,30.662711851870487,105.43043472353223,四川省遂宁市大英县回马镇临园大道东(回马综合大市场西北300米),绿驹电动车,绿驹
2019-11-26,30.87683710179972,105.3875589608632,四川省遂宁市射洪市新阳街439号绿驹电动车,绿驹赛鸽电动车,绿驹
2019-11-26,39.44745947418121,117.06307878336511,天津市武清区东环路,绿驹电动车,绿驹
2019-11-26,39.46440043205277,117.02133081541638,天津市武清区南蔡村镇金博工业园金通路5号,顺天绿驹公司,绿驹
2019-11-26,29.303549634254654,120.33713955291509,浙江省金华市东阳市振兴西路,绿驹电动车,绿驹
2019-11-26,29.259610167689512,120.24052720317957,浙江省金华市东阳市南市路173号附近,绿驹电动车,绿驹
2019-11-26,29.239336340658657,120.42774475943608,浙江省金华市东阳市里歌线,绿驹电动车,绿驹
2019-11-26,29.330318525153384,120.18266709018224,浙江省金华市义乌市武溪街8号附近,绿驹电动车,绿驹
2019-11-26,29.16209647704405,120.26335046384033,浙江省金华市东阳市后葛线,绿驹电动车,绿驹
2019-11-26,29.465002342722908,120.1128667281977,浙江省金华市义乌市糖果量贩KTV西北(镇中南路南),绿驹电动车,绿驹
2019-11-26,29.128451520683807,119.3355316861032,金华市兰溪市游埠镇和安北路59号,绿驹电动车,绿驹
2019-11-26,29.3425835300267,120.14440175389473,紫金北路55号,绿驹电动车,绿驹
2019-11-26,29.05470299499189,120.45225794925217,壶厅东路76号,绿驹电动车,绿驹
2019-11-26,29.111023621634924,120.22009059652916,浙江省金华市东阳市十里街11号附近,绿驹电动车,绿驹
2019-11-26,29.30068261651301,120.24256615277119,江北街道亭塘中街7号绿驹电动车,绿驹电动车专卖店,绿驹
2019-11-26,29.196437151391304,120.02441777379839,浙江省金华市义乌市渡磬南路,绿驹电动车,绿驹
2019-11-26,29.01839760268793,119.76049775841098,浙江省金华市武义县十白线,绿驹电动车,绿驹
2019-11-26,29.232093939404976,119.87227946540698,浙江省金华市金东区S103(华丰路),绿驹电动车,绿驹
2019-11-26,29.32844349552606,120.44308904372846,浙江省金华市东阳市巍东线巍山镇中心小学,绿驹电动车,绿驹
2019-11-26,28.984996992177404,120.16850874792544,古山镇西峰路59号,绿驹电动车,绿驹
2019-11-26,29.167230637143206,120.15410074770308,画水镇黄田畈顺达路1号剑峰车行,绿驹电动车,绿驹
2019-11-26,29.4130032961435,120.13593714953467,苏溪镇好派路16-18号,绿驹电动车,绿驹
2019-11-26,29.269683699067087,120.25129285842473,陈宅街72号,绿驹电动车,绿驹
2019-11-26,29.111724285502977,119.65817026056519,城中街道兰溪门府上街2号,绿驹电动车(新兰路店),绿驹
2019-11-26,29.298915878200667,120.0689089565564,贝村香山小区35幢3号,绿驹电动车,绿驹
2019-11-26,29.15845127506188,120.2943663920206,浙江省金华市东阳市横店镇华夏文化园附近,绿驹电动车(华夏大道店),绿驹
2019-11-26,29.00718263483271,120.57373152354225,盘山东路52号,绿驹电动车,绿驹
2019-11-26,29.268994610936087,119.47255213547206,女埠初级中学门口,绿驹电动车,绿驹
2019-11-26,29.222828593485886,119.48296421497366,灵洞乡农村合作银行东南,绿驹电动车,绿驹
2019-11-26,29.18368151041325,120.39984075377873,湖溪镇新兴路23号,绿驹电动车专卖,绿驹
2019-11-26,29.310024262461663,120.0406748550649,北苑街道季宅一区15幢,绿驹电动车(黄杨梅路店),绿驹
2019-11-26,29.05665364858546,119.4065488237413,金华市婺城区汤溪镇仙舟大街108号,绿驹电动车(汤溪专卖店),绿驹
2019-11-26,29.379152685259378,120.06293242939027,后宅街道城北路106号,绿驹电动车(上洪车行),绿驹
2019-11-26,29.45662549518838,119.89511006342713,浦阳街道和平南路48号,绿驹电动车(浦江专卖店),绿驹
2019-11-26,28.894203967254516,120.0545507107813,金华市永康市,绿驹电动车跃强电动连锁,绿驹
2019-11-26,28.89996164577857,120.05224452877515,望春东路4345号,绿驹电动车跃强电动连锁(九铃东路店),绿驹
2019-11-26,29.081169152022152,119.56303140674704,白龙桥镇金龙路232号(老兰溪路),绿驹电动车(白龙桥店),绿驹
2019-11-26,28.902255541664225,119.81829402614082,浙江省金华市武义县武阳西路金州大院东100米,绿驹电动车(武义动力体验店),绿驹
2019-11-26,29.21766731717334,119.46633657998947,丹溪大道40号,绿驹电动车(兰溪动力体验店),绿驹
2019-11-26,29.237381946672414,119.91354593799551,华丰路与清坊街交叉口西100米,绿驹电动车(傅村店),绿驹
2019-11-26,29.280301430232033,120.21664160552476,浙江省金华市东阳市东义路49号,绿驹电动车东义路动力体验馆(东义路店),绿驹
2019-11-26,29.005551991102077,120.42118979269127,219省道(深泽卫生院北),绿驹电动车(深泽卫生院北),绿驹
2019-11-26,29.199614440193493,120.36800197146343,浙江省金华市东阳市西郭线,绿驹电动车(南上湖卖店),绿驹
2019-11-26,29.306031998959917,120.34007109838656,大兴北街23号,绿驹电动车(六石旗舰店),绿驹
2019-11-26,29.294515179386504,120.25737426096248,艺海雅轩1幢2号(江北艺海北和甘溪东街交叉口红绿灯处),绿驹电动车(甘溪东街店),绿驹
2019-11-26,29.17475211482866,120.2746993403444,浙江省金华市东阳市横店镇下湖严缘和公寓,绿驹电动车(缘和公寓店),绿驹
2019-11-26,29.34408979491344,120.39564773315118,浙江省金华市东阳市中兴街,鑫绿驹电动车行,绿驹
2019-11-26,29.034726499005327,120.13107419242074,浙江省金华市永康市唐先东街,绿驹电动车专卖店(唐先连锁店),绿驹
2019-11-26,29.009945716921816,120.24127905165386,西溪镇西玉大街61号,绿驹电动车,绿驹
2019-11-26,30.534441486219304,120.45110706609323,崇福镇青年路6-1幢商528号,绿驹电动车,绿驹
2019-11-26,30.89951607972756,120.81832762038259,浙江省嘉兴市嘉善县兴贤东路,绿驹电动车,绿驹
2019-11-26,30.578249151617936,120.83611198810627,浙江省嘉兴市海盐县宋坡东路123附近,绿驹电动车,绿驹
2019-11-26,30.644789323599674,120.54005170819707,中山西路969号小永车行,绿驹电动车,绿驹
2019-11-26,30.863120095912688,120.77379997517784,油车港镇栖镇栖霞路199号,绿驹电动车,绿驹
2019-11-26,30.99646039504494,120.95444713656345,丁栅社区新栅路246-248号,绿驹电动车,绿驹
2019-11-26,30.68253893873295,120.91219307945987,浙江省嘉兴市南湖区新竹南路298附近,绿驹电动车,绿驹
2019-11-26,30.951756865744812,120.90516403018337,浙江省嘉兴市嘉善县新村路,绿驹电动车,绿驹
2019-11-26,30.751546813315446,120.7896100517546,浙江省嘉兴市南湖区S07(零七省道),绿驹电动车,绿驹
2019-11-26,30.68744938664547,120.66340415253775,浙江省嘉兴市秀洲区洪运路645附近,绿驹电动车,绿驹
2019-11-26,30.81459760940684,120.83042881068721,浙江省嘉兴市南湖区七星路860附近,绿驹电动车,绿驹
2019-11-26,30.58610332071319,120.35654356165159,浙江省嘉兴市桐乡市湘溪大道829西南60米,绿驹电动车,绿驹
2019-11-26,30.891608202770897,120.90460995523912,浙江省嘉兴市嘉善县叶新路56号附近,绿驹电动车,绿驹
2019-11-26,30.83141577620962,120.72404456422625,浙江省嘉兴市秀洲区建民路36附近,绿驹电动车(双桥专卖店),绿驹
2019-11-26,30.785350971234333,120.76928752181246,浙江省嘉兴市秀洲区东方路776,绿驹电动车(嘉兴动力体验店),绿驹
2019-11-26,30.659233033407233,120.57324866658993,齐福路1046-1052号,绿驹电动车桐乡市齐富路动力体验店,绿驹
2019-11-26,30.84761506653448,120.68180413801049,浙江省嘉兴市秀洲区天虹路17号南90米,绿驹电动车(虹阳专卖店),绿驹
2019-11-26,30.802034239239134,120.61286134605291,浙江省嘉兴市秀洲区人民路163附近,绿驹电动车华锋车行,绿驹
2019-11-26,30.428053546774994,120.64849212117375,嘉兴市海宁市镇中路112号,绿驹电动车(丁桥动力体验店),绿驹
2019-11-26,30.888070659566836,120.71077264468947,浙江省嘉兴市秀洲区北虹路438,绿驹电动车(王江泾动力体验店),绿驹
2019-11-26,30.39444320755449,120.33382242215029,浙江省嘉兴市海宁市前进路,绿驹电动车(前进动力体验店),绿驹
2019-11-26,30.681401500903043,120.63284774534442,凯旋路463-465号,绿驹电动车(濮院动力体验店),绿驹
2019-11-26,30.602374588130175,120.99997945811714,浙江省嘉兴市海盐县西塘桥街道北岸中心广场2-113绿驹电动车专卖店,绿驹电动车专卖店(北岸中心广场店),绿驹
2019-11-26,30.7733598869036,120.76922597261382,虹桥小区72号,绿驹电动车(虹桥小区店),绿驹
2019-11-26,38.98968283991508,106.3906004255049,崇福镇青年路6-1幢商528号,绿驹电动车,绿驹
2019-11-26,38.98968283991508,106.3906004255049,中山西路969号小永车行,绿驹电动车,绿驹
2019-11-26,30.72112421548456,121.12613966951575,浙江省嘉兴市平湖市圩水路,绿驹电动车,绿驹
2019-11-26,38.98968283991508,106.3906004255049,油车港镇栖镇栖霞路199号,绿驹电动车,绿驹
2019-11-26,30.622586217985564,120.56358270874276,嘉兴市桐乡市永兴路488号,绿驹电动车,绿驹
2019-11-26,30.64139815410858,120.55821520576126,嘉兴市桐乡市庆丰北路2-15号,绿驹电动车,绿驹
2019-11-26,38.98968283991508,106.3906004255049,丁栅社区新栅路246-248号,绿驹电动车,绿驹
2019-11-26,38.98968283991508,106.3906004255049,齐福路1046-1052号,绿驹电动车桐乡市齐富路动力体验店,绿驹
2019-11-26,38.98968283991508,106.3906004255049,虹桥小区72号,绿驹电动车(虹桥小区店),绿驹
2019-11-26,38.98968283991508,106.3906004255049,凯旋路463-465号,绿驹电动车(濮院动力体验店),绿驹
2019-11-26,27.30390590988229,103.6952711128472,昭通市昭阳区布新段与新小段交叉口北150米,绿驹电动车,绿驹
2019-11-26,27.278134231220953,103.74560088975693,云南省昭通市昭阳区昭烟线,绿驹电动车,绿驹
2019-11-26,23.39784903183102,110.08548521364737,广西壮族自治区贵港市桂平市桂南路,绿驹电动车(桂平专卖店),绿驹
2019-11-26,23.555141473961346,110.40398482193791,西山路86号,绿驹电动车(平南专卖店),绿驹
2019-11-26,23.117448382037534,109.60552031033306,342县道与508乡道交叉口西100米,绿驹电动车(丹竹专卖店),绿驹
2019-11-26,27.057661358782852,108.41916263598453,贵州省黔东南苗族侗族自治州镇远县共和街,绿驹电动车镇远总店,绿驹
2019-11-26,25.391640913267345,105.65100643409212,贵州省黔西南布依族苗族自治州贞丰县建设路,绿驹电动车,绿驹
2019-11-26,25.08579088583414,104.90213177035888,黔西南布依族苗族自治州兴义市南环路15号,绿驹电动车兴义动力体验店,绿驹
2019-11-26,33.699159542603404,114.03563663575194,河南省漯河市郾城区后魏线,绿驹电动车,绿驹
2019-11-26,33.83269194792997,113.93757834379157,河南省漯河市临颍县S329,绿驹电动车,绿驹
2019-11-26,33.79801903389209,113.81189116480331,河南省漯河市舞阳县S220(迎宾路),绿驹电动车,绿驹
2019-11-26,33.62372003908836,114.11739497840315,河南省漯河市召陵区政文路5西南70米,绿驹电动车,绿驹
2019-11-26,33.45749087842281,113.76314196630311,吴城镇农业银行对面,绿驹电动车,绿驹
2019-11-26,33.556293140368325,114.00013085984283,漯舞路与012县道交叉口西北50米,绿驹电动车,绿驹
2019-11-26,33.477453856372826,113.82350324572387,九街街中段路西中国邮政储蓄银行对面,绿驹电动车,绿驹
